{"name":"Serbia","isoCode":"RS","lat":44,"lon":21,"geocoding":{},"distantMaxMiles":5,"states":{"Belgrade":{"countryName":"Serbia","name":"Belgrade","isoCode":"00","lat":44.786568,"lon":20.4489216,"geocoding":{},"distantMaxMiles":5,"cities":{}},"Bor District":{"countryName":"Serbia","name":"Bor District","isoCode":"14","lat":44.0698918,"lon":22.0985086,"geocoding":{},"distantMaxMiles":5,"cities":{}},"Braničevo District":{"countryName":"Serbia","name":"Braničevo District","isoCode":"11","lat":44.6982246,"lon":21.5446775,"geocoding":{},"distantMaxMiles":5,"cities":{}},"Central Banat District":{"countryName":"Serbia","name":"Central Banat District","isoCode":"02","lat":45.4788485,"lon":20.6082522,"geocoding":{},"distantMaxMiles":5,"cities":{"Aranđelovac":{"countryName":"Serbia","stateName":"Central Banat District","name":"Aranđelovac","lat":44.30694,"lon":20.56,"geocoding":{},"distantMaxMiles":5},"Arilje":{"countryName":"Serbia","stateName":"Central Banat District","name":"Arilje","lat":43.75306,"lon":20.09556,"geocoding":{},"distantMaxMiles":5},"Badovinci":{"countryName":"Serbia","stateName":"Central Banat District","name":"Badovinci","lat":44.78534,"lon":19.37146,"geocoding":{},"distantMaxMiles":5},"Bajina Bašta":{"countryName":"Serbia","stateName":"Central Banat District","name":"Bajina Bašta","lat":43.97083,"lon":19.5675,"geocoding":{},"distantMaxMiles":5},"Banovo Polje":{"countryName":"Serbia","stateName":"Central Banat District","name":"Banovo Polje","lat":44.9104,"lon":19.44916,"geocoding":{},"distantMaxMiles":5},"Barič":{"countryName":"Serbia","stateName":"Central Banat District","name":"Barič","lat":44.6507,"lon":20.25941,"geocoding":{},"distantMaxMiles":5},"Belgrade":{"countryName":"Serbia","stateName":"Central Banat District","name":"Belgrade","lat":44.80401,"lon":20.46513,"geocoding":{},"distantMaxMiles":5},"Belotić":{"countryName":"Serbia","stateName":"Central Banat District","name":"Belotić","lat":44.81782,"lon":19.54801,"geocoding":{},"distantMaxMiles":5},"Bečmen":{"countryName":"Serbia","stateName":"Central Banat District","name":"Bečmen","lat":44.77983,"lon":20.20577,"geocoding":{},"distantMaxMiles":5},"Biljača":{"countryName":"Serbia","stateName":"Central Banat District","name":"Biljača","lat":42.35518,"lon":21.74781,"geocoding":{},"distantMaxMiles":5},"Bogatić":{"countryName":"Serbia","stateName":"Central Banat District","name":"Bogatić","lat":44.8375,"lon":19.48056,"geocoding":{},"distantMaxMiles":5},"Bogosavac":{"countryName":"Serbia","stateName":"Central Banat District","name":"Bogosavac","lat":44.71799,"lon":19.59533,"geocoding":{},"distantMaxMiles":5},"Boljevci":{"countryName":"Serbia","stateName":"Central Banat District","name":"Boljevci","lat":44.72355,"lon":20.22348,"geocoding":{},"distantMaxMiles":5},"Bor":{"countryName":"Serbia","stateName":"Central Banat District","name":"Bor","lat":44.36667,"lon":22.25,"geocoding":{},"distantMaxMiles":5},"Brdarica":{"countryName":"Serbia","stateName":"Central Banat District","name":"Brdarica","lat":44.55376,"lon":19.7715,"geocoding":{},"distantMaxMiles":5},"Bukor":{"countryName":"Serbia","stateName":"Central Banat District","name":"Bukor","lat":44.49523,"lon":19.57116,"geocoding":{},"distantMaxMiles":5},"Crna Bara":{"countryName":"Serbia","stateName":"Central Banat District","name":"Crna Bara","lat":44.87374,"lon":19.3948,"geocoding":{},"distantMaxMiles":5},"Dobanovci":{"countryName":"Serbia","stateName":"Central Banat District","name":"Dobanovci","lat":44.82631,"lon":20.22487,"geocoding":{},"distantMaxMiles":5},"Dobrić":{"countryName":"Serbia","stateName":"Central Banat District","name":"Dobrić","lat":44.70224,"lon":19.57931,"geocoding":{},"distantMaxMiles":5},"Donji Dobrić":{"countryName":"Serbia","stateName":"Central Banat District","name":"Donji Dobrić","lat":44.61183,"lon":19.33109,"geocoding":{},"distantMaxMiles":5},"Donji Milanovac":{"countryName":"Serbia","stateName":"Central Banat District","name":"Donji Milanovac","lat":44.46593,"lon":22.1517,"geocoding":{},"distantMaxMiles":5},"Draginje":{"countryName":"Serbia","stateName":"Central Banat District","name":"Draginje","lat":44.53302,"lon":19.7625,"geocoding":{},"distantMaxMiles":5},"Drenovac":{"countryName":"Serbia","stateName":"Central Banat District","name":"Drenovac","lat":44.86649,"lon":19.70943,"geocoding":{},"distantMaxMiles":5},"Dublje":{"countryName":"Serbia","stateName":"Central Banat District","name":"Dublje","lat":44.80117,"lon":19.50902,"geocoding":{},"distantMaxMiles":5},"Duboka":{"countryName":"Serbia","stateName":"Central Banat District","name":"Duboka","lat":44.52223,"lon":21.7603,"geocoding":{},"distantMaxMiles":5},"Glušci":{"countryName":"Serbia","stateName":"Central Banat District","name":"Glušci","lat":44.89021,"lon":19.54913,"geocoding":{},"distantMaxMiles":5},"Golubac":{"countryName":"Serbia","stateName":"Central Banat District","name":"Golubac","lat":44.65296,"lon":21.63199,"geocoding":{},"distantMaxMiles":5},"Gornja Bukovica":{"countryName":"Serbia","stateName":"Central Banat District","name":"Gornja Bukovica","lat":44.33987,"lon":19.81368,"geocoding":{},"distantMaxMiles":5},"Gornji Milanovac":{"countryName":"Serbia","stateName":"Central Banat District","name":"Gornji Milanovac","lat":44.02603,"lon":20.46152,"geocoding":{},"distantMaxMiles":5},"Grabovac":{"countryName":"Serbia","stateName":"Central Banat District","name":"Grabovac","lat":44.60049,"lon":20.08539,"geocoding":{},"distantMaxMiles":5},"Jablanica":{"countryName":"Serbia","stateName":"Central Banat District","name":"Jablanica","lat":42.99528,"lon":21.91778,"geocoding":{},"distantMaxMiles":5},"Jadranska Lešnica":{"countryName":"Serbia","stateName":"Central Banat District","name":"Jadranska Lešnica","lat":44.5973,"lon":19.35209,"geocoding":{},"distantMaxMiles":5},"Jagodina":{"countryName":"Serbia","stateName":"Central Banat District","name":"Jagodina","lat":43.97713,"lon":21.26121,"geocoding":{},"distantMaxMiles":5},"Jarebice":{"countryName":"Serbia","stateName":"Central Banat District","name":"Jarebice","lat":44.53995,"lon":19.42418,"geocoding":{},"distantMaxMiles":5},"Jelenča":{"countryName":"Serbia","stateName":"Central Banat District","name":"Jelenča","lat":44.727,"lon":19.735,"geocoding":{},"distantMaxMiles":5},"Jevremovac":{"countryName":"Serbia","stateName":"Central Banat District","name":"Jevremovac","lat":44.72172,"lon":19.66364,"geocoding":{},"distantMaxMiles":5},"Joševa":{"countryName":"Serbia","stateName":"Central Banat District","name":"Joševa","lat":44.58772,"lon":19.40967,"geocoding":{},"distantMaxMiles":5},"Kamenica":{"countryName":"Serbia","stateName":"Central Banat District","name":"Kamenica","lat":44.343,"lon":19.72333,"geocoding":{},"distantMaxMiles":5},"Klenje":{"countryName":"Serbia","stateName":"Central Banat District","name":"Klenje","lat":44.80794,"lon":19.43508,"geocoding":{},"distantMaxMiles":5},"Knjazevac":{"countryName":"Serbia","stateName":"Central Banat District","name":"Knjazevac","lat":43.56634,"lon":22.25701,"geocoding":{},"distantMaxMiles":5},"Kolubara":{"countryName":"Serbia","stateName":"Central Banat District","name":"Kolubara","lat":44.26333,"lon":19.8875,"geocoding":{},"distantMaxMiles":5},"Kozjak":{"countryName":"Serbia","stateName":"Central Banat District","name":"Kozjak","lat":44.58727,"lon":19.28412,"geocoding":{},"distantMaxMiles":5},"Kragujevac":{"countryName":"Serbia","stateName":"Central Banat District","name":"Kragujevac","lat":44.01667,"lon":20.91667,"geocoding":{},"distantMaxMiles":5},"Kraljevo":{"countryName":"Serbia","stateName":"Central Banat District","name":"Kraljevo","lat":43.72583,"lon":20.68944,"geocoding":{},"distantMaxMiles":5},"Krivaja":{"countryName":"Serbia","stateName":"Central Banat District","name":"Krivaja","lat":44.55021,"lon":19.59153,"geocoding":{},"distantMaxMiles":5},"Krupanj":{"countryName":"Serbia","stateName":"Central Banat District","name":"Krupanj","lat":44.36556,"lon":19.36194,"geocoding":{},"distantMaxMiles":5},"Kruševac":{"countryName":"Serbia","stateName":"Central Banat District","name":"Kruševac","lat":43.58,"lon":21.33389,"geocoding":{},"distantMaxMiles":5},"Lagja e Poshtme":{"countryName":"Serbia","stateName":"Central Banat District","name":"Lagja e Poshtme","lat":42.38853,"lon":21.72971,"geocoding":{},"distantMaxMiles":5},"Lapovo":{"countryName":"Serbia","stateName":"Central Banat District","name":"Lapovo","lat":44.18424,"lon":21.09727,"geocoding":{},"distantMaxMiles":5},"Lazarevac":{"countryName":"Serbia","stateName":"Central Banat District","name":"Lazarevac","lat":44.38534,"lon":20.2557,"geocoding":{},"distantMaxMiles":5},"Leskovac":{"countryName":"Serbia","stateName":"Central Banat District","name":"Leskovac","lat":42.99806,"lon":21.94611,"geocoding":{},"distantMaxMiles":5},"Lešnica":{"countryName":"Serbia","stateName":"Central Banat District","name":"Lešnica","lat":44.6525,"lon":19.31,"geocoding":{},"distantMaxMiles":5},"Lipnički Šor":{"countryName":"Serbia","stateName":"Central Banat District","name":"Lipnički Šor","lat":44.58058,"lon":19.26572,"geocoding":{},"distantMaxMiles":5},"Lipolist":{"countryName":"Serbia","stateName":"Central Banat District","name":"Lipolist","lat":44.69783,"lon":19.50101,"geocoding":{},"distantMaxMiles":5},"Ljig":{"countryName":"Serbia","stateName":"Central Banat District","name":"Ljig","lat":44.23007,"lon":20.23819,"geocoding":{},"distantMaxMiles":5},"Ljubovija":{"countryName":"Serbia","stateName":"Central Banat District","name":"Ljubovija","lat":44.18944,"lon":19.37667,"geocoding":{},"distantMaxMiles":5},"Lugavčina":{"countryName":"Serbia","stateName":"Central Banat District","name":"Lugavčina","lat":44.52314,"lon":21.07083,"geocoding":{},"distantMaxMiles":5},"Majdanpek":{"countryName":"Serbia","stateName":"Central Banat District","name":"Majdanpek","lat":44.42771,"lon":21.94596,"geocoding":{},"distantMaxMiles":5},"Majur":{"countryName":"Serbia","stateName":"Central Banat District","name":"Majur","lat":44.77105,"lon":19.65512,"geocoding":{},"distantMaxMiles":5},"Mala Moštanica":{"countryName":"Serbia","stateName":"Central Banat District","name":"Mala Moštanica","lat":44.63834,"lon":20.306,"geocoding":{},"distantMaxMiles":5},"Mali Zvornik":{"countryName":"Serbia","stateName":"Central Banat District","name":"Mali Zvornik","lat":44.37344,"lon":19.10651,"geocoding":{},"distantMaxMiles":5},"Mačva":{"countryName":"Serbia","stateName":"Central Banat District","name":"Mačva","lat":44.61472,"lon":19.47222,"geocoding":{},"distantMaxMiles":5},"Metković":{"countryName":"Serbia","stateName":"Central Banat District","name":"Metković","lat":44.85617,"lon":19.54654,"geocoding":{},"distantMaxMiles":5},"Miratovac":{"countryName":"Serbia","stateName":"Central Banat District","name":"Miratovac","lat":42.25846,"lon":21.66456,"geocoding":{},"distantMaxMiles":5},"Morava":{"countryName":"Serbia","stateName":"Central Banat District","name":"Morava","lat":43.80389,"lon":20.17806,"geocoding":{},"distantMaxMiles":5},"Negotin":{"countryName":"Serbia","stateName":"Central Banat District","name":"Negotin","lat":44.22639,"lon":22.53083,"geocoding":{},"distantMaxMiles":5},"Niš":{"countryName":"Serbia","stateName":"Central Banat District","name":"Niš","lat":43.32472,"lon":21.90333,"geocoding":{},"distantMaxMiles":5},"Nišava":{"countryName":"Serbia","stateName":"Central Banat District","name":"Nišava","lat":43.32306,"lon":21.89444,"geocoding":{},"distantMaxMiles":5},"Novi Pazar":{"countryName":"Serbia","stateName":"Central Banat District","name":"Novi Pazar","lat":43.13667,"lon":20.51222,"geocoding":{},"distantMaxMiles":5},"Novo Selo":{"countryName":"Serbia","stateName":"Central Banat District","name":"Novo Selo","lat":44.67041,"lon":19.34495,"geocoding":{},"distantMaxMiles":5},"Obrenovac":{"countryName":"Serbia","stateName":"Central Banat District","name":"Obrenovac","lat":44.65486,"lon":20.20017,"geocoding":{},"distantMaxMiles":5},"Osečina":{"countryName":"Serbia","stateName":"Central Banat District","name":"Osečina","lat":44.37306,"lon":19.60139,"geocoding":{},"distantMaxMiles":5},"Osječenik":{"countryName":"Serbia","stateName":"Central Banat District","name":"Osječenik","lat":43.14528,"lon":19.85889,"geocoding":{},"distantMaxMiles":5},"Ostružnica":{"countryName":"Serbia","stateName":"Central Banat District","name":"Ostružnica","lat":44.72769,"lon":20.31845,"geocoding":{},"distantMaxMiles":5},"Ovča":{"countryName":"Serbia","stateName":"Central Banat District","name":"Ovča","lat":44.88349,"lon":20.53336,"geocoding":{},"distantMaxMiles":5},"Paraćin":{"countryName":"Serbia","stateName":"Central Banat District","name":"Paraćin","lat":43.86083,"lon":21.40778,"geocoding":{},"distantMaxMiles":5},"Petkovica":{"countryName":"Serbia","stateName":"Central Banat District","name":"Petkovica","lat":44.66627,"lon":19.43923,"geocoding":{},"distantMaxMiles":5},"Pirot":{"countryName":"Serbia","stateName":"Central Banat District","name":"Pirot","lat":43.17528,"lon":22.59278,"geocoding":{},"distantMaxMiles":5},"Pocerski Pričinović":{"countryName":"Serbia","stateName":"Central Banat District","name":"Pocerski Pričinović","lat":44.72222,"lon":19.70722,"geocoding":{},"distantMaxMiles":5},"Podunavlje District":{"countryName":"Serbia","stateName":"Central Banat District","name":"Podunavlje District","lat":44.48417,"lon":20.91167,"geocoding":{},"distantMaxMiles":5},"Pomoravlje":{"countryName":"Serbia","stateName":"Central Banat District","name":"Pomoravlje","lat":43.93667,"lon":21.40222,"geocoding":{},"distantMaxMiles":5},"Požarevac":{"countryName":"Serbia","stateName":"Central Banat District","name":"Požarevac","lat":44.62133,"lon":21.18782,"geocoding":{},"distantMaxMiles":5},"Priboj":{"countryName":"Serbia","stateName":"Central Banat District","name":"Priboj","lat":43.58306,"lon":19.52519,"geocoding":{},"distantMaxMiles":5},"Prijepolje":{"countryName":"Serbia","stateName":"Central Banat District","name":"Prijepolje","lat":43.38996,"lon":19.6487,"geocoding":{},"distantMaxMiles":5},"Prislonica":{"countryName":"Serbia","stateName":"Central Banat District","name":"Prislonica","lat":43.95223,"lon":20.43521,"geocoding":{},"distantMaxMiles":5},"Prnjavor":{"countryName":"Serbia","stateName":"Central Banat District","name":"Prnjavor","lat":44.70061,"lon":19.38695,"geocoding":{},"distantMaxMiles":5},"Prokuplje":{"countryName":"Serbia","stateName":"Central Banat District","name":"Prokuplje","lat":43.23417,"lon":21.58806,"geocoding":{},"distantMaxMiles":5},"Pčinja":{"countryName":"Serbia","stateName":"Central Banat District","name":"Pčinja","lat":42.56278,"lon":21.8825,"geocoding":{},"distantMaxMiles":5},"Radenka":{"countryName":"Serbia","stateName":"Central Banat District","name":"Radenka","lat":44.58345,"lon":21.76469,"geocoding":{},"distantMaxMiles":5},"Radovnica":{"countryName":"Serbia","stateName":"Central Banat District","name":"Radovnica","lat":42.43364,"lon":22.22861,"geocoding":{},"distantMaxMiles":5},"Rajince":{"countryName":"Serbia","stateName":"Central Banat District","name":"Rajince","lat":42.3787,"lon":21.69591,"geocoding":{},"distantMaxMiles":5},"Rasina":{"countryName":"Serbia","stateName":"Central Banat District","name":"Rasina","lat":43.55917,"lon":21.21472,"geocoding":{},"distantMaxMiles":5},"Raška":{"countryName":"Serbia","stateName":"Central Banat District","name":"Raška","lat":43.26694,"lon":20.65278,"geocoding":{},"distantMaxMiles":5},"Ribari":{"countryName":"Serbia","stateName":"Central Banat District","name":"Ribari","lat":44.70961,"lon":19.42472,"geocoding":{},"distantMaxMiles":5},"Rumska":{"countryName":"Serbia","stateName":"Central Banat District","name":"Rumska","lat":44.57261,"lon":19.58988,"geocoding":{},"distantMaxMiles":5},"Rušanj":{"countryName":"Serbia","stateName":"Central Banat District","name":"Rušanj","lat":44.68477,"lon":20.44993,"geocoding":{},"distantMaxMiles":5},"Salaš Crnobarski":{"countryName":"Serbia","stateName":"Central Banat District","name":"Salaš Crnobarski","lat":44.82843,"lon":19.39437,"geocoding":{},"distantMaxMiles":5},"Samoljica":{"countryName":"Serbia","stateName":"Central Banat District","name":"Samoljica","lat":42.38445,"lon":21.73708,"geocoding":{},"distantMaxMiles":5},"Sinošević":{"countryName":"Serbia","stateName":"Central Banat District","name":"Sinošević","lat":44.61503,"lon":19.63601,"geocoding":{},"distantMaxMiles":5},"Sjenica":{"countryName":"Serbia","stateName":"Central Banat District","name":"Sjenica","lat":43.27306,"lon":19.99944,"geocoding":{},"distantMaxMiles":5},"Smederevo":{"countryName":"Serbia","stateName":"Central Banat District","name":"Smederevo","lat":44.66436,"lon":20.92763,"geocoding":{},"distantMaxMiles":5},"Smederevska Palanka":{"countryName":"Serbia","stateName":"Central Banat District","name":"Smederevska Palanka","lat":44.36548,"lon":20.95885,"geocoding":{},"distantMaxMiles":5},"Sokolovica":{"countryName":"Serbia","stateName":"Central Banat District","name":"Sokolovica","lat":43.21528,"lon":20.31556,"geocoding":{},"distantMaxMiles":5},"Sokolovo Brdo":{"countryName":"Serbia","stateName":"Central Banat District","name":"Sokolovo Brdo","lat":43.13694,"lon":19.80556,"geocoding":{},"distantMaxMiles":5},"Sremčica":{"countryName":"Serbia","stateName":"Central Banat District","name":"Sremčica","lat":44.67653,"lon":20.39232,"geocoding":{},"distantMaxMiles":5},"Stepojevac":{"countryName":"Serbia","stateName":"Central Banat District","name":"Stepojevac","lat":44.51278,"lon":20.295,"geocoding":{},"distantMaxMiles":5},"Stubline":{"countryName":"Serbia","stateName":"Central Banat District","name":"Stubline","lat":44.57476,"lon":20.13477,"geocoding":{},"distantMaxMiles":5},"Sumulicë":{"countryName":"Serbia","stateName":"Central Banat District","name":"Sumulicë","lat":42.38682,"lon":21.734,"geocoding":{},"distantMaxMiles":5},"Surčin":{"countryName":"Serbia","stateName":"Central Banat District","name":"Surčin","lat":44.79306,"lon":20.28028,"geocoding":{},"distantMaxMiles":5},"Tabanović":{"countryName":"Serbia","stateName":"Central Banat District","name":"Tabanović","lat":44.82018,"lon":19.64128,"geocoding":{},"distantMaxMiles":5},"Toplica":{"countryName":"Serbia","stateName":"Central Banat District","name":"Toplica","lat":43.14194,"lon":21.27806,"geocoding":{},"distantMaxMiles":5},"Trstenik":{"countryName":"Serbia","stateName":"Central Banat District","name":"Trstenik","lat":43.61694,"lon":21.0025,"geocoding":{},"distantMaxMiles":5},"Tršić":{"countryName":"Serbia","stateName":"Central Banat District","name":"Tršić","lat":44.49502,"lon":19.2649,"geocoding":{},"distantMaxMiles":5},"Turija":{"countryName":"Serbia","stateName":"Central Banat District","name":"Turija","lat":44.52273,"lon":21.63945,"geocoding":{},"distantMaxMiles":5},"Tutin":{"countryName":"Serbia","stateName":"Central Banat District","name":"Tutin","lat":42.99028,"lon":20.33139,"geocoding":{},"distantMaxMiles":5},"Ugrinovci":{"countryName":"Serbia","stateName":"Central Banat District","name":"Ugrinovci","lat":44.87635,"lon":20.18763,"geocoding":{},"distantMaxMiles":5},"Umka":{"countryName":"Serbia","stateName":"Central Banat District","name":"Umka","lat":44.67806,"lon":20.30472,"geocoding":{},"distantMaxMiles":5},"Uzveće":{"countryName":"Serbia","stateName":"Central Banat District","name":"Uzveće","lat":44.87861,"lon":19.60356,"geocoding":{},"distantMaxMiles":5},"Užice":{"countryName":"Serbia","stateName":"Central Banat District","name":"Užice","lat":43.85861,"lon":19.84878,"geocoding":{},"distantMaxMiles":5},"Valjevo":{"countryName":"Serbia","stateName":"Central Banat District","name":"Valjevo","lat":44.27513,"lon":19.89821,"geocoding":{},"distantMaxMiles":5},"Varna":{"countryName":"Serbia","stateName":"Central Banat District","name":"Varna","lat":44.67914,"lon":19.6515,"geocoding":{},"distantMaxMiles":5},"Velika Moštanica":{"countryName":"Serbia","stateName":"Central Banat District","name":"Velika Moštanica","lat":44.66486,"lon":20.35395,"geocoding":{},"distantMaxMiles":5},"Vladimirci":{"countryName":"Serbia","stateName":"Central Banat District","name":"Vladimirci","lat":44.61472,"lon":19.78528,"geocoding":{},"distantMaxMiles":5},"Vranić":{"countryName":"Serbia","stateName":"Central Banat District","name":"Vranić","lat":44.60237,"lon":20.32872,"geocoding":{},"distantMaxMiles":5},"Vranje":{"countryName":"Serbia","stateName":"Central Banat District","name":"Vranje","lat":42.55139,"lon":21.90028,"geocoding":{},"distantMaxMiles":5},"Vrnjačka Banja":{"countryName":"Serbia","stateName":"Central Banat District","name":"Vrnjačka Banja","lat":43.62725,"lon":20.89634,"geocoding":{},"distantMaxMiles":5},"Zaječar":{"countryName":"Serbia","stateName":"Central Banat District","name":"Zaječar","lat":43.69917,"lon":21.98778,"geocoding":{},"distantMaxMiles":5},"Zemun":{"countryName":"Serbia","stateName":"Central Banat District","name":"Zemun","lat":44.8458,"lon":20.40116,"geocoding":{},"distantMaxMiles":5},"Zlatibor":{"countryName":"Serbia","stateName":"Central Banat District","name":"Zlatibor","lat":43.729,"lon":19.70029,"geocoding":{},"distantMaxMiles":5},"Zminjak":{"countryName":"Serbia","stateName":"Central Banat District","name":"Zminjak","lat":44.75711,"lon":19.4707,"geocoding":{},"distantMaxMiles":5},"Zvečka":{"countryName":"Serbia","stateName":"Central Banat District","name":"Zvečka","lat":44.64025,"lon":20.16432,"geocoding":{},"distantMaxMiles":5},"Ðurići":{"countryName":"Serbia","stateName":"Central Banat District","name":"Ðurići","lat":43.82533,"lon":19.41233,"geocoding":{},"distantMaxMiles":5},"Ćićevac":{"countryName":"Serbia","stateName":"Central Banat District","name":"Ćićevac","lat":43.71882,"lon":21.44085,"geocoding":{},"distantMaxMiles":5},"Ćuprija":{"countryName":"Serbia","stateName":"Central Banat District","name":"Ćuprija","lat":43.9275,"lon":21.37,"geocoding":{},"distantMaxMiles":5},"Čajetina":{"countryName":"Serbia","stateName":"Central Banat District","name":"Čajetina","lat":43.74977,"lon":19.71273,"geocoding":{},"distantMaxMiles":5},"Čačak":{"countryName":"Serbia","stateName":"Central Banat District","name":"Čačak","lat":43.89139,"lon":20.34972,"geocoding":{},"distantMaxMiles":5},"Čokešina":{"countryName":"Serbia","stateName":"Central Banat District","name":"Čokešina","lat":44.65319,"lon":19.39016,"geocoding":{},"distantMaxMiles":5},"Šabac":{"countryName":"Serbia","stateName":"Central Banat District","name":"Šabac","lat":44.74667,"lon":19.69,"geocoding":{},"distantMaxMiles":5},"Ševarice":{"countryName":"Serbia","stateName":"Central Banat District","name":"Ševarice","lat":44.86704,"lon":19.66006,"geocoding":{},"distantMaxMiles":5},"Ševica":{"countryName":"Serbia","stateName":"Central Banat District","name":"Ševica","lat":44.50883,"lon":21.72296,"geocoding":{},"distantMaxMiles":5},"Štitar":{"countryName":"Serbia","stateName":"Central Banat District","name":"Štitar","lat":44.79415,"lon":19.59529,"geocoding":{},"distantMaxMiles":5},"Šumadija":{"countryName":"Serbia","stateName":"Central Banat District","name":"Šumadija","lat":44.00222,"lon":20.91778,"geocoding":{},"distantMaxMiles":5},"Žujince":{"countryName":"Serbia","stateName":"Central Banat District","name":"Žujince","lat":42.31568,"lon":21.70212,"geocoding":{},"distantMaxMiles":5}}},"Jablanica District":{"countryName":"Serbia","name":"Jablanica District","isoCode":"23","lat":42.948156,"lon":21.8129321,"geocoding":{},"distantMaxMiles":5,"cities":{}},"Kolubara District":{"countryName":"Serbia","name":"Kolubara District","isoCode":"09","lat":44.3509811,"lon":20.0004305,"geocoding":{},"distantMaxMiles":5,"cities":{}},"Mačva District":{"countryName":"Serbia","name":"Mačva District","isoCode":"08","lat":44.5925314,"lon":19.5082246,"geocoding":{},"distantMaxMiles":5,"cities":{}},"Moravica District":{"countryName":"Serbia","name":"Moravica District","isoCode":"17","lat":43.84147,"lon":20.2904987,"geocoding":{},"distantMaxMiles":5,"cities":{}},"Nišava District":{"countryName":"Serbia","name":"Nišava District","isoCode":"20","lat":43.3738902,"lon":21.9322331,"geocoding":{},"distantMaxMiles":5,"cities":{}},"North Banat District":{"countryName":"Serbia","name":"North Banat District","isoCode":"03","lat":45.906839,"lon":19.9993417,"geocoding":{},"distantMaxMiles":5,"cities":{}},"North Bačka District":{"countryName":"Serbia","name":"North Bačka District","isoCode":"01","lat":45.9803394,"lon":19.5907001,"geocoding":{},"distantMaxMiles":5,"cities":{}},"Pirot District":{"countryName":"Serbia","name":"Pirot District","isoCode":"22","lat":43.0874036,"lon":22.5983044,"geocoding":{},"distantMaxMiles":5,"cities":{}},"Podunavlje District":{"countryName":"Serbia","name":"Podunavlje District","isoCode":"10","lat":44.4729156,"lon":20.9901426,"geocoding":{},"distantMaxMiles":5,"cities":{}},"Pomoravlje District":{"countryName":"Serbia","name":"Pomoravlje District","isoCode":"13","lat":43.9591379,"lon":21.271353,"geocoding":{},"distantMaxMiles":5,"cities":{}},"Pčinja District":{"countryName":"Serbia","name":"Pčinja District","isoCode":"24","lat":42.5836362,"lon":22.1430215,"geocoding":{},"distantMaxMiles":5,"cities":{}},"Rasina District":{"countryName":"Serbia","name":"Rasina District","isoCode":"19","lat":43.5263525,"lon":21.1588178,"geocoding":{},"distantMaxMiles":5,"cities":{}},"Raška District":{"countryName":"Serbia","name":"Raška District","isoCode":"18","lat":43.3373461,"lon":20.5734005,"geocoding":{},"distantMaxMiles":5,"cities":{}},"South Banat District":{"countryName":"Serbia","name":"South Banat District","isoCode":"04","lat":45.0027457,"lon":21.0542509,"geocoding":{},"distantMaxMiles":5,"cities":{}},"South Bačka District":{"countryName":"Serbia","name":"South Bačka District","isoCode":"06","lat":45.4890344,"lon":19.6976187,"geocoding":{},"distantMaxMiles":5,"cities":{}},"Srem District":{"countryName":"Serbia","name":"Srem District","isoCode":"07","lat":45.0029171,"lon":19.8013773,"geocoding":{},"distantMaxMiles":5,"cities":{}},"Toplica District":{"countryName":"Serbia","name":"Toplica District","isoCode":"21","lat":43.1906592,"lon":21.3407762,"geocoding":{},"distantMaxMiles":5,"cities":{}},"Vojvodina":{"countryName":"Serbia","name":"Vojvodina","isoCode":"VO","lat":45.2608651,"lon":19.8319338,"geocoding":{},"distantMaxMiles":5,"cities":{"Adorjan":{"countryName":"Serbia","stateName":"Vojvodina","name":"Adorjan","lat":46.00333,"lon":20.04007,"geocoding":{},"distantMaxMiles":5},"Aleksandrovo":{"countryName":"Serbia","stateName":"Vojvodina","name":"Aleksandrovo","lat":45.63755,"lon":20.59288,"geocoding":{},"distantMaxMiles":5},"Alibunar":{"countryName":"Serbia","stateName":"Vojvodina","name":"Alibunar","lat":45.08083,"lon":20.96583,"geocoding":{},"distantMaxMiles":5},"Apatin":{"countryName":"Serbia","stateName":"Vojvodina","name":"Apatin","lat":45.6726,"lon":18.978,"geocoding":{},"distantMaxMiles":5},"Aradac":{"countryName":"Serbia","stateName":"Vojvodina","name":"Aradac","lat":45.38346,"lon":20.30137,"geocoding":{},"distantMaxMiles":5},"Banatska Topola":{"countryName":"Serbia","stateName":"Vojvodina","name":"Banatska Topola","lat":45.67248,"lon":20.4653,"geocoding":{},"distantMaxMiles":5},"Banatski Despotovac":{"countryName":"Serbia","stateName":"Vojvodina","name":"Banatski Despotovac","lat":45.36606,"lon":20.66407,"geocoding":{},"distantMaxMiles":5},"Banatski Dvor":{"countryName":"Serbia","stateName":"Vojvodina","name":"Banatski Dvor","lat":45.51866,"lon":20.51146,"geocoding":{},"distantMaxMiles":5},"Banatski Karlovac":{"countryName":"Serbia","stateName":"Vojvodina","name":"Banatski Karlovac","lat":45.04987,"lon":21.018,"geocoding":{},"distantMaxMiles":5},"Banatsko Karađorđevo":{"countryName":"Serbia","stateName":"Vojvodina","name":"Banatsko Karađorđevo","lat":45.58693,"lon":20.56421,"geocoding":{},"distantMaxMiles":5},"Banatsko Veliko Selo":{"countryName":"Serbia","stateName":"Vojvodina","name":"Banatsko Veliko Selo","lat":45.81961,"lon":20.60772,"geocoding":{},"distantMaxMiles":5},"Baranda":{"countryName":"Serbia","stateName":"Vojvodina","name":"Baranda","lat":45.08459,"lon":20.44264,"geocoding":{},"distantMaxMiles":5},"Barice":{"countryName":"Serbia","stateName":"Vojvodina","name":"Barice","lat":45.18189,"lon":21.08279,"geocoding":{},"distantMaxMiles":5},"Bačka Palanka":{"countryName":"Serbia","stateName":"Vojvodina","name":"Bačka Palanka","lat":45.24966,"lon":19.39664,"geocoding":{},"distantMaxMiles":5},"Bačka Topola":{"countryName":"Serbia","stateName":"Vojvodina","name":"Bačka Topola","lat":45.81516,"lon":19.6318,"geocoding":{},"distantMaxMiles":5},"Bački Breg":{"countryName":"Serbia","stateName":"Vojvodina","name":"Bački Breg","lat":45.92034,"lon":18.92944,"geocoding":{},"distantMaxMiles":5},"Bački Petrovac":{"countryName":"Serbia","stateName":"Vojvodina","name":"Bački Petrovac","lat":45.36056,"lon":19.59167,"geocoding":{},"distantMaxMiles":5},"Bačko Gradište":{"countryName":"Serbia","stateName":"Vojvodina","name":"Bačko Gradište","lat":45.53271,"lon":20.03082,"geocoding":{},"distantMaxMiles":5},"Bačko Petrovo Selo":{"countryName":"Serbia","stateName":"Vojvodina","name":"Bačko Petrovo Selo","lat":45.70681,"lon":20.07928,"geocoding":{},"distantMaxMiles":5},"Bašaid":{"countryName":"Serbia","stateName":"Vojvodina","name":"Bašaid","lat":45.64102,"lon":20.41434,"geocoding":{},"distantMaxMiles":5},"Bela Crkva":{"countryName":"Serbia","stateName":"Vojvodina","name":"Bela Crkva","lat":44.8975,"lon":21.41722,"geocoding":{},"distantMaxMiles":5},"Belegiš":{"countryName":"Serbia","stateName":"Vojvodina","name":"Belegiš","lat":45.0192,"lon":20.33323,"geocoding":{},"distantMaxMiles":5},"Belo Blato":{"countryName":"Serbia","stateName":"Vojvodina","name":"Belo Blato","lat":45.27278,"lon":20.375,"geocoding":{},"distantMaxMiles":5},"Bečej":{"countryName":"Serbia","stateName":"Vojvodina","name":"Bečej","lat":45.61632,"lon":20.03331,"geocoding":{},"distantMaxMiles":5},"Beška":{"countryName":"Serbia","stateName":"Vojvodina","name":"Beška","lat":45.13092,"lon":20.06698,"geocoding":{},"distantMaxMiles":5},"Bogojevo":{"countryName":"Serbia","stateName":"Vojvodina","name":"Bogojevo","lat":45.53015,"lon":19.13022,"geocoding":{},"distantMaxMiles":5},"Boka":{"countryName":"Serbia","stateName":"Vojvodina","name":"Boka","lat":45.3554,"lon":20.82987,"geocoding":{},"distantMaxMiles":5},"Bosut":{"countryName":"Serbia","stateName":"Vojvodina","name":"Bosut","lat":44.92977,"lon":19.36086,"geocoding":{},"distantMaxMiles":5},"Botoš":{"countryName":"Serbia","stateName":"Vojvodina","name":"Botoš","lat":45.30837,"lon":20.63514,"geocoding":{},"distantMaxMiles":5},"Bočar":{"countryName":"Serbia","stateName":"Vojvodina","name":"Bočar","lat":45.76994,"lon":20.2839,"geocoding":{},"distantMaxMiles":5},"Buđanovci":{"countryName":"Serbia","stateName":"Vojvodina","name":"Buđanovci","lat":44.89388,"lon":19.86344,"geocoding":{},"distantMaxMiles":5},"Crepaja":{"countryName":"Serbia","stateName":"Vojvodina","name":"Crepaja","lat":45.00984,"lon":20.63702,"geocoding":{},"distantMaxMiles":5},"Debeljača":{"countryName":"Serbia","stateName":"Vojvodina","name":"Debeljača","lat":45.0707,"lon":20.60153,"geocoding":{},"distantMaxMiles":5},"Despotovo":{"countryName":"Serbia","stateName":"Vojvodina","name":"Despotovo","lat":45.45983,"lon":19.52653,"geocoding":{},"distantMaxMiles":5},"Dobrica":{"countryName":"Serbia","stateName":"Vojvodina","name":"Dobrica","lat":45.21339,"lon":20.84995,"geocoding":{},"distantMaxMiles":5},"Doroslovo":{"countryName":"Serbia","stateName":"Vojvodina","name":"Doroslovo","lat":45.60699,"lon":19.18868,"geocoding":{},"distantMaxMiles":5},"Elemir":{"countryName":"Serbia","stateName":"Vojvodina","name":"Elemir","lat":45.44263,"lon":20.30003,"geocoding":{},"distantMaxMiles":5},"Ečka":{"countryName":"Serbia","stateName":"Vojvodina","name":"Ečka","lat":45.32328,"lon":20.44294,"geocoding":{},"distantMaxMiles":5},"Farkaždin":{"countryName":"Serbia","stateName":"Vojvodina","name":"Farkaždin","lat":45.19172,"lon":20.47239,"geocoding":{},"distantMaxMiles":5},"Gakovo":{"countryName":"Serbia","stateName":"Vojvodina","name":"Gakovo","lat":45.90078,"lon":19.06138,"geocoding":{},"distantMaxMiles":5},"Gardinovci":{"countryName":"Serbia","stateName":"Vojvodina","name":"Gardinovci","lat":45.20359,"lon":20.13558,"geocoding":{},"distantMaxMiles":5},"Gložan":{"countryName":"Serbia","stateName":"Vojvodina","name":"Gložan","lat":45.27954,"lon":19.56838,"geocoding":{},"distantMaxMiles":5},"Golubinci":{"countryName":"Serbia","stateName":"Vojvodina","name":"Golubinci","lat":44.98533,"lon":20.06339,"geocoding":{},"distantMaxMiles":5},"Gornji Breg":{"countryName":"Serbia","stateName":"Vojvodina","name":"Gornji Breg","lat":45.91995,"lon":20.01766,"geocoding":{},"distantMaxMiles":5},"Grabovci":{"countryName":"Serbia","stateName":"Vojvodina","name":"Grabovci","lat":44.76496,"lon":19.84489,"geocoding":{},"distantMaxMiles":5},"Gudurica":{"countryName":"Serbia","stateName":"Vojvodina","name":"Gudurica","lat":45.16816,"lon":21.44264,"geocoding":{},"distantMaxMiles":5},"Hajdučica":{"countryName":"Serbia","stateName":"Vojvodina","name":"Hajdučica","lat":45.2501,"lon":20.96016,"geocoding":{},"distantMaxMiles":5},"Hetin":{"countryName":"Serbia","stateName":"Vojvodina","name":"Hetin","lat":45.66202,"lon":20.79138,"geocoding":{},"distantMaxMiles":5},"Hrtkovci":{"countryName":"Serbia","stateName":"Vojvodina","name":"Hrtkovci","lat":44.88155,"lon":19.76374,"geocoding":{},"distantMaxMiles":5},"Idvor":{"countryName":"Serbia","stateName":"Vojvodina","name":"Idvor","lat":45.18895,"lon":20.51442,"geocoding":{},"distantMaxMiles":5},"Ilandža":{"countryName":"Serbia","stateName":"Vojvodina","name":"Ilandža","lat":45.16897,"lon":20.92008,"geocoding":{},"distantMaxMiles":5},"Inđija":{"countryName":"Serbia","stateName":"Vojvodina","name":"Inđija","lat":45.04816,"lon":20.08165,"geocoding":{},"distantMaxMiles":5},"Irig":{"countryName":"Serbia","stateName":"Vojvodina","name":"Irig","lat":45.0523,"lon":19.84448,"geocoding":{},"distantMaxMiles":5},"Izbište":{"countryName":"Serbia","stateName":"Vojvodina","name":"Izbište","lat":45.02253,"lon":21.18388,"geocoding":{},"distantMaxMiles":5},"Janošik":{"countryName":"Serbia","stateName":"Vojvodina","name":"Janošik","lat":45.17141,"lon":21.00658,"geocoding":{},"distantMaxMiles":5},"Jarak":{"countryName":"Serbia","stateName":"Vojvodina","name":"Jarak","lat":44.91843,"lon":19.75477,"geocoding":{},"distantMaxMiles":5},"Jarkovac":{"countryName":"Serbia","stateName":"Vojvodina","name":"Jarkovac","lat":45.26985,"lon":20.76078,"geocoding":{},"distantMaxMiles":5},"Jazovo":{"countryName":"Serbia","stateName":"Vojvodina","name":"Jazovo","lat":45.89876,"lon":20.2213,"geocoding":{},"distantMaxMiles":5},"Jaša Tomić":{"countryName":"Serbia","stateName":"Vojvodina","name":"Jaša Tomić","lat":45.44725,"lon":20.85546,"geocoding":{},"distantMaxMiles":5},"Jermenovci":{"countryName":"Serbia","stateName":"Vojvodina","name":"Jermenovci","lat":45.18635,"lon":21.0455,"geocoding":{},"distantMaxMiles":5},"Kanjiža":{"countryName":"Serbia","stateName":"Vojvodina","name":"Kanjiža","lat":46.06667,"lon":20.05,"geocoding":{},"distantMaxMiles":5},"Kikinda":{"countryName":"Serbia","stateName":"Vojvodina","name":"Kikinda","lat":45.82972,"lon":20.46528,"geocoding":{},"distantMaxMiles":5},"Kisač":{"countryName":"Serbia","stateName":"Vojvodina","name":"Kisač","lat":45.35421,"lon":19.72975,"geocoding":{},"distantMaxMiles":5},"Klek":{"countryName":"Serbia","stateName":"Vojvodina","name":"Klek","lat":45.42254,"lon":20.48049,"geocoding":{},"distantMaxMiles":5},"Klenak":{"countryName":"Serbia","stateName":"Vojvodina","name":"Klenak","lat":44.78846,"lon":19.71004,"geocoding":{},"distantMaxMiles":5},"Knićanin":{"countryName":"Serbia","stateName":"Vojvodina","name":"Knićanin","lat":45.18675,"lon":20.319,"geocoding":{},"distantMaxMiles":5},"Kolut":{"countryName":"Serbia","stateName":"Vojvodina","name":"Kolut","lat":45.89292,"lon":18.9276,"geocoding":{},"distantMaxMiles":5},"Konak":{"countryName":"Serbia","stateName":"Vojvodina","name":"Konak","lat":45.31575,"lon":20.91468,"geocoding":{},"distantMaxMiles":5},"Kovačica":{"countryName":"Serbia","stateName":"Vojvodina","name":"Kovačica","lat":45.11167,"lon":20.62139,"geocoding":{},"distantMaxMiles":5},"Kovilj":{"countryName":"Serbia","stateName":"Vojvodina","name":"Kovilj","lat":45.23422,"lon":20.02327,"geocoding":{},"distantMaxMiles":5},"Kovin":{"countryName":"Serbia","stateName":"Vojvodina","name":"Kovin","lat":44.7475,"lon":20.97611,"geocoding":{},"distantMaxMiles":5},"Kozjak":{"countryName":"Serbia","stateName":"Vojvodina","name":"Kozjak","lat":45.18264,"lon":20.86381,"geocoding":{},"distantMaxMiles":5},"Krajišnik":{"countryName":"Serbia","stateName":"Vojvodina","name":"Krajišnik","lat":45.45283,"lon":20.72976,"geocoding":{},"distantMaxMiles":5},"Krčedin":{"countryName":"Serbia","stateName":"Vojvodina","name":"Krčedin","lat":45.13871,"lon":20.13308,"geocoding":{},"distantMaxMiles":5},"Kulpin":{"countryName":"Serbia","stateName":"Vojvodina","name":"Kulpin","lat":45.4024,"lon":19.58814,"geocoding":{},"distantMaxMiles":5},"Kumane":{"countryName":"Serbia","stateName":"Vojvodina","name":"Kumane","lat":45.53946,"lon":20.22902,"geocoding":{},"distantMaxMiles":5},"Kupinovo":{"countryName":"Serbia","stateName":"Vojvodina","name":"Kupinovo","lat":44.70708,"lon":20.04959,"geocoding":{},"distantMaxMiles":5},"Kupusina":{"countryName":"Serbia","stateName":"Vojvodina","name":"Kupusina","lat":45.73759,"lon":19.01082,"geocoding":{},"distantMaxMiles":5},"Kuštilj":{"countryName":"Serbia","stateName":"Vojvodina","name":"Kuštilj","lat":45.03487,"lon":21.37989,"geocoding":{},"distantMaxMiles":5},"Lazarevo":{"countryName":"Serbia","stateName":"Vojvodina","name":"Lazarevo","lat":45.38893,"lon":20.53999,"geocoding":{},"distantMaxMiles":5},"Ljukovo":{"countryName":"Serbia","stateName":"Vojvodina","name":"Ljukovo","lat":45.02604,"lon":20.02737,"geocoding":{},"distantMaxMiles":5},"Lok":{"countryName":"Serbia","stateName":"Vojvodina","name":"Lok","lat":45.21583,"lon":20.21222,"geocoding":{},"distantMaxMiles":5},"Lokve":{"countryName":"Serbia","stateName":"Vojvodina","name":"Lokve","lat":45.15198,"lon":21.03073,"geocoding":{},"distantMaxMiles":5},"Lukićevo":{"countryName":"Serbia","stateName":"Vojvodina","name":"Lukićevo","lat":45.33815,"lon":20.49895,"geocoding":{},"distantMaxMiles":5},"Maglić":{"countryName":"Serbia","stateName":"Vojvodina","name":"Maglić","lat":45.36248,"lon":19.53211,"geocoding":{},"distantMaxMiles":5},"Margita":{"countryName":"Serbia","stateName":"Vojvodina","name":"Margita","lat":45.21598,"lon":21.17527,"geocoding":{},"distantMaxMiles":5},"Mačvanska Mitrovica":{"countryName":"Serbia","stateName":"Vojvodina","name":"Mačvanska Mitrovica","lat":44.96739,"lon":19.59314,"geocoding":{},"distantMaxMiles":5},"Melenci":{"countryName":"Serbia","stateName":"Vojvodina","name":"Melenci","lat":45.5168,"lon":20.31961,"geocoding":{},"distantMaxMiles":5},"Međa":{"countryName":"Serbia","stateName":"Vojvodina","name":"Međa","lat":45.53815,"lon":20.80677,"geocoding":{},"distantMaxMiles":5},"Mihajlovo":{"countryName":"Serbia","stateName":"Vojvodina","name":"Mihajlovo","lat":45.47085,"lon":20.41508,"geocoding":{},"distantMaxMiles":5},"Mokrin":{"countryName":"Serbia","stateName":"Vojvodina","name":"Mokrin","lat":45.93362,"lon":20.41215,"geocoding":{},"distantMaxMiles":5},"Mol":{"countryName":"Serbia","stateName":"Vojvodina","name":"Mol","lat":45.76457,"lon":20.13286,"geocoding":{},"distantMaxMiles":5},"Mošorin":{"countryName":"Serbia","stateName":"Vojvodina","name":"Mošorin","lat":45.30196,"lon":20.16919,"geocoding":{},"distantMaxMiles":5},"Nakovo":{"countryName":"Serbia","stateName":"Vojvodina","name":"Nakovo","lat":45.87503,"lon":20.56709,"geocoding":{},"distantMaxMiles":5},"Neuzina":{"countryName":"Serbia","stateName":"Vojvodina","name":"Neuzina","lat":45.3446,"lon":20.71418,"geocoding":{},"distantMaxMiles":5},"Nikinci":{"countryName":"Serbia","stateName":"Vojvodina","name":"Nikinci","lat":44.85017,"lon":19.82321,"geocoding":{},"distantMaxMiles":5},"Nikolinci":{"countryName":"Serbia","stateName":"Vojvodina","name":"Nikolinci","lat":45.05245,"lon":21.06695,"geocoding":{},"distantMaxMiles":5},"Nova Crnja":{"countryName":"Serbia","stateName":"Vojvodina","name":"Nova Crnja","lat":45.66833,"lon":20.605,"geocoding":{},"distantMaxMiles":5},"Nova Pazova":{"countryName":"Serbia","stateName":"Vojvodina","name":"Nova Pazova","lat":44.94366,"lon":20.21931,"geocoding":{},"distantMaxMiles":5},"Novi Banovci":{"countryName":"Serbia","stateName":"Vojvodina","name":"Novi Banovci","lat":44.95691,"lon":20.28076,"geocoding":{},"distantMaxMiles":5},"Novi Itebej":{"countryName":"Serbia","stateName":"Vojvodina","name":"Novi Itebej","lat":45.55918,"lon":20.7003,"geocoding":{},"distantMaxMiles":5},"Novi Karlovci":{"countryName":"Serbia","stateName":"Vojvodina","name":"Novi Karlovci","lat":45.07636,"lon":20.17948,"geocoding":{},"distantMaxMiles":5},"Novi Kneževac":{"countryName":"Serbia","stateName":"Vojvodina","name":"Novi Kneževac","lat":46.05,"lon":20.1,"geocoding":{},"distantMaxMiles":5},"Novi Kozarci":{"countryName":"Serbia","stateName":"Vojvodina","name":"Novi Kozarci","lat":45.78241,"lon":20.62289,"geocoding":{},"distantMaxMiles":5},"Novi Sad":{"countryName":"Serbia","stateName":"Vojvodina","name":"Novi Sad","lat":45.25167,"lon":19.83694,"geocoding":{},"distantMaxMiles":5},"Novi Slankamen":{"countryName":"Serbia","stateName":"Vojvodina","name":"Novi Slankamen","lat":45.12554,"lon":20.23914,"geocoding":{},"distantMaxMiles":5},"Novo Miloševo":{"countryName":"Serbia","stateName":"Vojvodina","name":"Novo Miloševo","lat":45.71916,"lon":20.30364,"geocoding":{},"distantMaxMiles":5},"Obrovac":{"countryName":"Serbia","stateName":"Vojvodina","name":"Obrovac","lat":45.32106,"lon":19.35048,"geocoding":{},"distantMaxMiles":5},"Opovo":{"countryName":"Serbia","stateName":"Vojvodina","name":"Opovo","lat":45.05222,"lon":20.43028,"geocoding":{},"distantMaxMiles":5},"Orlovat":{"countryName":"Serbia","stateName":"Vojvodina","name":"Orlovat","lat":45.24171,"lon":20.58089,"geocoding":{},"distantMaxMiles":5},"Ostojićevo":{"countryName":"Serbia","stateName":"Vojvodina","name":"Ostojićevo","lat":45.88863,"lon":20.16642,"geocoding":{},"distantMaxMiles":5},"Padej":{"countryName":"Serbia","stateName":"Vojvodina","name":"Padej","lat":45.82756,"lon":20.16279,"geocoding":{},"distantMaxMiles":5},"Padina":{"countryName":"Serbia","stateName":"Vojvodina","name":"Padina","lat":45.11988,"lon":20.7286,"geocoding":{},"distantMaxMiles":5},"Pančevo":{"countryName":"Serbia","stateName":"Vojvodina","name":"Pančevo","lat":44.87177,"lon":20.64167,"geocoding":{},"distantMaxMiles":5},"Pavliš":{"countryName":"Serbia","stateName":"Vojvodina","name":"Pavliš","lat":45.10569,"lon":21.23952,"geocoding":{},"distantMaxMiles":5},"Perlez":{"countryName":"Serbia","stateName":"Vojvodina","name":"Perlez","lat":45.20813,"lon":20.38197,"geocoding":{},"distantMaxMiles":5},"Petrovaradin":{"countryName":"Serbia","stateName":"Vojvodina","name":"Petrovaradin","lat":45.24667,"lon":19.87944,"geocoding":{},"distantMaxMiles":5},"Pećinci":{"countryName":"Serbia","stateName":"Vojvodina","name":"Pećinci","lat":44.90889,"lon":19.96639,"geocoding":{},"distantMaxMiles":5},"Plandište":{"countryName":"Serbia","stateName":"Vojvodina","name":"Plandište","lat":45.22722,"lon":21.12167,"geocoding":{},"distantMaxMiles":5},"Platičevo":{"countryName":"Serbia","stateName":"Vojvodina","name":"Platičevo","lat":44.82213,"lon":19.79487,"geocoding":{},"distantMaxMiles":5},"Prigrevica":{"countryName":"Serbia","stateName":"Vojvodina","name":"Prigrevica","lat":45.67636,"lon":19.08809,"geocoding":{},"distantMaxMiles":5},"Putinci":{"countryName":"Serbia","stateName":"Vojvodina","name":"Putinci","lat":44.99259,"lon":19.97102,"geocoding":{},"distantMaxMiles":5},"Radenković":{"countryName":"Serbia","stateName":"Vojvodina","name":"Radenković","lat":44.92191,"lon":19.49543,"geocoding":{},"distantMaxMiles":5},"Radojevo":{"countryName":"Serbia","stateName":"Vojvodina","name":"Radojevo","lat":45.74617,"lon":20.78917,"geocoding":{},"distantMaxMiles":5},"Ravni Topolovac":{"countryName":"Serbia","stateName":"Vojvodina","name":"Ravni Topolovac","lat":45.46082,"lon":20.56939,"geocoding":{},"distantMaxMiles":5},"Ravnje":{"countryName":"Serbia","stateName":"Vojvodina","name":"Ravnje","lat":44.94326,"lon":19.4228,"geocoding":{},"distantMaxMiles":5},"Ravno Selo":{"countryName":"Serbia","stateName":"Vojvodina","name":"Ravno Selo","lat":45.44967,"lon":19.62097,"geocoding":{},"distantMaxMiles":5},"Riđica":{"countryName":"Serbia","stateName":"Vojvodina","name":"Riđica","lat":45.99088,"lon":19.10635,"geocoding":{},"distantMaxMiles":5},"Ruma":{"countryName":"Serbia","stateName":"Vojvodina","name":"Ruma","lat":45.00806,"lon":19.82222,"geocoding":{},"distantMaxMiles":5},"Rumenka":{"countryName":"Serbia","stateName":"Vojvodina","name":"Rumenka","lat":45.294,"lon":19.74306,"geocoding":{},"distantMaxMiles":5},"Rusko Selo":{"countryName":"Serbia","stateName":"Vojvodina","name":"Rusko Selo","lat":45.76291,"lon":20.57117,"geocoding":{},"distantMaxMiles":5},"Sajan":{"countryName":"Serbia","stateName":"Vojvodina","name":"Sajan","lat":45.84227,"lon":20.27815,"geocoding":{},"distantMaxMiles":5},"Sakule":{"countryName":"Serbia","stateName":"Vojvodina","name":"Sakule","lat":45.14667,"lon":20.48619,"geocoding":{},"distantMaxMiles":5},"Salaš Noćajski":{"countryName":"Serbia","stateName":"Vojvodina","name":"Salaš Noćajski","lat":44.94722,"lon":19.58611,"geocoding":{},"distantMaxMiles":5},"Samoš":{"countryName":"Serbia","stateName":"Vojvodina","name":"Samoš","lat":45.20255,"lon":20.77392,"geocoding":{},"distantMaxMiles":5},"Sanad":{"countryName":"Serbia","stateName":"Vojvodina","name":"Sanad","lat":45.97596,"lon":20.10816,"geocoding":{},"distantMaxMiles":5},"Sefkerin":{"countryName":"Serbia","stateName":"Vojvodina","name":"Sefkerin","lat":45.00501,"lon":20.48256,"geocoding":{},"distantMaxMiles":5},"Seleuš":{"countryName":"Serbia","stateName":"Vojvodina","name":"Seleuš","lat":45.1277,"lon":20.91461,"geocoding":{},"distantMaxMiles":5},"Senta":{"countryName":"Serbia","stateName":"Vojvodina","name":"Senta","lat":45.9275,"lon":20.07722,"geocoding":{},"distantMaxMiles":5},"Sečanj":{"countryName":"Serbia","stateName":"Vojvodina","name":"Sečanj","lat":45.36667,"lon":20.77222,"geocoding":{},"distantMaxMiles":5},"Sombor":{"countryName":"Serbia","stateName":"Vojvodina","name":"Sombor","lat":45.77417,"lon":19.11222,"geocoding":{},"distantMaxMiles":5},"Sonta":{"countryName":"Serbia","stateName":"Vojvodina","name":"Sonta","lat":45.59427,"lon":19.09719,"geocoding":{},"distantMaxMiles":5},"Sremska Mitrovica":{"countryName":"Serbia","stateName":"Vojvodina","name":"Sremska Mitrovica","lat":44.97639,"lon":19.61222,"geocoding":{},"distantMaxMiles":5},"Sremski Karlovci":{"countryName":"Serbia","stateName":"Vojvodina","name":"Sremski Karlovci","lat":45.20285,"lon":19.93373,"geocoding":{},"distantMaxMiles":5},"Srpska Crnja":{"countryName":"Serbia","stateName":"Vojvodina","name":"Srpska Crnja","lat":45.72538,"lon":20.69008,"geocoding":{},"distantMaxMiles":5},"Srpski Itebej":{"countryName":"Serbia","stateName":"Vojvodina","name":"Srpski Itebej","lat":45.56715,"lon":20.7135,"geocoding":{},"distantMaxMiles":5},"Stajićevo":{"countryName":"Serbia","stateName":"Vojvodina","name":"Stajićevo","lat":45.29489,"lon":20.45845,"geocoding":{},"distantMaxMiles":5},"Stanišić":{"countryName":"Serbia","stateName":"Vojvodina","name":"Stanišić","lat":45.93895,"lon":19.16709,"geocoding":{},"distantMaxMiles":5},"Stara Pazova":{"countryName":"Serbia","stateName":"Vojvodina","name":"Stara Pazova","lat":44.985,"lon":20.16083,"geocoding":{},"distantMaxMiles":5},"Stari Banovci":{"countryName":"Serbia","stateName":"Vojvodina","name":"Stari Banovci","lat":44.9842,"lon":20.28382,"geocoding":{},"distantMaxMiles":5},"Stari Lec":{"countryName":"Serbia","stateName":"Vojvodina","name":"Stari Lec","lat":45.28401,"lon":20.96433,"geocoding":{},"distantMaxMiles":5},"Stepanovićevo":{"countryName":"Serbia","stateName":"Vojvodina","name":"Stepanovićevo","lat":45.41369,"lon":19.7,"geocoding":{},"distantMaxMiles":5},"Subotica":{"countryName":"Serbia","stateName":"Vojvodina","name":"Subotica","lat":46.1,"lon":19.66667,"geocoding":{},"distantMaxMiles":5},"Surduk":{"countryName":"Serbia","stateName":"Vojvodina","name":"Surduk","lat":45.07118,"lon":20.3251,"geocoding":{},"distantMaxMiles":5},"Sutjeska":{"countryName":"Serbia","stateName":"Vojvodina","name":"Sutjeska","lat":45.38312,"lon":20.6962,"geocoding":{},"distantMaxMiles":5},"Taraš":{"countryName":"Serbia","stateName":"Vojvodina","name":"Taraš","lat":45.46737,"lon":20.19867,"geocoding":{},"distantMaxMiles":5},"Tiszahegyes":{"countryName":"Serbia","stateName":"Vojvodina","name":"Tiszahegyes","lat":45.82648,"lon":20.31791,"geocoding":{},"distantMaxMiles":5},"Titel":{"countryName":"Serbia","stateName":"Vojvodina","name":"Titel","lat":45.20611,"lon":20.29444,"geocoding":{},"distantMaxMiles":5},"Toba":{"countryName":"Serbia","stateName":"Vojvodina","name":"Toba","lat":45.68943,"lon":20.55714,"geocoding":{},"distantMaxMiles":5},"Tomaševac":{"countryName":"Serbia","stateName":"Vojvodina","name":"Tomaševac","lat":45.26855,"lon":20.62272,"geocoding":{},"distantMaxMiles":5},"Torak":{"countryName":"Serbia","stateName":"Vojvodina","name":"Torak","lat":45.50928,"lon":20.609,"geocoding":{},"distantMaxMiles":5},"Torda":{"countryName":"Serbia","stateName":"Vojvodina","name":"Torda","lat":45.58423,"lon":20.459,"geocoding":{},"distantMaxMiles":5},"Uljma":{"countryName":"Serbia","stateName":"Vojvodina","name":"Uljma","lat":45.04213,"lon":21.15393,"geocoding":{},"distantMaxMiles":5},"Uzdin":{"countryName":"Serbia","stateName":"Vojvodina","name":"Uzdin","lat":45.20512,"lon":20.62342,"geocoding":{},"distantMaxMiles":5},"Velika Greda":{"countryName":"Serbia","stateName":"Vojvodina","name":"Velika Greda","lat":45.24376,"lon":21.03498,"geocoding":{},"distantMaxMiles":5},"Veliki Gaj":{"countryName":"Serbia","stateName":"Vojvodina","name":"Veliki Gaj","lat":45.28849,"lon":21.17057,"geocoding":{},"distantMaxMiles":5},"Veliko Središte":{"countryName":"Serbia","stateName":"Vojvodina","name":"Veliko Središte","lat":45.17919,"lon":21.40353,"geocoding":{},"distantMaxMiles":5},"Veternik":{"countryName":"Serbia","stateName":"Vojvodina","name":"Veternik","lat":45.25446,"lon":19.7588,"geocoding":{},"distantMaxMiles":5},"Vilovo":{"countryName":"Serbia","stateName":"Vojvodina","name":"Vilovo","lat":45.24859,"lon":20.15521,"geocoding":{},"distantMaxMiles":5},"Višnjićevo":{"countryName":"Serbia","stateName":"Vojvodina","name":"Višnjićevo","lat":44.96731,"lon":19.28993,"geocoding":{},"distantMaxMiles":5},"Vladimirovac":{"countryName":"Serbia","stateName":"Vojvodina","name":"Vladimirovac","lat":45.03122,"lon":20.86566,"geocoding":{},"distantMaxMiles":5},"Vlajkovac":{"countryName":"Serbia","stateName":"Vojvodina","name":"Vlajkovac","lat":45.07207,"lon":21.19945,"geocoding":{},"distantMaxMiles":5},"Vojka":{"countryName":"Serbia","stateName":"Vojvodina","name":"Vojka","lat":44.93713,"lon":20.15236,"geocoding":{},"distantMaxMiles":5},"Vojvoda Stepa":{"countryName":"Serbia","stateName":"Vojvodina","name":"Vojvoda Stepa","lat":45.68537,"lon":20.65536,"geocoding":{},"distantMaxMiles":5},"Vrbas":{"countryName":"Serbia","stateName":"Vojvodina","name":"Vrbas","lat":45.57139,"lon":19.64083,"geocoding":{},"distantMaxMiles":5},"Vrdnik":{"countryName":"Serbia","stateName":"Vojvodina","name":"Vrdnik","lat":45.12174,"lon":19.79227,"geocoding":{},"distantMaxMiles":5},"Vršac":{"countryName":"Serbia","stateName":"Vojvodina","name":"Vršac","lat":45.11667,"lon":21.30361,"geocoding":{},"distantMaxMiles":5},"Zmajevo":{"countryName":"Serbia","stateName":"Vojvodina","name":"Zmajevo","lat":45.45408,"lon":19.6905,"geocoding":{},"distantMaxMiles":5},"Zrenjanin":{"countryName":"Serbia","stateName":"Vojvodina","name":"Zrenjanin","lat":45.38361,"lon":20.38194,"geocoding":{},"distantMaxMiles":5},"Ðurđevo":{"countryName":"Serbia","stateName":"Vojvodina","name":"Ðurđevo","lat":45.32591,"lon":20.06532,"geocoding":{},"distantMaxMiles":5},"Čelarevo":{"countryName":"Serbia","stateName":"Vojvodina","name":"Čelarevo","lat":45.26999,"lon":19.52484,"geocoding":{},"distantMaxMiles":5},"Čenta":{"countryName":"Serbia","stateName":"Vojvodina","name":"Čenta","lat":45.10814,"lon":20.38947,"geocoding":{},"distantMaxMiles":5},"Čestereg":{"countryName":"Serbia","stateName":"Vojvodina","name":"Čestereg","lat":45.56361,"lon":20.53194,"geocoding":{},"distantMaxMiles":5},"Čoka":{"countryName":"Serbia","stateName":"Vojvodina","name":"Čoka","lat":45.9425,"lon":20.14333,"geocoding":{},"distantMaxMiles":5},"Čortanovci":{"countryName":"Serbia","stateName":"Vojvodina","name":"Čortanovci","lat":45.1546,"lon":20.01851,"geocoding":{},"distantMaxMiles":5},"Čurug":{"countryName":"Serbia","stateName":"Vojvodina","name":"Čurug","lat":45.47221,"lon":20.06861,"geocoding":{},"distantMaxMiles":5},"Šajkaš":{"countryName":"Serbia","stateName":"Vojvodina","name":"Šajkaš","lat":45.27315,"lon":20.09051,"geocoding":{},"distantMaxMiles":5},"Šašinci":{"countryName":"Serbia","stateName":"Vojvodina","name":"Šašinci","lat":44.96514,"lon":19.74151,"geocoding":{},"distantMaxMiles":5},"Šimanovci":{"countryName":"Serbia","stateName":"Vojvodina","name":"Šimanovci","lat":44.87393,"lon":20.09175,"geocoding":{},"distantMaxMiles":5},"Žabalj":{"countryName":"Serbia","stateName":"Vojvodina","name":"Žabalj","lat":45.37222,"lon":20.06389,"geocoding":{},"distantMaxMiles":5},"Žitište":{"countryName":"Serbia","stateName":"Vojvodina","name":"Žitište","lat":45.485,"lon":20.54972,"geocoding":{},"distantMaxMiles":5}}},"West Bačka District":{"countryName":"Serbia","name":"West Bačka District","isoCode":"05","lat":45.7355385,"lon":19.1897364,"geocoding":{},"distantMaxMiles":5,"cities":{}},"Zaječar District":{"countryName":"Serbia","name":"Zaječar District","isoCode":"15","lat":43.9015048,"lon":22.2738011,"geocoding":{},"distantMaxMiles":5,"cities":{}},"Zlatibor District":{"countryName":"Serbia","name":"Zlatibor District","isoCode":"16","lat":43.645417,"lon":19.7101455,"geocoding":{},"distantMaxMiles":5,"cities":{}},"Šumadija District":{"countryName":"Serbia","name":"Šumadija District","isoCode":"12","lat":44.2050678,"lon":20.7856565,"geocoding":{},"distantMaxMiles":5,"cities":{}}}}