{"name":"Norway","isoCode":"NO","lat":62,"lon":10,"geocoding":{},"distantMaxMiles":5,"states":{"Akershus":{"countryName":"Norway","name":"Akershus","isoCode":"02","lat":28.3704203,"lon":-81.5468058,"geocoding":{},"distantMaxMiles":5,"cities":{"Ask":{"countryName":"Norway","stateName":"Akershus","name":"Ask","lat":60.07131,"lon":11.0362,"geocoding":{},"distantMaxMiles":5},"Asker":{"countryName":"Norway","stateName":"Akershus","name":"Asker","lat":59.83734,"lon":10.43595,"geocoding":{},"distantMaxMiles":5},"Auli":{"countryName":"Norway","stateName":"Akershus","name":"Auli","lat":60.0345,"lon":11.36046,"geocoding":{},"distantMaxMiles":5},"Aurskog-Høland":{"countryName":"Norway","stateName":"Akershus","name":"Aurskog-Høland","lat":59.88321,"lon":11.56491,"geocoding":{},"distantMaxMiles":5},"Aursmoen":{"countryName":"Norway","stateName":"Akershus","name":"Aursmoen","lat":59.92763,"lon":11.44275,"geocoding":{},"distantMaxMiles":5},"Billingstad":{"countryName":"Norway","stateName":"Akershus","name":"Billingstad","lat":59.87548,"lon":10.4823,"geocoding":{},"distantMaxMiles":5},"Bjørkelangen":{"countryName":"Norway","stateName":"Akershus","name":"Bjørkelangen","lat":59.88357,"lon":11.56396,"geocoding":{},"distantMaxMiles":5},"Blakstad":{"countryName":"Norway","stateName":"Akershus","name":"Blakstad","lat":59.8191,"lon":10.4645,"geocoding":{},"distantMaxMiles":5},"Bærum":{"countryName":"Norway","stateName":"Akershus","name":"Bærum","lat":59.88996,"lon":10.52649,"geocoding":{},"distantMaxMiles":5},"Drøbak":{"countryName":"Norway","stateName":"Akershus","name":"Drøbak","lat":59.66333,"lon":10.62975,"geocoding":{},"distantMaxMiles":5},"Eidsvoll":{"countryName":"Norway","stateName":"Akershus","name":"Eidsvoll","lat":60.32893,"lon":11.26119,"geocoding":{},"distantMaxMiles":5},"Enebakk":{"countryName":"Norway","stateName":"Akershus","name":"Enebakk","lat":59.76452,"lon":11.14492,"geocoding":{},"distantMaxMiles":5},"Fagerstrand":{"countryName":"Norway","stateName":"Akershus","name":"Fagerstrand","lat":59.73746,"lon":10.59404,"geocoding":{},"distantMaxMiles":5},"Fet":{"countryName":"Norway","stateName":"Akershus","name":"Fet","lat":59.92216,"lon":11.16778,"geocoding":{},"distantMaxMiles":5},"Fetsund":{"countryName":"Norway","stateName":"Akershus","name":"Fetsund","lat":59.92463,"lon":11.15711,"geocoding":{},"distantMaxMiles":5},"Fjellfoten":{"countryName":"Norway","stateName":"Akershus","name":"Fjellfoten","lat":60.08967,"lon":11.47222,"geocoding":{},"distantMaxMiles":5},"Flateby":{"countryName":"Norway","stateName":"Akershus","name":"Flateby","lat":59.82951,"lon":11.15345,"geocoding":{},"distantMaxMiles":5},"Frogn":{"countryName":"Norway","stateName":"Akershus","name":"Frogn","lat":59.66665,"lon":10.63566,"geocoding":{},"distantMaxMiles":5},"Frogner":{"countryName":"Norway","stateName":"Akershus","name":"Frogner","lat":60.02463,"lon":11.10284,"geocoding":{},"distantMaxMiles":5},"Gjerdrum":{"countryName":"Norway","stateName":"Akershus","name":"Gjerdrum","lat":60.07159,"lon":11.03597,"geocoding":{},"distantMaxMiles":5},"Hurdal":{"countryName":"Norway","stateName":"Akershus","name":"Hurdal","lat":60.43518,"lon":11.06707,"geocoding":{},"distantMaxMiles":5},"Jessheim":{"countryName":"Norway","stateName":"Akershus","name":"Jessheim","lat":60.14151,"lon":11.17515,"geocoding":{},"distantMaxMiles":5},"Kløfta":{"countryName":"Norway","stateName":"Akershus","name":"Kløfta","lat":60.07407,"lon":11.13805,"geocoding":{},"distantMaxMiles":5},"Leirsund":{"countryName":"Norway","stateName":"Akershus","name":"Leirsund","lat":59.99682,"lon":11.08746,"geocoding":{},"distantMaxMiles":5},"Lillestrøm":{"countryName":"Norway","stateName":"Akershus","name":"Lillestrøm","lat":59.95597,"lon":11.04918,"geocoding":{},"distantMaxMiles":5},"Lysaker":{"countryName":"Norway","stateName":"Akershus","name":"Lysaker","lat":59.90994,"lon":10.63545,"geocoding":{},"distantMaxMiles":5},"Lørenskog":{"countryName":"Norway","stateName":"Akershus","name":"Lørenskog","lat":59.93209,"lon":10.96079,"geocoding":{},"distantMaxMiles":5},"Maura":{"countryName":"Norway","stateName":"Akershus","name":"Maura","lat":60.2583,"lon":11.03192,"geocoding":{},"distantMaxMiles":5},"Nannestad":{"countryName":"Norway","stateName":"Akershus","name":"Nannestad","lat":60.21707,"lon":11.012,"geocoding":{},"distantMaxMiles":5},"Nes":{"countryName":"Norway","stateName":"Akershus","name":"Nes","lat":60.12252,"lon":11.4657,"geocoding":{},"distantMaxMiles":5},"Neskollen":{"countryName":"Norway","stateName":"Akershus","name":"Neskollen","lat":60.12159,"lon":11.33926,"geocoding":{},"distantMaxMiles":5},"Nesodden":{"countryName":"Norway","stateName":"Akershus","name":"Nesodden","lat":59.8422,"lon":10.6494,"geocoding":{},"distantMaxMiles":5},"Nesoddtangen":{"countryName":"Norway","stateName":"Akershus","name":"Nesoddtangen","lat":59.86244,"lon":10.66308,"geocoding":{},"distantMaxMiles":5},"Nittedal":{"countryName":"Norway","stateName":"Akershus","name":"Nittedal","lat":60.04278,"lon":10.88167,"geocoding":{},"distantMaxMiles":5},"Oppegård":{"countryName":"Norway","stateName":"Akershus","name":"Oppegård","lat":59.81149,"lon":10.79712,"geocoding":{},"distantMaxMiles":5},"Rotnes":{"countryName":"Norway","stateName":"Akershus","name":"Rotnes","lat":60.05707,"lon":10.86135,"geocoding":{},"distantMaxMiles":5},"Råholt":{"countryName":"Norway","stateName":"Akershus","name":"Råholt","lat":60.27513,"lon":11.17901,"geocoding":{},"distantMaxMiles":5},"Rælingen":{"countryName":"Norway","stateName":"Akershus","name":"Rælingen","lat":59.92626,"lon":11.06527,"geocoding":{},"distantMaxMiles":5},"Skedsmo":{"countryName":"Norway","stateName":"Akershus","name":"Skedsmo","lat":59.95448,"lon":11.03952,"geocoding":{},"distantMaxMiles":5},"Ski":{"countryName":"Norway","stateName":"Akershus","name":"Ski","lat":59.72049,"lon":10.83882,"geocoding":{},"distantMaxMiles":5},"Skui":{"countryName":"Norway","stateName":"Akershus","name":"Skui","lat":59.92746,"lon":10.4475,"geocoding":{},"distantMaxMiles":5},"Sørum":{"countryName":"Norway","stateName":"Akershus","name":"Sørum","lat":59.98709,"lon":11.24019,"geocoding":{},"distantMaxMiles":5},"Sørumsand":{"countryName":"Norway","stateName":"Akershus","name":"Sørumsand","lat":59.98621,"lon":11.24154,"geocoding":{},"distantMaxMiles":5},"Ullensaker":{"countryName":"Norway","stateName":"Akershus","name":"Ullensaker","lat":60.14401,"lon":11.17441,"geocoding":{},"distantMaxMiles":5},"Vestby":{"countryName":"Norway","stateName":"Akershus","name":"Vestby","lat":59.60228,"lon":10.74807,"geocoding":{},"distantMaxMiles":5},"Åneby":{"countryName":"Norway","stateName":"Akershus","name":"Åneby","lat":60.08926,"lon":10.86998,"geocoding":{},"distantMaxMiles":5},"Årnes":{"countryName":"Norway","stateName":"Akershus","name":"Årnes","lat":60.12237,"lon":11.47005,"geocoding":{},"distantMaxMiles":5},"Ås":{"countryName":"Norway","stateName":"Akershus","name":"Ås","lat":59.66366,"lon":10.79101,"geocoding":{},"distantMaxMiles":5}}},"Buskerud":{"countryName":"Norway","name":"Buskerud","isoCode":"06","lat":60.4846025,"lon":8.6983764,"geocoding":{},"distantMaxMiles":5,"cities":{"Drammen":{"countryName":"Norway","stateName":"Buskerud","name":"Drammen","lat":59.74389,"lon":10.20449,"geocoding":{},"distantMaxMiles":5},"Flesberg":{"countryName":"Norway","stateName":"Buskerud","name":"Flesberg","lat":59.83283,"lon":9.58308,"geocoding":{},"distantMaxMiles":5},"Flå":{"countryName":"Norway","stateName":"Buskerud","name":"Flå","lat":60.4291,"lon":9.46611,"geocoding":{},"distantMaxMiles":5},"Geilo":{"countryName":"Norway","stateName":"Buskerud","name":"Geilo","lat":60.53369,"lon":8.20539,"geocoding":{},"distantMaxMiles":5},"Gol":{"countryName":"Norway","stateName":"Buskerud","name":"Gol","lat":60.69953,"lon":8.95024,"geocoding":{},"distantMaxMiles":5},"Hemsedal":{"countryName":"Norway","stateName":"Buskerud","name":"Hemsedal","lat":60.86114,"lon":8.56537,"geocoding":{},"distantMaxMiles":5},"Hol":{"countryName":"Norway","stateName":"Buskerud","name":"Hol","lat":60.61528,"lon":8.30194,"geocoding":{},"distantMaxMiles":5},"Hole":{"countryName":"Norway","stateName":"Buskerud","name":"Hole","lat":60.08017,"lon":10.2784,"geocoding":{},"distantMaxMiles":5},"Hurum":{"countryName":"Norway","stateName":"Buskerud","name":"Hurum","lat":59.61401,"lon":10.45763,"geocoding":{},"distantMaxMiles":5},"Hvittingfoss":{"countryName":"Norway","stateName":"Buskerud","name":"Hvittingfoss","lat":59.48572,"lon":10.01173,"geocoding":{},"distantMaxMiles":5},"Hønefoss":{"countryName":"Norway","stateName":"Buskerud","name":"Hønefoss","lat":60.16804,"lon":10.25647,"geocoding":{},"distantMaxMiles":5},"Kongsberg":{"countryName":"Norway","stateName":"Buskerud","name":"Kongsberg","lat":59.66516,"lon":9.64653,"geocoding":{},"distantMaxMiles":5},"Krødsherad":{"countryName":"Norway","stateName":"Buskerud","name":"Krødsherad","lat":60.17944,"lon":9.62124,"geocoding":{},"distantMaxMiles":5},"Lier":{"countryName":"Norway","stateName":"Buskerud","name":"Lier","lat":59.78663,"lon":10.2459,"geocoding":{},"distantMaxMiles":5},"Modum":{"countryName":"Norway","stateName":"Buskerud","name":"Modum","lat":59.97346,"lon":10.00468,"geocoding":{},"distantMaxMiles":5},"Nedre Eiker":{"countryName":"Norway","stateName":"Buskerud","name":"Nedre Eiker","lat":59.75023,"lon":10.00736,"geocoding":{},"distantMaxMiles":5},"Nes":{"countryName":"Norway","stateName":"Buskerud","name":"Nes","lat":60.56804,"lon":9.10169,"geocoding":{},"distantMaxMiles":5},"Nesbyen":{"countryName":"Norway","stateName":"Buskerud","name":"Nesbyen","lat":60.56809,"lon":9.10274,"geocoding":{},"distantMaxMiles":5},"Nore og Uvdal":{"countryName":"Norway","stateName":"Buskerud","name":"Nore og Uvdal","lat":60.26706,"lon":8.94635,"geocoding":{},"distantMaxMiles":5},"Noresund":{"countryName":"Norway","stateName":"Buskerud","name":"Noresund","lat":60.17985,"lon":9.62411,"geocoding":{},"distantMaxMiles":5},"Prestfoss":{"countryName":"Norway","stateName":"Buskerud","name":"Prestfoss","lat":60.04343,"lon":9.6352,"geocoding":{},"distantMaxMiles":5},"Ringerike":{"countryName":"Norway","stateName":"Buskerud","name":"Ringerike","lat":60.16018,"lon":10.2566,"geocoding":{},"distantMaxMiles":5},"Rollag":{"countryName":"Norway","stateName":"Buskerud","name":"Rollag","lat":59.98413,"lon":9.29489,"geocoding":{},"distantMaxMiles":5},"Røyken":{"countryName":"Norway","stateName":"Buskerud","name":"Røyken","lat":59.74019,"lon":10.41321,"geocoding":{},"distantMaxMiles":5},"Sigdal":{"countryName":"Norway","stateName":"Buskerud","name":"Sigdal","lat":60.04592,"lon":9.63673,"geocoding":{},"distantMaxMiles":5},"Skoger":{"countryName":"Norway","stateName":"Buskerud","name":"Skoger","lat":59.71327,"lon":10.25356,"geocoding":{},"distantMaxMiles":5},"Sætre":{"countryName":"Norway","stateName":"Buskerud","name":"Sætre","lat":59.68129,"lon":10.52749,"geocoding":{},"distantMaxMiles":5},"Tofte":{"countryName":"Norway","stateName":"Buskerud","name":"Tofte","lat":59.54275,"lon":10.56138,"geocoding":{},"distantMaxMiles":5},"Tranby":{"countryName":"Norway","stateName":"Buskerud","name":"Tranby","lat":59.8085,"lon":10.26114,"geocoding":{},"distantMaxMiles":5},"Vikersund":{"countryName":"Norway","stateName":"Buskerud","name":"Vikersund","lat":59.96838,"lon":9.99107,"geocoding":{},"distantMaxMiles":5},"Ål":{"countryName":"Norway","stateName":"Buskerud","name":"Ål","lat":60.63028,"lon":8.56115,"geocoding":{},"distantMaxMiles":5},"Åros":{"countryName":"Norway","stateName":"Buskerud","name":"Åros","lat":59.7061,"lon":10.51092,"geocoding":{},"distantMaxMiles":5},"Øvre Eiker":{"countryName":"Norway","stateName":"Buskerud","name":"Øvre Eiker","lat":59.77111,"lon":9.9084,"geocoding":{},"distantMaxMiles":5}}},"Finnmark":{"countryName":"Norway","name":"Finnmark","isoCode":"20","lat":70.4830388,"lon":26.0135107,"geocoding":{},"distantMaxMiles":5,"cities":{"Alta":{"countryName":"Norway","stateName":"Finnmark","name":"Alta","lat":69.97675,"lon":23.29634,"geocoding":{},"distantMaxMiles":5},"Berlevåg":{"countryName":"Norway","stateName":"Finnmark","name":"Berlevåg","lat":70.85778,"lon":29.08636,"geocoding":{},"distantMaxMiles":5},"Bjørnevatn":{"countryName":"Norway","stateName":"Finnmark","name":"Bjørnevatn","lat":69.66745,"lon":29.98722,"geocoding":{},"distantMaxMiles":5},"Båtsfjord":{"countryName":"Norway","stateName":"Finnmark","name":"Båtsfjord","lat":70.63428,"lon":29.7175,"geocoding":{},"distantMaxMiles":5},"Gamvik":{"countryName":"Norway","stateName":"Finnmark","name":"Gamvik","lat":71.04107,"lon":27.85144,"geocoding":{},"distantMaxMiles":5},"Hammerfest":{"countryName":"Norway","stateName":"Finnmark","name":"Hammerfest","lat":70.66257,"lon":23.68295,"geocoding":{},"distantMaxMiles":5},"Hasvik":{"countryName":"Norway","stateName":"Finnmark","name":"Hasvik","lat":70.59164,"lon":22.30272,"geocoding":{},"distantMaxMiles":5},"Honningsvåg":{"countryName":"Norway","stateName":"Finnmark","name":"Honningsvåg","lat":70.98209,"lon":25.97037,"geocoding":{},"distantMaxMiles":5},"Karasjok":{"countryName":"Norway","stateName":"Finnmark","name":"Karasjok","lat":69.47224,"lon":25.51885,"geocoding":{},"distantMaxMiles":5},"Kautokeino":{"countryName":"Norway","stateName":"Finnmark","name":"Kautokeino","lat":69.01151,"lon":23.04151,"geocoding":{},"distantMaxMiles":5},"Kirkenes":{"countryName":"Norway","stateName":"Finnmark","name":"Kirkenes","lat":69.72706,"lon":30.04578,"geocoding":{},"distantMaxMiles":5},"Kjøllefjord":{"countryName":"Norway","stateName":"Finnmark","name":"Kjøllefjord","lat":70.94574,"lon":27.3465,"geocoding":{},"distantMaxMiles":5},"Kvalsund":{"countryName":"Norway","stateName":"Finnmark","name":"Kvalsund","lat":70.4991,"lon":23.97393,"geocoding":{},"distantMaxMiles":5},"Kárášjohka":{"countryName":"Norway","stateName":"Finnmark","name":"Kárášjohka","lat":69.47187,"lon":25.51122,"geocoding":{},"distantMaxMiles":5},"Lakselv":{"countryName":"Norway","stateName":"Finnmark","name":"Lakselv","lat":70.05133,"lon":24.97182,"geocoding":{},"distantMaxMiles":5},"Lebesby":{"countryName":"Norway","stateName":"Finnmark","name":"Lebesby","lat":70.94535,"lon":27.35134,"geocoding":{},"distantMaxMiles":5},"Loppa":{"countryName":"Norway","stateName":"Finnmark","name":"Loppa","lat":70.23952,"lon":22.35136,"geocoding":{},"distantMaxMiles":5},"Mehamn":{"countryName":"Norway","stateName":"Finnmark","name":"Mehamn","lat":71.04137,"lon":27.85133,"geocoding":{},"distantMaxMiles":5},"Måsøy":{"countryName":"Norway","stateName":"Finnmark","name":"Måsøy","lat":70.99654,"lon":24.66146,"geocoding":{},"distantMaxMiles":5},"Nesseby":{"countryName":"Norway","stateName":"Finnmark","name":"Nesseby","lat":69.88541,"lon":28.43368,"geocoding":{},"distantMaxMiles":5},"Nordkapp":{"countryName":"Norway","stateName":"Finnmark","name":"Nordkapp","lat":70.97808,"lon":25.97473,"geocoding":{},"distantMaxMiles":5},"Porsanger":{"countryName":"Norway","stateName":"Finnmark","name":"Porsanger","lat":70.05214,"lon":24.95592,"geocoding":{},"distantMaxMiles":5},"Rypefjord":{"countryName":"Norway","stateName":"Finnmark","name":"Rypefjord","lat":70.64126,"lon":23.67213,"geocoding":{},"distantMaxMiles":5},"Sør-Varanger":{"countryName":"Norway","stateName":"Finnmark","name":"Sør-Varanger","lat":69.72859,"lon":30.04264,"geocoding":{},"distantMaxMiles":5},"Tana":{"countryName":"Norway","stateName":"Finnmark","name":"Tana","lat":70.19976,"lon":28.18494,"geocoding":{},"distantMaxMiles":5},"Vadsø":{"countryName":"Norway","stateName":"Finnmark","name":"Vadsø","lat":70.07412,"lon":29.74922,"geocoding":{},"distantMaxMiles":5},"Vardø":{"countryName":"Norway","stateName":"Finnmark","name":"Vardø","lat":70.3704,"lon":31.10866,"geocoding":{},"distantMaxMiles":5},"Ávanuorri":{"countryName":"Norway","stateName":"Finnmark","name":"Ávanuorri","lat":70.99634,"lon":24.66217,"geocoding":{},"distantMaxMiles":5},"Øksfjord":{"countryName":"Norway","stateName":"Finnmark","name":"Øksfjord","lat":70.23936,"lon":22.3507,"geocoding":{},"distantMaxMiles":5}}},"Hedmark":{"countryName":"Norway","name":"Hedmark","isoCode":"04","lat":61.3967311,"lon":11.5627369,"geocoding":{},"distantMaxMiles":5,"cities":{"Alvdal":{"countryName":"Norway","stateName":"Hedmark","name":"Alvdal","lat":62.10854,"lon":10.63483,"geocoding":{},"distantMaxMiles":5},"Brumunddal":{"countryName":"Norway","stateName":"Hedmark","name":"Brumunddal","lat":60.88095,"lon":10.93948,"geocoding":{},"distantMaxMiles":5},"Eidskog":{"countryName":"Norway","stateName":"Hedmark","name":"Eidskog","lat":59.98556,"lon":12.12502,"geocoding":{},"distantMaxMiles":5},"Elverum":{"countryName":"Norway","stateName":"Hedmark","name":"Elverum","lat":60.88159,"lon":11.56314,"geocoding":{},"distantMaxMiles":5},"Engerdal":{"countryName":"Norway","stateName":"Hedmark","name":"Engerdal","lat":61.75774,"lon":11.95966,"geocoding":{},"distantMaxMiles":5},"Folldal":{"countryName":"Norway","stateName":"Hedmark","name":"Folldal","lat":62.13329,"lon":9.9971,"geocoding":{},"distantMaxMiles":5},"Grue":{"countryName":"Norway","stateName":"Hedmark","name":"Grue","lat":60.45133,"lon":12.05489,"geocoding":{},"distantMaxMiles":5},"Hamar":{"countryName":"Norway","stateName":"Hedmark","name":"Hamar","lat":60.7945,"lon":11.06798,"geocoding":{},"distantMaxMiles":5},"Innbygda":{"countryName":"Norway","stateName":"Hedmark","name":"Innbygda","lat":61.31484,"lon":12.26374,"geocoding":{},"distantMaxMiles":5},"Kirkenær":{"countryName":"Norway","stateName":"Hedmark","name":"Kirkenær","lat":60.4579,"lon":12.05855,"geocoding":{},"distantMaxMiles":5},"Kongsvinger":{"countryName":"Norway","stateName":"Hedmark","name":"Kongsvinger","lat":60.19117,"lon":11.99916,"geocoding":{},"distantMaxMiles":5},"Koppang":{"countryName":"Norway","stateName":"Hedmark","name":"Koppang","lat":61.57219,"lon":11.04659,"geocoding":{},"distantMaxMiles":5},"Løten":{"countryName":"Norway","stateName":"Hedmark","name":"Løten","lat":60.81771,"lon":11.34373,"geocoding":{},"distantMaxMiles":5},"Moelv":{"countryName":"Norway","stateName":"Hedmark","name":"Moelv","lat":60.93333,"lon":10.7,"geocoding":{},"distantMaxMiles":5},"Nord-Odal":{"countryName":"Norway","stateName":"Hedmark","name":"Nord-Odal","lat":60.39195,"lon":11.54151,"geocoding":{},"distantMaxMiles":5},"Os":{"countryName":"Norway","stateName":"Hedmark","name":"Os","lat":62.49536,"lon":11.22807,"geocoding":{},"distantMaxMiles":5},"Rena":{"countryName":"Norway","stateName":"Hedmark","name":"Rena","lat":61.13222,"lon":11.37156,"geocoding":{},"distantMaxMiles":5},"Rendalen":{"countryName":"Norway","stateName":"Hedmark","name":"Rendalen","lat":61.89004,"lon":11.07694,"geocoding":{},"distantMaxMiles":5},"Ringsaker":{"countryName":"Norway","stateName":"Hedmark","name":"Ringsaker","lat":60.88216,"lon":10.9503,"geocoding":{},"distantMaxMiles":5},"Sand":{"countryName":"Norway","stateName":"Hedmark","name":"Sand","lat":60.3922,"lon":11.5403,"geocoding":{},"distantMaxMiles":5},"Skarnes":{"countryName":"Norway","stateName":"Hedmark","name":"Skarnes","lat":60.25391,"lon":11.68485,"geocoding":{},"distantMaxMiles":5},"Skotterud":{"countryName":"Norway","stateName":"Hedmark","name":"Skotterud","lat":59.98281,"lon":12.12825,"geocoding":{},"distantMaxMiles":5},"Spetalen":{"countryName":"Norway","stateName":"Hedmark","name":"Spetalen","lat":60.18333,"lon":11.9,"geocoding":{},"distantMaxMiles":5},"Stange":{"countryName":"Norway","stateName":"Hedmark","name":"Stange","lat":60.71576,"lon":11.19069,"geocoding":{},"distantMaxMiles":5},"Stor-Elvdal":{"countryName":"Norway","stateName":"Hedmark","name":"Stor-Elvdal","lat":61.57198,"lon":11.04759,"geocoding":{},"distantMaxMiles":5},"Sør-Odal":{"countryName":"Norway","stateName":"Hedmark","name":"Sør-Odal","lat":60.25455,"lon":11.68246,"geocoding":{},"distantMaxMiles":5},"Tolga":{"countryName":"Norway","stateName":"Hedmark","name":"Tolga","lat":62.40984,"lon":10.9977,"geocoding":{},"distantMaxMiles":5},"Trysil":{"countryName":"Norway","stateName":"Hedmark","name":"Trysil","lat":61.31549,"lon":12.26422,"geocoding":{},"distantMaxMiles":5},"Tynset":{"countryName":"Norway","stateName":"Hedmark","name":"Tynset","lat":62.27387,"lon":10.77626,"geocoding":{},"distantMaxMiles":5},"Våler":{"countryName":"Norway","stateName":"Hedmark","name":"Våler","lat":60.67845,"lon":11.83314,"geocoding":{},"distantMaxMiles":5},"Åmot":{"countryName":"Norway","stateName":"Hedmark","name":"Åmot","lat":61.13199,"lon":11.37328,"geocoding":{},"distantMaxMiles":5},"Åsnes":{"countryName":"Norway","stateName":"Hedmark","name":"Åsnes","lat":60.61363,"lon":12.012,"geocoding":{},"distantMaxMiles":5}}},"Hordaland":{"countryName":"Norway","name":"Hordaland","isoCode":"12","lat":60.2733674,"lon":5.7220194,"geocoding":{},"distantMaxMiles":5,"cities":{"Askøy":{"countryName":"Norway","stateName":"Hordaland","name":"Askøy","lat":60.40916,"lon":5.22599,"geocoding":{},"distantMaxMiles":5},"Austevoll":{"countryName":"Norway","stateName":"Hordaland","name":"Austevoll","lat":60.09578,"lon":5.22722,"geocoding":{},"distantMaxMiles":5},"Austrheim":{"countryName":"Norway","stateName":"Hordaland","name":"Austrheim","lat":60.77742,"lon":4.93227,"geocoding":{},"distantMaxMiles":5},"Bergen":{"countryName":"Norway","stateName":"Hordaland","name":"Bergen","lat":60.392,"lon":5.328,"geocoding":{},"distantMaxMiles":5},"Bømlo":{"countryName":"Norway","stateName":"Hordaland","name":"Bømlo","lat":59.79384,"lon":5.17624,"geocoding":{},"distantMaxMiles":5},"Dale":{"countryName":"Norway","stateName":"Hordaland","name":"Dale","lat":60.58639,"lon":5.81888,"geocoding":{},"distantMaxMiles":5},"Eidfjord":{"countryName":"Norway","stateName":"Hordaland","name":"Eidfjord","lat":60.46741,"lon":7.06971,"geocoding":{},"distantMaxMiles":5},"Eikelandsosen":{"countryName":"Norway","stateName":"Hordaland","name":"Eikelandsosen","lat":60.24175,"lon":5.74433,"geocoding":{},"distantMaxMiles":5},"Espeland":{"countryName":"Norway","stateName":"Hordaland","name":"Espeland","lat":60.38249,"lon":5.4657,"geocoding":{},"distantMaxMiles":5},"Etne":{"countryName":"Norway","stateName":"Hordaland","name":"Etne","lat":59.66472,"lon":5.93438,"geocoding":{},"distantMaxMiles":5},"Fedje":{"countryName":"Norway","stateName":"Hordaland","name":"Fedje","lat":60.77873,"lon":4.71965,"geocoding":{},"distantMaxMiles":5},"Fitjar":{"countryName":"Norway","stateName":"Hordaland","name":"Fitjar","lat":59.91742,"lon":5.31637,"geocoding":{},"distantMaxMiles":5},"Fjell":{"countryName":"Norway","stateName":"Hordaland","name":"Fjell","lat":60.36267,"lon":5.12194,"geocoding":{},"distantMaxMiles":5},"Frekhaug":{"countryName":"Norway","stateName":"Hordaland","name":"Frekhaug","lat":60.51321,"lon":5.24252,"geocoding":{},"distantMaxMiles":5},"Fusa":{"countryName":"Norway","stateName":"Hordaland","name":"Fusa","lat":60.24072,"lon":5.74458,"geocoding":{},"distantMaxMiles":5},"Granvin":{"countryName":"Norway","stateName":"Hordaland","name":"Granvin","lat":60.52629,"lon":6.72178,"geocoding":{},"distantMaxMiles":5},"Hagavik":{"countryName":"Norway","stateName":"Hordaland","name":"Hagavik","lat":60.18076,"lon":5.40146,"geocoding":{},"distantMaxMiles":5},"Hylkje":{"countryName":"Norway","stateName":"Hordaland","name":"Hylkje","lat":60.51028,"lon":5.35444,"geocoding":{},"distantMaxMiles":5},"Indre Arna":{"countryName":"Norway","stateName":"Hordaland","name":"Indre Arna","lat":60.41768,"lon":5.47087,"geocoding":{},"distantMaxMiles":5},"Jondal":{"countryName":"Norway","stateName":"Hordaland","name":"Jondal","lat":60.2762,"lon":6.25257,"geocoding":{},"distantMaxMiles":5},"Kinsarvik":{"countryName":"Norway","stateName":"Hordaland","name":"Kinsarvik","lat":60.37567,"lon":6.71948,"geocoding":{},"distantMaxMiles":5},"Knappskog":{"countryName":"Norway","stateName":"Hordaland","name":"Knappskog","lat":60.37906,"lon":5.05602,"geocoding":{},"distantMaxMiles":5},"Knarvik":{"countryName":"Norway","stateName":"Hordaland","name":"Knarvik","lat":60.5453,"lon":5.28208,"geocoding":{},"distantMaxMiles":5},"Kvam":{"countryName":"Norway","stateName":"Hordaland","name":"Kvam","lat":60.36977,"lon":6.14344,"geocoding":{},"distantMaxMiles":5},"Kvinnherad":{"countryName":"Norway","stateName":"Hordaland","name":"Kvinnherad","lat":59.98421,"lon":6.01227,"geocoding":{},"distantMaxMiles":5},"Leirvik":{"countryName":"Norway","stateName":"Hordaland","name":"Leirvik","lat":59.77977,"lon":5.50051,"geocoding":{},"distantMaxMiles":5},"Lindås":{"countryName":"Norway","stateName":"Hordaland","name":"Lindås","lat":60.5491,"lon":5.28559,"geocoding":{},"distantMaxMiles":5},"Lonevåg":{"countryName":"Norway","stateName":"Hordaland","name":"Lonevåg","lat":60.52556,"lon":5.49563,"geocoding":{},"distantMaxMiles":5},"Manger":{"countryName":"Norway","stateName":"Hordaland","name":"Manger","lat":60.64145,"lon":5.04136,"geocoding":{},"distantMaxMiles":5},"Masfjorden":{"countryName":"Norway","stateName":"Hordaland","name":"Masfjorden","lat":60.79947,"lon":5.30035,"geocoding":{},"distantMaxMiles":5},"Meland":{"countryName":"Norway","stateName":"Hordaland","name":"Meland","lat":60.51777,"lon":5.24063,"geocoding":{},"distantMaxMiles":5},"Modalen":{"countryName":"Norway","stateName":"Hordaland","name":"Modalen","lat":60.81735,"lon":5.8079,"geocoding":{},"distantMaxMiles":5},"Mosterhamn":{"countryName":"Norway","stateName":"Hordaland","name":"Mosterhamn","lat":59.69919,"lon":5.38585,"geocoding":{},"distantMaxMiles":5},"Norheimsund":{"countryName":"Norway","stateName":"Hordaland","name":"Norheimsund","lat":60.37089,"lon":6.14562,"geocoding":{},"distantMaxMiles":5},"Odda":{"countryName":"Norway","stateName":"Hordaland","name":"Odda","lat":60.06697,"lon":6.54541,"geocoding":{},"distantMaxMiles":5},"Os":{"countryName":"Norway","stateName":"Hordaland","name":"Os","lat":60.18547,"lon":5.46962,"geocoding":{},"distantMaxMiles":5},"Osterøy":{"countryName":"Norway","stateName":"Hordaland","name":"Osterøy","lat":60.52389,"lon":5.50551,"geocoding":{},"distantMaxMiles":5},"Radøy":{"countryName":"Norway","stateName":"Hordaland","name":"Radøy","lat":60.64187,"lon":5.0411,"geocoding":{},"distantMaxMiles":5},"Rosendal":{"countryName":"Norway","stateName":"Hordaland","name":"Rosendal","lat":59.98589,"lon":6.01157,"geocoding":{},"distantMaxMiles":5},"Rubbestadneset":{"countryName":"Norway","stateName":"Hordaland","name":"Rubbestadneset","lat":59.81559,"lon":5.26822,"geocoding":{},"distantMaxMiles":5},"Sagvåg":{"countryName":"Norway","stateName":"Hordaland","name":"Sagvåg","lat":59.78139,"lon":5.38996,"geocoding":{},"distantMaxMiles":5},"Samnanger":{"countryName":"Norway","stateName":"Hordaland","name":"Samnanger","lat":60.37745,"lon":5.76219,"geocoding":{},"distantMaxMiles":5},"Sandsli":{"countryName":"Norway","stateName":"Hordaland","name":"Sandsli","lat":60.30323,"lon":5.28554,"geocoding":{},"distantMaxMiles":5},"Skogsvågen":{"countryName":"Norway","stateName":"Hordaland","name":"Skogsvågen","lat":60.25512,"lon":5.10161,"geocoding":{},"distantMaxMiles":5},"Stord":{"countryName":"Norway","stateName":"Hordaland","name":"Stord","lat":59.78092,"lon":5.4998,"geocoding":{},"distantMaxMiles":5},"Storebø":{"countryName":"Norway","stateName":"Hordaland","name":"Storebø","lat":60.09485,"lon":5.22705,"geocoding":{},"distantMaxMiles":5},"Straume":{"countryName":"Norway","stateName":"Hordaland","name":"Straume","lat":60.36131,"lon":5.12199,"geocoding":{},"distantMaxMiles":5},"Sund":{"countryName":"Norway","stateName":"Hordaland","name":"Sund","lat":60.27019,"lon":5.07225,"geocoding":{},"distantMaxMiles":5},"Sveio":{"countryName":"Norway","stateName":"Hordaland","name":"Sveio","lat":59.54303,"lon":5.3541,"geocoding":{},"distantMaxMiles":5},"Syfteland":{"countryName":"Norway","stateName":"Hordaland","name":"Syfteland","lat":60.23803,"lon":5.45285,"geocoding":{},"distantMaxMiles":5},"Tysnes":{"countryName":"Norway","stateName":"Hordaland","name":"Tysnes","lat":60.04076,"lon":5.53129,"geocoding":{},"distantMaxMiles":5},"Ullensvang":{"countryName":"Norway","stateName":"Hordaland","name":"Ullensvang","lat":60.37501,"lon":6.72073,"geocoding":{},"distantMaxMiles":5},"Ulvik":{"countryName":"Norway","stateName":"Hordaland","name":"Ulvik","lat":60.56719,"lon":6.91871,"geocoding":{},"distantMaxMiles":5},"Vaksdal":{"countryName":"Norway","stateName":"Hordaland","name":"Vaksdal","lat":60.5903,"lon":5.82272,"geocoding":{},"distantMaxMiles":5},"Voss":{"countryName":"Norway","stateName":"Hordaland","name":"Voss","lat":60.6278,"lon":6.41831,"geocoding":{},"distantMaxMiles":5},"Ytre Arna":{"countryName":"Norway","stateName":"Hordaland","name":"Ytre Arna","lat":60.46175,"lon":5.43265,"geocoding":{},"distantMaxMiles":5},"Ytrebygda":{"countryName":"Norway","stateName":"Hordaland","name":"Ytrebygda","lat":60.30504,"lon":5.28236,"geocoding":{},"distantMaxMiles":5},"Ågotnes":{"countryName":"Norway","stateName":"Hordaland","name":"Ågotnes","lat":60.40306,"lon":5.01927,"geocoding":{},"distantMaxMiles":5},"Øygarden":{"countryName":"Norway","stateName":"Hordaland","name":"Øygarden","lat":60.59041,"lon":4.8389,"geocoding":{},"distantMaxMiles":5},"Øystese":{"countryName":"Norway","stateName":"Hordaland","name":"Øystese","lat":60.38825,"lon":6.19251,"geocoding":{},"distantMaxMiles":5}}},"Jan Mayen":{"countryName":"Norway","name":"Jan Mayen","isoCode":"22","lat":71.031818,"lon":-8.2920346,"geocoding":{},"distantMaxMiles":5,"cities":{}},"Møre og Romsdal":{"countryName":"Norway","name":"Møre og Romsdal","isoCode":"15","lat":62.8406833,"lon":7.007143,"geocoding":{},"distantMaxMiles":5,"cities":{"Aukra":{"countryName":"Norway","stateName":"Møre og Romsdal","name":"Aukra","lat":62.805,"lon":6.88722,"geocoding":{},"distantMaxMiles":5},"Aure":{"countryName":"Norway","stateName":"Møre og Romsdal","name":"Aure","lat":63.2675,"lon":8.52778,"geocoding":{},"distantMaxMiles":5},"Averøy":{"countryName":"Norway","stateName":"Møre og Romsdal","name":"Averøy","lat":63.05344,"lon":7.63265,"geocoding":{},"distantMaxMiles":5},"Batnfjordsøra":{"countryName":"Norway","stateName":"Møre og Romsdal","name":"Batnfjordsøra","lat":62.89463,"lon":7.67251,"geocoding":{},"distantMaxMiles":5},"Brattvåg":{"countryName":"Norway","stateName":"Møre og Romsdal","name":"Brattvåg","lat":62.59991,"lon":6.44426,"geocoding":{},"distantMaxMiles":5},"Eide":{"countryName":"Norway","stateName":"Møre og Romsdal","name":"Eide","lat":62.9157,"lon":7.44496,"geocoding":{},"distantMaxMiles":5},"Eidsvåg":{"countryName":"Norway","stateName":"Møre og Romsdal","name":"Eidsvåg","lat":62.77656,"lon":8.0655,"geocoding":{},"distantMaxMiles":5},"Elnesvågen":{"countryName":"Norway","stateName":"Møre og Romsdal","name":"Elnesvågen","lat":62.85426,"lon":7.13769,"geocoding":{},"distantMaxMiles":5},"Fræna":{"countryName":"Norway","stateName":"Møre og Romsdal","name":"Fræna","lat":62.85375,"lon":7.1538,"geocoding":{},"distantMaxMiles":5},"Giske":{"countryName":"Norway","stateName":"Møre og Romsdal","name":"Giske","lat":62.5007,"lon":6.13472,"geocoding":{},"distantMaxMiles":5},"Gjemnes":{"countryName":"Norway","stateName":"Møre og Romsdal","name":"Gjemnes","lat":62.89379,"lon":7.67714,"geocoding":{},"distantMaxMiles":5},"Halsa":{"countryName":"Norway","stateName":"Møre og Romsdal","name":"Halsa","lat":63.11855,"lon":8.31536,"geocoding":{},"distantMaxMiles":5},"Haram":{"countryName":"Norway","stateName":"Møre og Romsdal","name":"Haram","lat":62.59898,"lon":6.44483,"geocoding":{},"distantMaxMiles":5},"Hareid":{"countryName":"Norway","stateName":"Møre og Romsdal","name":"Hareid","lat":62.36742,"lon":6.02114,"geocoding":{},"distantMaxMiles":5},"Herøy":{"countryName":"Norway","stateName":"Møre og Romsdal","name":"Herøy","lat":62.33333,"lon":5.63598,"geocoding":{},"distantMaxMiles":5},"Hjelset":{"countryName":"Norway","stateName":"Møre og Romsdal","name":"Hjelset","lat":62.7805,"lon":7.49277,"geocoding":{},"distantMaxMiles":5},"Hopen":{"countryName":"Norway","stateName":"Møre og Romsdal","name":"Hopen","lat":63.46539,"lon":8.01437,"geocoding":{},"distantMaxMiles":5},"Kristiansund":{"countryName":"Norway","stateName":"Møre og Romsdal","name":"Kristiansund","lat":63.11152,"lon":7.73198,"geocoding":{},"distantMaxMiles":5},"Larsnes":{"countryName":"Norway","stateName":"Møre og Romsdal","name":"Larsnes","lat":62.20282,"lon":5.57729,"geocoding":{},"distantMaxMiles":5},"Midsund":{"countryName":"Norway","stateName":"Møre og Romsdal","name":"Midsund","lat":62.67614,"lon":6.67776,"geocoding":{},"distantMaxMiles":5},"Molde":{"countryName":"Norway","stateName":"Møre og Romsdal","name":"Molde","lat":62.73807,"lon":7.15882,"geocoding":{},"distantMaxMiles":5},"Nesset":{"countryName":"Norway","stateName":"Møre og Romsdal","name":"Nesset","lat":62.77619,"lon":8.06623,"geocoding":{},"distantMaxMiles":5},"Norddal":{"countryName":"Norway","stateName":"Møre og Romsdal","name":"Norddal","lat":62.2991,"lon":7.26145,"geocoding":{},"distantMaxMiles":5},"Nordstranda":{"countryName":"Norway","stateName":"Møre og Romsdal","name":"Nordstranda","lat":62.51384,"lon":6.13166,"geocoding":{},"distantMaxMiles":5},"Rauma":{"countryName":"Norway","stateName":"Møre og Romsdal","name":"Rauma","lat":62.5681,"lon":7.68612,"geocoding":{},"distantMaxMiles":5},"Rensvik":{"countryName":"Norway","stateName":"Møre og Romsdal","name":"Rensvik","lat":63.09843,"lon":7.82026,"geocoding":{},"distantMaxMiles":5},"Sande":{"countryName":"Norway","stateName":"Møre og Romsdal","name":"Sande","lat":62.20455,"lon":5.57971,"geocoding":{},"distantMaxMiles":5},"Sandøy":{"countryName":"Norway","stateName":"Møre og Romsdal","name":"Sandøy","lat":62.78167,"lon":6.46875,"geocoding":{},"distantMaxMiles":5},"Sjøholt":{"countryName":"Norway","stateName":"Møre og Romsdal","name":"Sjøholt","lat":62.48263,"lon":6.81376,"geocoding":{},"distantMaxMiles":5},"Skodje":{"countryName":"Norway","stateName":"Møre og Romsdal","name":"Skodje","lat":62.50306,"lon":6.69817,"geocoding":{},"distantMaxMiles":5},"Smøla":{"countryName":"Norway","stateName":"Møre og Romsdal","name":"Smøla","lat":63.46526,"lon":8.01814,"geocoding":{},"distantMaxMiles":5},"Steinshamn":{"countryName":"Norway","stateName":"Møre og Romsdal","name":"Steinshamn","lat":62.78389,"lon":6.47065,"geocoding":{},"distantMaxMiles":5},"Stordal":{"countryName":"Norway","stateName":"Møre og Romsdal","name":"Stordal","lat":62.38214,"lon":6.98708,"geocoding":{},"distantMaxMiles":5},"Stranda":{"countryName":"Norway","stateName":"Møre og Romsdal","name":"Stranda","lat":62.31132,"lon":6.93115,"geocoding":{},"distantMaxMiles":5},"Sula":{"countryName":"Norway","stateName":"Møre og Romsdal","name":"Sula","lat":62.44447,"lon":6.21229,"geocoding":{},"distantMaxMiles":5},"Sunndal":{"countryName":"Norway","stateName":"Møre og Romsdal","name":"Sunndal","lat":62.67464,"lon":8.56188,"geocoding":{},"distantMaxMiles":5},"Sunndalsøra":{"countryName":"Norway","stateName":"Møre og Romsdal","name":"Sunndalsøra","lat":62.67519,"lon":8.56327,"geocoding":{},"distantMaxMiles":5},"Surnadal":{"countryName":"Norway","stateName":"Møre og Romsdal","name":"Surnadal","lat":62.97533,"lon":8.7249,"geocoding":{},"distantMaxMiles":5},"Sykkylven":{"countryName":"Norway","stateName":"Møre og Romsdal","name":"Sykkylven","lat":62.38962,"lon":6.57825,"geocoding":{},"distantMaxMiles":5},"Tingvoll":{"countryName":"Norway","stateName":"Møre og Romsdal","name":"Tingvoll","lat":62.91194,"lon":8.20673,"geocoding":{},"distantMaxMiles":5},"Tomra":{"countryName":"Norway","stateName":"Møre og Romsdal","name":"Tomra","lat":62.58118,"lon":6.93106,"geocoding":{},"distantMaxMiles":5},"Ulstein":{"countryName":"Norway","stateName":"Møre og Romsdal","name":"Ulstein","lat":62.34423,"lon":5.85241,"geocoding":{},"distantMaxMiles":5},"Ulsteinvik":{"countryName":"Norway","stateName":"Møre og Romsdal","name":"Ulsteinvik","lat":62.34317,"lon":5.84869,"geocoding":{},"distantMaxMiles":5},"Ulsteinvik weather pws station":{"countryName":"Norway","stateName":"Møre og Romsdal","name":"Ulsteinvik weather pws station","lat":62.34338,"lon":5.84385,"geocoding":{},"distantMaxMiles":5},"Vanylven":{"countryName":"Norway","stateName":"Møre og Romsdal","name":"Vanylven","lat":62.10003,"lon":5.55827,"geocoding":{},"distantMaxMiles":5},"Vatne":{"countryName":"Norway","stateName":"Møre og Romsdal","name":"Vatne","lat":62.55826,"lon":6.61708,"geocoding":{},"distantMaxMiles":5},"Vestnes":{"countryName":"Norway","stateName":"Møre og Romsdal","name":"Vestnes","lat":62.6213,"lon":7.08966,"geocoding":{},"distantMaxMiles":5},"Volda":{"countryName":"Norway","stateName":"Møre og Romsdal","name":"Volda","lat":62.14678,"lon":6.068,"geocoding":{},"distantMaxMiles":5},"Ålesund":{"countryName":"Norway","stateName":"Møre og Romsdal","name":"Ålesund","lat":62.47225,"lon":6.15492,"geocoding":{},"distantMaxMiles":5},"Åndalsnes":{"countryName":"Norway","stateName":"Møre og Romsdal","name":"Åndalsnes","lat":62.56749,"lon":7.68709,"geocoding":{},"distantMaxMiles":5},"Ørskog":{"countryName":"Norway","stateName":"Møre og Romsdal","name":"Ørskog","lat":62.4845,"lon":6.82025,"geocoding":{},"distantMaxMiles":5},"Ørsta":{"countryName":"Norway","stateName":"Møre og Romsdal","name":"Ørsta","lat":62.19937,"lon":6.13084,"geocoding":{},"distantMaxMiles":5}}},"Nord-Trøndelag":{"countryName":"Norway","name":"Nord-Trøndelag","isoCode":"17","lat":64.4370792,"lon":11.746295,"geocoding":{},"distantMaxMiles":5,"cities":{}},"Nordland":{"countryName":"Norway","name":"Nordland","isoCode":"18","lat":67.693058,"lon":12.7073936,"geocoding":{},"distantMaxMiles":5,"cities":{"Alstahaug":{"countryName":"Norway","stateName":"Nordland","name":"Alstahaug","lat":65.97556,"lon":12.56836,"geocoding":{},"distantMaxMiles":5},"Andenes":{"countryName":"Norway","stateName":"Nordland","name":"Andenes","lat":69.31428,"lon":16.11939,"geocoding":{},"distantMaxMiles":5},"Andøy":{"countryName":"Norway","stateName":"Nordland","name":"Andøy","lat":69.08033,"lon":15.77637,"geocoding":{},"distantMaxMiles":5},"Ballangen":{"countryName":"Norway","stateName":"Nordland","name":"Ballangen","lat":68.34365,"lon":16.83317,"geocoding":{},"distantMaxMiles":5},"Beiarn":{"countryName":"Norway","stateName":"Nordland","name":"Beiarn","lat":67.00725,"lon":14.57304,"geocoding":{},"distantMaxMiles":5},"Bindal":{"countryName":"Norway","stateName":"Nordland","name":"Bindal","lat":65.0878,"lon":12.37747,"geocoding":{},"distantMaxMiles":5},"Bjerkvik":{"countryName":"Norway","stateName":"Nordland","name":"Bjerkvik","lat":68.54917,"lon":17.55709,"geocoding":{},"distantMaxMiles":5},"Bodø":{"countryName":"Norway","stateName":"Nordland","name":"Bodø","lat":67.28325,"lon":14.38319,"geocoding":{},"distantMaxMiles":5},"Bogen":{"countryName":"Norway","stateName":"Nordland","name":"Bogen","lat":68.52647,"lon":16.9928,"geocoding":{},"distantMaxMiles":5},"Brønnøy":{"countryName":"Norway","stateName":"Nordland","name":"Brønnøy","lat":65.46786,"lon":12.20626,"geocoding":{},"distantMaxMiles":5},"Brønnøysund":{"countryName":"Norway","stateName":"Nordland","name":"Brønnøysund","lat":65.47487,"lon":12.21285,"geocoding":{},"distantMaxMiles":5},"Bø":{"countryName":"Norway","stateName":"Nordland","name":"Bø","lat":68.68823,"lon":14.47899,"geocoding":{},"distantMaxMiles":5},"Dønna":{"countryName":"Norway","stateName":"Nordland","name":"Dønna","lat":66.10606,"lon":12.48189,"geocoding":{},"distantMaxMiles":5},"Evenes":{"countryName":"Norway","stateName":"Nordland","name":"Evenes","lat":68.52334,"lon":17.00888,"geocoding":{},"distantMaxMiles":5},"Evjen":{"countryName":"Norway","stateName":"Nordland","name":"Evjen","lat":68.26667,"lon":13.73333,"geocoding":{},"distantMaxMiles":5},"Fauske":{"countryName":"Norway","stateName":"Nordland","name":"Fauske","lat":67.25963,"lon":15.3941,"geocoding":{},"distantMaxMiles":5},"Flakstad":{"countryName":"Norway","stateName":"Nordland","name":"Flakstad","lat":68.09292,"lon":13.2331,"geocoding":{},"distantMaxMiles":5},"Gildeskål":{"countryName":"Norway","stateName":"Nordland","name":"Gildeskål","lat":67.03394,"lon":14.02582,"geocoding":{},"distantMaxMiles":5},"Gladstad":{"countryName":"Norway","stateName":"Nordland","name":"Gladstad","lat":65.67683,"lon":11.96218,"geocoding":{},"distantMaxMiles":5},"Glomfjord":{"countryName":"Norway","stateName":"Nordland","name":"Glomfjord","lat":66.81663,"lon":13.94404,"geocoding":{},"distantMaxMiles":5},"Grane":{"countryName":"Norway","stateName":"Nordland","name":"Grane","lat":65.53865,"lon":13.38499,"geocoding":{},"distantMaxMiles":5},"Gravdal":{"countryName":"Norway","stateName":"Nordland","name":"Gravdal","lat":68.11832,"lon":13.55339,"geocoding":{},"distantMaxMiles":5},"Hadsel":{"countryName":"Norway","stateName":"Nordland","name":"Hadsel","lat":68.56328,"lon":14.90835,"geocoding":{},"distantMaxMiles":5},"Hamarøy":{"countryName":"Norway","stateName":"Nordland","name":"Hamarøy","lat":68.08381,"lon":15.61671,"geocoding":{},"distantMaxMiles":5},"Hattfjelldal":{"countryName":"Norway","stateName":"Nordland","name":"Hattfjelldal","lat":65.59765,"lon":13.98948,"geocoding":{},"distantMaxMiles":5},"Hauknes":{"countryName":"Norway","stateName":"Nordland","name":"Hauknes","lat":66.28333,"lon":14.06667,"geocoding":{},"distantMaxMiles":5},"Hemnes":{"countryName":"Norway","stateName":"Nordland","name":"Hemnes","lat":66.07712,"lon":13.8135,"geocoding":{},"distantMaxMiles":5},"Hemnesberget":{"countryName":"Norway","stateName":"Nordland","name":"Hemnesberget","lat":66.22489,"lon":13.61643,"geocoding":{},"distantMaxMiles":5},"Herøy":{"countryName":"Norway","stateName":"Nordland","name":"Herøy","lat":65.98427,"lon":12.28916,"geocoding":{},"distantMaxMiles":5},"Inndyr":{"countryName":"Norway","stateName":"Nordland","name":"Inndyr","lat":67.03353,"lon":14.02663,"geocoding":{},"distantMaxMiles":5},"Kabelvåg":{"countryName":"Norway","stateName":"Nordland","name":"Kabelvåg","lat":68.21066,"lon":14.47554,"geocoding":{},"distantMaxMiles":5},"Kjøpsvik":{"countryName":"Norway","stateName":"Nordland","name":"Kjøpsvik","lat":68.09696,"lon":16.37416,"geocoding":{},"distantMaxMiles":5},"Korgen":{"countryName":"Norway","stateName":"Nordland","name":"Korgen","lat":66.07662,"lon":13.8216,"geocoding":{},"distantMaxMiles":5},"Leirfjord":{"countryName":"Norway","stateName":"Nordland","name":"Leirfjord","lat":66.06348,"lon":12.93667,"geocoding":{},"distantMaxMiles":5},"Leknes":{"countryName":"Norway","stateName":"Nordland","name":"Leknes","lat":68.14746,"lon":13.61151,"geocoding":{},"distantMaxMiles":5},"Leland":{"countryName":"Norway","stateName":"Nordland","name":"Leland","lat":66.06406,"lon":12.94325,"geocoding":{},"distantMaxMiles":5},"Lurøy":{"countryName":"Norway","stateName":"Nordland","name":"Lurøy","lat":66.41887,"lon":12.84248,"geocoding":{},"distantMaxMiles":5},"Løding":{"countryName":"Norway","stateName":"Nordland","name":"Løding","lat":67.30055,"lon":14.73852,"geocoding":{},"distantMaxMiles":5},"Lødingen":{"countryName":"Norway","stateName":"Nordland","name":"Lødingen","lat":68.40998,"lon":15.99012,"geocoding":{},"distantMaxMiles":5},"Løpsmarka":{"countryName":"Norway","stateName":"Nordland","name":"Løpsmarka","lat":67.31343,"lon":14.44934,"geocoding":{},"distantMaxMiles":5},"Melbu":{"countryName":"Norway","stateName":"Nordland","name":"Melbu","lat":68.50246,"lon":14.79962,"geocoding":{},"distantMaxMiles":5},"Meløy":{"countryName":"Norway","stateName":"Nordland","name":"Meløy","lat":66.87204,"lon":13.70763,"geocoding":{},"distantMaxMiles":5},"Mo i Rana":{"countryName":"Norway","stateName":"Nordland","name":"Mo i Rana","lat":66.31278,"lon":14.14278,"geocoding":{},"distantMaxMiles":5},"Mosjøen":{"countryName":"Norway","stateName":"Nordland","name":"Mosjøen","lat":65.83599,"lon":13.19076,"geocoding":{},"distantMaxMiles":5},"Moskenes":{"countryName":"Norway","stateName":"Nordland","name":"Moskenes","lat":67.93467,"lon":13.09109,"geocoding":{},"distantMaxMiles":5},"Myre":{"countryName":"Norway","stateName":"Nordland","name":"Myre","lat":68.914,"lon":15.07843,"geocoding":{},"distantMaxMiles":5},"Narvik":{"countryName":"Norway","stateName":"Nordland","name":"Narvik","lat":68.43896,"lon":17.42775,"geocoding":{},"distantMaxMiles":5},"Nesna":{"countryName":"Norway","stateName":"Nordland","name":"Nesna","lat":66.19796,"lon":13.02229,"geocoding":{},"distantMaxMiles":5},"Rana":{"countryName":"Norway","stateName":"Nordland","name":"Rana","lat":66.31122,"lon":14.13996,"geocoding":{},"distantMaxMiles":5},"Reine":{"countryName":"Norway","stateName":"Nordland","name":"Reine","lat":67.93249,"lon":13.08955,"geocoding":{},"distantMaxMiles":5},"Rognan":{"countryName":"Norway","stateName":"Nordland","name":"Rognan","lat":67.10021,"lon":15.39086,"geocoding":{},"distantMaxMiles":5},"Rødøy":{"countryName":"Norway","stateName":"Nordland","name":"Rødøy","lat":66.71195,"lon":13.2853,"geocoding":{},"distantMaxMiles":5},"Røst":{"countryName":"Norway","stateName":"Nordland","name":"Røst","lat":67.51727,"lon":12.11564,"geocoding":{},"distantMaxMiles":5},"Saltdal":{"countryName":"Norway","stateName":"Nordland","name":"Saltdal","lat":67.10144,"lon":15.39458,"geocoding":{},"distantMaxMiles":5},"Sandnessjøen":{"countryName":"Norway","stateName":"Nordland","name":"Sandnessjøen","lat":66.02166,"lon":12.63158,"geocoding":{},"distantMaxMiles":5},"Sortland":{"countryName":"Norway","stateName":"Nordland","name":"Sortland","lat":68.69618,"lon":15.41174,"geocoding":{},"distantMaxMiles":5},"Steigen":{"countryName":"Norway","stateName":"Nordland","name":"Steigen","lat":67.77625,"lon":15.01621,"geocoding":{},"distantMaxMiles":5},"Stokmarknes":{"countryName":"Norway","stateName":"Nordland","name":"Stokmarknes","lat":68.56462,"lon":14.91075,"geocoding":{},"distantMaxMiles":5},"Straume":{"countryName":"Norway","stateName":"Nordland","name":"Straume","lat":68.6888,"lon":14.47205,"geocoding":{},"distantMaxMiles":5},"Straumen":{"countryName":"Norway","stateName":"Nordland","name":"Straumen","lat":67.34769,"lon":15.60493,"geocoding":{},"distantMaxMiles":5},"Svolvær":{"countryName":"Norway","stateName":"Nordland","name":"Svolvær","lat":68.23417,"lon":14.56834,"geocoding":{},"distantMaxMiles":5},"Sømna":{"countryName":"Norway","stateName":"Nordland","name":"Sømna","lat":65.31379,"lon":12.16729,"geocoding":{},"distantMaxMiles":5},"Sørfold":{"countryName":"Norway","stateName":"Nordland","name":"Sørfold","lat":67.34803,"lon":15.59445,"geocoding":{},"distantMaxMiles":5},"Sørland":{"countryName":"Norway","stateName":"Nordland","name":"Sørland","lat":67.66564,"lon":12.69784,"geocoding":{},"distantMaxMiles":5},"Terråk":{"countryName":"Norway","stateName":"Nordland","name":"Terråk","lat":65.087,"lon":12.37148,"geocoding":{},"distantMaxMiles":5},"Tjeldsund":{"countryName":"Norway","stateName":"Nordland","name":"Tjeldsund","lat":68.55557,"lon":16.36172,"geocoding":{},"distantMaxMiles":5},"Trofors":{"countryName":"Norway","stateName":"Nordland","name":"Trofors","lat":65.53335,"lon":13.40631,"geocoding":{},"distantMaxMiles":5},"Træna":{"countryName":"Norway","stateName":"Nordland","name":"Træna","lat":66.50159,"lon":12.09645,"geocoding":{},"distantMaxMiles":5},"Tysfjord":{"countryName":"Norway","stateName":"Nordland","name":"Tysfjord","lat":68.09772,"lon":16.37591,"geocoding":{},"distantMaxMiles":5},"Vefsn":{"countryName":"Norway","stateName":"Nordland","name":"Vefsn","lat":65.84109,"lon":13.20024,"geocoding":{},"distantMaxMiles":5},"Vega":{"countryName":"Norway","stateName":"Nordland","name":"Vega","lat":65.67539,"lon":11.96456,"geocoding":{},"distantMaxMiles":5},"Vestvågøy":{"countryName":"Norway","stateName":"Nordland","name":"Vestvågøy","lat":68.1483,"lon":13.61119,"geocoding":{},"distantMaxMiles":5},"Vevelstad":{"countryName":"Norway","stateName":"Nordland","name":"Vevelstad","lat":65.70002,"lon":12.43921,"geocoding":{},"distantMaxMiles":5},"Vik":{"countryName":"Norway","stateName":"Nordland","name":"Vik","lat":65.31254,"lon":12.16734,"geocoding":{},"distantMaxMiles":5},"Vågan":{"countryName":"Norway","stateName":"Nordland","name":"Vågan","lat":68.2322,"lon":14.56226,"geocoding":{},"distantMaxMiles":5},"Værøy":{"countryName":"Norway","stateName":"Nordland","name":"Værøy","lat":67.66374,"lon":12.69337,"geocoding":{},"distantMaxMiles":5},"Øksnes":{"countryName":"Norway","stateName":"Nordland","name":"Øksnes","lat":68.91463,"lon":15.08703,"geocoding":{},"distantMaxMiles":5},"Ørnes":{"countryName":"Norway","stateName":"Nordland","name":"Ørnes","lat":66.86878,"lon":13.70579,"geocoding":{},"distantMaxMiles":5}}},"Oppland":{"countryName":"Norway","name":"Oppland","isoCode":"05","lat":61.5422752,"lon":9.7166315,"geocoding":{},"distantMaxMiles":5,"cities":{"Bagn":{"countryName":"Norway","stateName":"Oppland","name":"Bagn","lat":60.82249,"lon":9.55207,"geocoding":{},"distantMaxMiles":5},"Dokka":{"countryName":"Norway","stateName":"Oppland","name":"Dokka","lat":60.835,"lon":10.07362,"geocoding":{},"distantMaxMiles":5},"Dombås":{"countryName":"Norway","stateName":"Oppland","name":"Dombås","lat":62.07554,"lon":9.12785,"geocoding":{},"distantMaxMiles":5},"Dovre":{"countryName":"Norway","stateName":"Oppland","name":"Dovre","lat":61.98582,"lon":9.24947,"geocoding":{},"distantMaxMiles":5},"Etnedal":{"countryName":"Norway","stateName":"Oppland","name":"Etnedal","lat":60.88872,"lon":9.64031,"geocoding":{},"distantMaxMiles":5},"Fagernes":{"countryName":"Norway","stateName":"Oppland","name":"Fagernes","lat":60.98584,"lon":9.23236,"geocoding":{},"distantMaxMiles":5},"Fossbergom":{"countryName":"Norway","stateName":"Oppland","name":"Fossbergom","lat":61.83772,"lon":8.56842,"geocoding":{},"distantMaxMiles":5},"Gausdal":{"countryName":"Norway","stateName":"Oppland","name":"Gausdal","lat":61.22685,"lon":10.22145,"geocoding":{},"distantMaxMiles":5},"Gjøvik":{"countryName":"Norway","stateName":"Oppland","name":"Gjøvik","lat":60.79472,"lon":10.69287,"geocoding":{},"distantMaxMiles":5},"Gran":{"countryName":"Norway","stateName":"Oppland","name":"Gran","lat":60.39293,"lon":10.56045,"geocoding":{},"distantMaxMiles":5},"Grua":{"countryName":"Norway","stateName":"Oppland","name":"Grua","lat":60.25701,"lon":10.66222,"geocoding":{},"distantMaxMiles":5},"Hov":{"countryName":"Norway","stateName":"Oppland","name":"Hov","lat":60.6987,"lon":10.35193,"geocoding":{},"distantMaxMiles":5},"Hundorp":{"countryName":"Norway","stateName":"Oppland","name":"Hundorp","lat":61.55523,"lon":9.94069,"geocoding":{},"distantMaxMiles":5},"Jevnaker":{"countryName":"Norway","stateName":"Oppland","name":"Jevnaker","lat":60.2406,"lon":10.38587,"geocoding":{},"distantMaxMiles":5},"Lena":{"countryName":"Norway","stateName":"Oppland","name":"Lena","lat":60.67391,"lon":10.81317,"geocoding":{},"distantMaxMiles":5},"Lesja":{"countryName":"Norway","stateName":"Oppland","name":"Lesja","lat":62.11785,"lon":8.86262,"geocoding":{},"distantMaxMiles":5},"Lillehammer":{"countryName":"Norway","stateName":"Oppland","name":"Lillehammer","lat":61.11464,"lon":10.46743,"geocoding":{},"distantMaxMiles":5},"Lom":{"countryName":"Norway","stateName":"Oppland","name":"Lom","lat":61.83639,"lon":8.56811,"geocoding":{},"distantMaxMiles":5},"Lunner":{"countryName":"Norway","stateName":"Oppland","name":"Lunner","lat":60.29462,"lon":10.6086,"geocoding":{},"distantMaxMiles":5},"Nord-Aurdal":{"countryName":"Norway","stateName":"Oppland","name":"Nord-Aurdal","lat":60.98531,"lon":9.23661,"geocoding":{},"distantMaxMiles":5},"Nord-Fron":{"countryName":"Norway","stateName":"Oppland","name":"Nord-Fron","lat":61.59556,"lon":9.7483,"geocoding":{},"distantMaxMiles":5},"Nordre Land":{"countryName":"Norway","stateName":"Oppland","name":"Nordre Land","lat":60.83471,"lon":10.07543,"geocoding":{},"distantMaxMiles":5},"Otta":{"countryName":"Norway","stateName":"Oppland","name":"Otta","lat":61.7712,"lon":9.53529,"geocoding":{},"distantMaxMiles":5},"Raufoss":{"countryName":"Norway","stateName":"Oppland","name":"Raufoss","lat":60.72604,"lon":10.6133,"geocoding":{},"distantMaxMiles":5},"Reinsvoll":{"countryName":"Norway","stateName":"Oppland","name":"Reinsvoll","lat":60.67977,"lon":10.62175,"geocoding":{},"distantMaxMiles":5},"Ringebu":{"countryName":"Norway","stateName":"Oppland","name":"Ringebu","lat":61.5298,"lon":10.1418,"geocoding":{},"distantMaxMiles":5},"Sel":{"countryName":"Norway","stateName":"Oppland","name":"Sel","lat":61.77278,"lon":9.53415,"geocoding":{},"distantMaxMiles":5},"Skjåk":{"countryName":"Norway","stateName":"Oppland","name":"Skjåk","lat":61.88349,"lon":8.2649,"geocoding":{},"distantMaxMiles":5},"Skreia":{"countryName":"Norway","stateName":"Oppland","name":"Skreia","lat":60.65257,"lon":10.93564,"geocoding":{},"distantMaxMiles":5},"Søndre Land":{"countryName":"Norway","stateName":"Oppland","name":"Søndre Land","lat":60.69944,"lon":10.35086,"geocoding":{},"distantMaxMiles":5},"Sør-Aurdal":{"countryName":"Norway","stateName":"Oppland","name":"Sør-Aurdal","lat":60.82242,"lon":9.54836,"geocoding":{},"distantMaxMiles":5},"Sør-Fron":{"countryName":"Norway","stateName":"Oppland","name":"Sør-Fron","lat":61.55652,"lon":9.93949,"geocoding":{},"distantMaxMiles":5},"Tretten":{"countryName":"Norway","stateName":"Oppland","name":"Tretten","lat":61.31423,"lon":10.30066,"geocoding":{},"distantMaxMiles":5},"Vang":{"countryName":"Norway","stateName":"Oppland","name":"Vang","lat":61.12564,"lon":8.57167,"geocoding":{},"distantMaxMiles":5},"Vestre Slidre":{"countryName":"Norway","stateName":"Oppland","name":"Vestre Slidre","lat":61.08842,"lon":8.98196,"geocoding":{},"distantMaxMiles":5},"Vestre Toten":{"countryName":"Norway","stateName":"Oppland","name":"Vestre Toten","lat":60.72593,"lon":10.60764,"geocoding":{},"distantMaxMiles":5},"Vinstra":{"countryName":"Norway","stateName":"Oppland","name":"Vinstra","lat":61.59496,"lon":9.75134,"geocoding":{},"distantMaxMiles":5},"Vågå":{"countryName":"Norway","stateName":"Oppland","name":"Vågå","lat":61.87565,"lon":9.09572,"geocoding":{},"distantMaxMiles":5},"Vågåmo":{"countryName":"Norway","stateName":"Oppland","name":"Vågåmo","lat":61.87505,"lon":9.09671,"geocoding":{},"distantMaxMiles":5},"Østre Toten":{"countryName":"Norway","stateName":"Oppland","name":"Østre Toten","lat":60.67659,"lon":10.81997,"geocoding":{},"distantMaxMiles":5},"Øyer":{"countryName":"Norway","stateName":"Oppland","name":"Øyer","lat":61.26495,"lon":10.41297,"geocoding":{},"distantMaxMiles":5},"Øystre Slidre":{"countryName":"Norway","stateName":"Oppland","name":"Øystre Slidre","lat":61.13377,"lon":9.07872,"geocoding":{},"distantMaxMiles":5}}},"Oslo":{"countryName":"Norway","name":"Oslo","isoCode":"03","lat":59.9138688,"lon":10.7522454,"geocoding":{},"distantMaxMiles":5,"cities":{"Oslo":{"countryName":"Norway","stateName":"Oslo","name":"Oslo","lat":59.91273,"lon":10.74609,"geocoding":{},"distantMaxMiles":5},"Sjølyststranda":{"countryName":"Norway","stateName":"Oslo","name":"Sjølyststranda","lat":59.92105,"lon":10.68017,"geocoding":{},"distantMaxMiles":5}}},"Rogaland":{"countryName":"Norway","name":"Rogaland","isoCode":"11","lat":59.1489544,"lon":6.0143432,"geocoding":{},"distantMaxMiles":5,"cities":{"Bjerkreim":{"countryName":"Norway","stateName":"Rogaland","name":"Bjerkreim","lat":58.6305,"lon":6.0813,"geocoding":{},"distantMaxMiles":5},"Bokn":{"countryName":"Norway","stateName":"Rogaland","name":"Bokn","lat":59.23062,"lon":5.43524,"geocoding":{},"distantMaxMiles":5},"Bryne":{"countryName":"Norway","stateName":"Rogaland","name":"Bryne","lat":58.73536,"lon":5.64766,"geocoding":{},"distantMaxMiles":5},"Egersund":{"countryName":"Norway","stateName":"Rogaland","name":"Egersund","lat":58.45133,"lon":5.9997,"geocoding":{},"distantMaxMiles":5},"Eigersund":{"countryName":"Norway","stateName":"Rogaland","name":"Eigersund","lat":58.45236,"lon":6.00314,"geocoding":{},"distantMaxMiles":5},"Eike":{"countryName":"Norway","stateName":"Rogaland","name":"Eike","lat":59.39833,"lon":5.36389,"geocoding":{},"distantMaxMiles":5},"Finnøy":{"countryName":"Norway","stateName":"Rogaland","name":"Finnøy","lat":59.17117,"lon":5.87398,"geocoding":{},"distantMaxMiles":5},"Forsand":{"countryName":"Norway","stateName":"Rogaland","name":"Forsand","lat":58.89929,"lon":6.09642,"geocoding":{},"distantMaxMiles":5},"Gjesdal":{"countryName":"Norway","stateName":"Rogaland","name":"Gjesdal","lat":58.76478,"lon":5.855,"geocoding":{},"distantMaxMiles":5},"Hauge i Dalane":{"countryName":"Norway","stateName":"Rogaland","name":"Hauge i Dalane","lat":58.34361,"lon":6.28121,"geocoding":{},"distantMaxMiles":5},"Haugesund":{"countryName":"Norway","stateName":"Rogaland","name":"Haugesund","lat":59.41015,"lon":5.27551,"geocoding":{},"distantMaxMiles":5},"Hjelmeland":{"countryName":"Norway","stateName":"Rogaland","name":"Hjelmeland","lat":59.23668,"lon":6.17912,"geocoding":{},"distantMaxMiles":5},"Hommersåk":{"countryName":"Norway","stateName":"Rogaland","name":"Hommersåk","lat":58.92556,"lon":5.85104,"geocoding":{},"distantMaxMiles":5},"Hå":{"countryName":"Norway","stateName":"Rogaland","name":"Hå","lat":58.6161,"lon":5.64497,"geocoding":{},"distantMaxMiles":5},"Judaberg":{"countryName":"Norway","stateName":"Rogaland","name":"Judaberg","lat":59.17204,"lon":5.87617,"geocoding":{},"distantMaxMiles":5},"Jørpeland":{"countryName":"Norway","stateName":"Rogaland","name":"Jørpeland","lat":59.02251,"lon":6.04078,"geocoding":{},"distantMaxMiles":5},"Karmøy":{"countryName":"Norway","stateName":"Rogaland","name":"Karmøy","lat":59.28079,"lon":5.30529,"geocoding":{},"distantMaxMiles":5},"Klepp":{"countryName":"Norway","stateName":"Rogaland","name":"Klepp","lat":58.77655,"lon":5.63009,"geocoding":{},"distantMaxMiles":5},"Kopervik":{"countryName":"Norway","stateName":"Rogaland","name":"Kopervik","lat":59.28354,"lon":5.30669,"geocoding":{},"distantMaxMiles":5},"Kvitsøy":{"countryName":"Norway","stateName":"Rogaland","name":"Kvitsøy","lat":59.06471,"lon":5.40537,"geocoding":{},"distantMaxMiles":5},"Lund":{"countryName":"Norway","stateName":"Rogaland","name":"Lund","lat":58.45715,"lon":6.54871,"geocoding":{},"distantMaxMiles":5},"Lyefjell":{"countryName":"Norway","stateName":"Rogaland","name":"Lyefjell","lat":58.73539,"lon":5.73615,"geocoding":{},"distantMaxMiles":5},"Moi":{"countryName":"Norway","stateName":"Rogaland","name":"Moi","lat":58.45674,"lon":6.55184,"geocoding":{},"distantMaxMiles":5},"Nærbø":{"countryName":"Norway","stateName":"Rogaland","name":"Nærbø","lat":58.66546,"lon":5.63788,"geocoding":{},"distantMaxMiles":5},"Randaberg":{"countryName":"Norway","stateName":"Rogaland","name":"Randaberg","lat":58.9987,"lon":5.62055,"geocoding":{},"distantMaxMiles":5},"Rennesøy":{"countryName":"Norway","stateName":"Rogaland","name":"Rennesøy","lat":59.09899,"lon":5.69966,"geocoding":{},"distantMaxMiles":5},"Sandnes":{"countryName":"Norway","stateName":"Rogaland","name":"Sandnes","lat":58.8476,"lon":5.72855,"geocoding":{},"distantMaxMiles":5},"Sauda":{"countryName":"Norway","stateName":"Rogaland","name":"Sauda","lat":59.65067,"lon":6.35312,"geocoding":{},"distantMaxMiles":5},"Skudeneshavn":{"countryName":"Norway","stateName":"Rogaland","name":"Skudeneshavn","lat":59.14856,"lon":5.25687,"geocoding":{},"distantMaxMiles":5},"Sokndal":{"countryName":"Norway","stateName":"Rogaland","name":"Sokndal","lat":58.34256,"lon":6.29425,"geocoding":{},"distantMaxMiles":5},"Sola":{"countryName":"Norway","stateName":"Rogaland","name":"Sola","lat":58.88806,"lon":5.64728,"geocoding":{},"distantMaxMiles":5},"Stavanger":{"countryName":"Norway","stateName":"Rogaland","name":"Stavanger","lat":58.96941,"lon":5.72856,"geocoding":{},"distantMaxMiles":5},"Strand":{"countryName":"Norway","stateName":"Rogaland","name":"Strand","lat":59.02353,"lon":6.04343,"geocoding":{},"distantMaxMiles":5},"Suldal":{"countryName":"Norway","stateName":"Rogaland","name":"Suldal","lat":59.48571,"lon":6.25222,"geocoding":{},"distantMaxMiles":5},"Sæveland":{"countryName":"Norway","stateName":"Rogaland","name":"Sæveland","lat":59.26667,"lon":5.2,"geocoding":{},"distantMaxMiles":5},"Tananger":{"countryName":"Norway","stateName":"Rogaland","name":"Tananger","lat":58.93618,"lon":5.5741,"geocoding":{},"distantMaxMiles":5},"Tau":{"countryName":"Norway","stateName":"Rogaland","name":"Tau","lat":59.06481,"lon":5.9225,"geocoding":{},"distantMaxMiles":5},"Time":{"countryName":"Norway","stateName":"Rogaland","name":"Time","lat":58.73636,"lon":5.65297,"geocoding":{},"distantMaxMiles":5},"Tysvær":{"countryName":"Norway","stateName":"Rogaland","name":"Tysvær","lat":59.42159,"lon":5.44781,"geocoding":{},"distantMaxMiles":5},"Utsira":{"countryName":"Norway","stateName":"Rogaland","name":"Utsira","lat":59.30565,"lon":4.88621,"geocoding":{},"distantMaxMiles":5},"Varhaug":{"countryName":"Norway","stateName":"Rogaland","name":"Varhaug","lat":58.6181,"lon":5.65702,"geocoding":{},"distantMaxMiles":5},"Vedavågen":{"countryName":"Norway","stateName":"Rogaland","name":"Vedavågen","lat":59.29483,"lon":5.21874,"geocoding":{},"distantMaxMiles":5},"Vigrestad":{"countryName":"Norway","stateName":"Rogaland","name":"Vigrestad","lat":58.57103,"lon":5.68182,"geocoding":{},"distantMaxMiles":5},"Vikeså":{"countryName":"Norway","stateName":"Rogaland","name":"Vikeså","lat":58.63759,"lon":6.09133,"geocoding":{},"distantMaxMiles":5},"Vikevåg":{"countryName":"Norway","stateName":"Rogaland","name":"Vikevåg","lat":59.09754,"lon":5.6979,"geocoding":{},"distantMaxMiles":5},"Vindafjord":{"countryName":"Norway","stateName":"Rogaland","name":"Vindafjord","lat":59.60543,"lon":5.80784,"geocoding":{},"distantMaxMiles":5},"Vormedal":{"countryName":"Norway","stateName":"Rogaland","name":"Vormedal","lat":59.35607,"lon":5.31962,"geocoding":{},"distantMaxMiles":5},"Åkrehamn":{"countryName":"Norway","stateName":"Rogaland","name":"Åkrehamn","lat":59.26053,"lon":5.18689,"geocoding":{},"distantMaxMiles":5},"Ølen":{"countryName":"Norway","stateName":"Rogaland","name":"Ølen","lat":59.60437,"lon":5.80799,"geocoding":{},"distantMaxMiles":5}}},"Sogn og Fjordane":{"countryName":"Norway","name":"Sogn og Fjordane","isoCode":"14","lat":61.5539435,"lon":6.3325879,"geocoding":{},"distantMaxMiles":5,"cities":{"Askvoll":{"countryName":"Norway","stateName":"Sogn og Fjordane","name":"Askvoll","lat":61.3485,"lon":5.05318,"geocoding":{},"distantMaxMiles":5},"Aurland":{"countryName":"Norway","stateName":"Sogn og Fjordane","name":"Aurland","lat":60.90556,"lon":7.18734,"geocoding":{},"distantMaxMiles":5},"Balestrand":{"countryName":"Norway","stateName":"Sogn og Fjordane","name":"Balestrand","lat":61.20809,"lon":6.53551,"geocoding":{},"distantMaxMiles":5},"Bremanger":{"countryName":"Norway","stateName":"Sogn og Fjordane","name":"Bremanger","lat":61.76862,"lon":5.28907,"geocoding":{},"distantMaxMiles":5},"Dale":{"countryName":"Norway","stateName":"Sogn og Fjordane","name":"Dale","lat":61.36353,"lon":5.40036,"geocoding":{},"distantMaxMiles":5},"Eid":{"countryName":"Norway","stateName":"Sogn og Fjordane","name":"Eid","lat":61.90684,"lon":5.99321,"geocoding":{},"distantMaxMiles":5},"Eivindvik":{"countryName":"Norway","stateName":"Sogn og Fjordane","name":"Eivindvik","lat":60.98133,"lon":5.07497,"geocoding":{},"distantMaxMiles":5},"Farnes":{"countryName":"Norway","stateName":"Sogn og Fjordane","name":"Farnes","lat":61.3085,"lon":7.79694,"geocoding":{},"distantMaxMiles":5},"Fjaler":{"countryName":"Norway","stateName":"Sogn og Fjordane","name":"Fjaler","lat":61.36383,"lon":5.39808,"geocoding":{},"distantMaxMiles":5},"Flora":{"countryName":"Norway","stateName":"Sogn og Fjordane","name":"Flora","lat":61.59994,"lon":5.03144,"geocoding":{},"distantMaxMiles":5},"Florø":{"countryName":"Norway","stateName":"Sogn og Fjordane","name":"Florø","lat":61.59957,"lon":5.0328,"geocoding":{},"distantMaxMiles":5},"Førde":{"countryName":"Norway","stateName":"Sogn og Fjordane","name":"Førde","lat":61.45045,"lon":5.85397,"geocoding":{},"distantMaxMiles":5},"Gaular":{"countryName":"Norway","stateName":"Sogn og Fjordane","name":"Gaular","lat":61.32564,"lon":5.79523,"geocoding":{},"distantMaxMiles":5},"Gaupne":{"countryName":"Norway","stateName":"Sogn og Fjordane","name":"Gaupne","lat":61.40472,"lon":7.29458,"geocoding":{},"distantMaxMiles":5},"Gloppen":{"countryName":"Norway","stateName":"Sogn og Fjordane","name":"Gloppen","lat":61.77728,"lon":6.21561,"geocoding":{},"distantMaxMiles":5},"Gulen":{"countryName":"Norway","stateName":"Sogn og Fjordane","name":"Gulen","lat":60.98192,"lon":5.07408,"geocoding":{},"distantMaxMiles":5},"Hardbakke":{"countryName":"Norway","stateName":"Sogn og Fjordane","name":"Hardbakke","lat":61.07562,"lon":4.84111,"geocoding":{},"distantMaxMiles":5},"Hermansverk":{"countryName":"Norway","stateName":"Sogn og Fjordane","name":"Hermansverk","lat":61.18461,"lon":6.85016,"geocoding":{},"distantMaxMiles":5},"Hornindal":{"countryName":"Norway","stateName":"Sogn og Fjordane","name":"Hornindal","lat":61.96925,"lon":6.52249,"geocoding":{},"distantMaxMiles":5},"Hyllestad":{"countryName":"Norway","stateName":"Sogn og Fjordane","name":"Hyllestad","lat":61.17036,"lon":5.29614,"geocoding":{},"distantMaxMiles":5},"Høyanger":{"countryName":"Norway","stateName":"Sogn og Fjordane","name":"Høyanger","lat":61.2188,"lon":6.07308,"geocoding":{},"distantMaxMiles":5},"Jølster":{"countryName":"Norway","stateName":"Sogn og Fjordane","name":"Jølster","lat":61.56923,"lon":6.48351,"geocoding":{},"distantMaxMiles":5},"Leikanger":{"countryName":"Norway","stateName":"Sogn og Fjordane","name":"Leikanger","lat":61.18556,"lon":6.82199,"geocoding":{},"distantMaxMiles":5},"Luster":{"countryName":"Norway","stateName":"Sogn og Fjordane","name":"Luster","lat":61.4031,"lon":7.29793,"geocoding":{},"distantMaxMiles":5},"Lærdal":{"countryName":"Norway","stateName":"Sogn og Fjordane","name":"Lærdal","lat":61.09842,"lon":7.48101,"geocoding":{},"distantMaxMiles":5},"Lærdalsøyri":{"countryName":"Norway","stateName":"Sogn og Fjordane","name":"Lærdalsøyri","lat":61.10001,"lon":7.47374,"geocoding":{},"distantMaxMiles":5},"Måløy":{"countryName":"Norway","stateName":"Sogn og Fjordane","name":"Måløy","lat":61.93535,"lon":5.11362,"geocoding":{},"distantMaxMiles":5},"Naustdal":{"countryName":"Norway","stateName":"Sogn og Fjordane","name":"Naustdal","lat":61.51034,"lon":5.71719,"geocoding":{},"distantMaxMiles":5},"Nordfjordeid":{"countryName":"Norway","stateName":"Sogn og Fjordane","name":"Nordfjordeid","lat":61.9122,"lon":5.98557,"geocoding":{},"distantMaxMiles":5},"Sandane":{"countryName":"Norway","stateName":"Sogn og Fjordane","name":"Sandane","lat":61.77277,"lon":6.21496,"geocoding":{},"distantMaxMiles":5},"Sande":{"countryName":"Norway","stateName":"Sogn og Fjordane","name":"Sande","lat":61.32511,"lon":5.79773,"geocoding":{},"distantMaxMiles":5},"Selje":{"countryName":"Norway","stateName":"Sogn og Fjordane","name":"Selje","lat":62.04263,"lon":5.34449,"geocoding":{},"distantMaxMiles":5},"Sogndal":{"countryName":"Norway","stateName":"Sogn og Fjordane","name":"Sogndal","lat":61.23144,"lon":7.10301,"geocoding":{},"distantMaxMiles":5},"Solund":{"countryName":"Norway","stateName":"Sogn og Fjordane","name":"Solund","lat":61.07394,"lon":4.83876,"geocoding":{},"distantMaxMiles":5},"Stryn":{"countryName":"Norway","stateName":"Sogn og Fjordane","name":"Stryn","lat":61.90406,"lon":6.724,"geocoding":{},"distantMaxMiles":5},"Svelgen":{"countryName":"Norway","stateName":"Sogn og Fjordane","name":"Svelgen","lat":61.76976,"lon":5.29544,"geocoding":{},"distantMaxMiles":5},"Vik":{"countryName":"Norway","stateName":"Sogn og Fjordane","name":"Vik","lat":61.08863,"lon":6.58512,"geocoding":{},"distantMaxMiles":5},"Vågsøy":{"countryName":"Norway","stateName":"Sogn og Fjordane","name":"Vågsøy","lat":61.93544,"lon":5.11402,"geocoding":{},"distantMaxMiles":5},"Årdal":{"countryName":"Norway","stateName":"Sogn og Fjordane","name":"Årdal","lat":61.23639,"lon":7.70204,"geocoding":{},"distantMaxMiles":5},"Årdalstangen":{"countryName":"Norway","stateName":"Sogn og Fjordane","name":"Årdalstangen","lat":61.23581,"lon":7.7037,"geocoding":{},"distantMaxMiles":5}}},"Svalbard":{"countryName":"Norway","name":"Svalbard","isoCode":"21","lat":77.8749725,"lon":20.9751821,"geocoding":{},"distantMaxMiles":5,"cities":{}},"Sør-Trøndelag":{"countryName":"Norway","name":"Sør-Trøndelag","isoCode":"16","lat":63.0136823,"lon":10.3487136,"geocoding":{},"distantMaxMiles":5,"cities":{}},"Telemark":{"countryName":"Norway","name":"Telemark","isoCode":"08","lat":59.3913985,"lon":8.3211209,"geocoding":{},"distantMaxMiles":5,"cities":{"Bamble":{"countryName":"Norway","stateName":"Telemark","name":"Bamble","lat":59.00146,"lon":9.74573,"geocoding":{},"distantMaxMiles":5},"Bø":{"countryName":"Norway","stateName":"Telemark","name":"Bø","lat":59.41281,"lon":9.06618,"geocoding":{},"distantMaxMiles":5},"Dalen":{"countryName":"Norway","stateName":"Telemark","name":"Dalen","lat":59.44499,"lon":8.00492,"geocoding":{},"distantMaxMiles":5},"Drangedal":{"countryName":"Norway","stateName":"Telemark","name":"Drangedal","lat":59.09655,"lon":9.0596,"geocoding":{},"distantMaxMiles":5},"Fyresdal":{"countryName":"Norway","stateName":"Telemark","name":"Fyresdal","lat":59.18651,"lon":8.08953,"geocoding":{},"distantMaxMiles":5},"Gvarv":{"countryName":"Norway","stateName":"Telemark","name":"Gvarv","lat":59.38767,"lon":9.1724,"geocoding":{},"distantMaxMiles":5},"Herre":{"countryName":"Norway","stateName":"Telemark","name":"Herre","lat":59.10351,"lon":9.56195,"geocoding":{},"distantMaxMiles":5},"Hjartdal":{"countryName":"Norway","stateName":"Telemark","name":"Hjartdal","lat":59.61276,"lon":8.94942,"geocoding":{},"distantMaxMiles":5},"Kragerø":{"countryName":"Norway","stateName":"Telemark","name":"Kragerø","lat":58.86792,"lon":9.41099,"geocoding":{},"distantMaxMiles":5},"Kviteseid":{"countryName":"Norway","stateName":"Telemark","name":"Kviteseid","lat":59.40194,"lon":8.49459,"geocoding":{},"distantMaxMiles":5},"Lunde":{"countryName":"Norway","stateName":"Telemark","name":"Lunde","lat":59.29832,"lon":9.10268,"geocoding":{},"distantMaxMiles":5},"Nissedal":{"countryName":"Norway","stateName":"Telemark","name":"Nissedal","lat":59.01958,"lon":8.52127,"geocoding":{},"distantMaxMiles":5},"Nome":{"countryName":"Norway","stateName":"Telemark","name":"Nome","lat":59.28136,"lon":9.25678,"geocoding":{},"distantMaxMiles":5},"Notodden":{"countryName":"Norway","stateName":"Telemark","name":"Notodden","lat":59.55992,"lon":9.26046,"geocoding":{},"distantMaxMiles":5},"Porsgrunn":{"countryName":"Norway","stateName":"Telemark","name":"Porsgrunn","lat":59.1419,"lon":9.6568,"geocoding":{},"distantMaxMiles":5},"Prestestranda":{"countryName":"Norway","stateName":"Telemark","name":"Prestestranda","lat":59.09773,"lon":9.05866,"geocoding":{},"distantMaxMiles":5},"Rjukan":{"countryName":"Norway","stateName":"Telemark","name":"Rjukan","lat":59.87891,"lon":8.59411,"geocoding":{},"distantMaxMiles":5},"Sauherad":{"countryName":"Norway","stateName":"Telemark","name":"Sauherad","lat":59.39642,"lon":9.2491,"geocoding":{},"distantMaxMiles":5},"Seljord":{"countryName":"Norway","stateName":"Telemark","name":"Seljord","lat":59.48274,"lon":8.62672,"geocoding":{},"distantMaxMiles":5},"Siljan":{"countryName":"Norway","stateName":"Telemark","name":"Siljan","lat":59.28251,"lon":9.73368,"geocoding":{},"distantMaxMiles":5},"Skien":{"countryName":"Norway","stateName":"Telemark","name":"Skien","lat":59.20748,"lon":9.61052,"geocoding":{},"distantMaxMiles":5},"Tinn":{"countryName":"Norway","stateName":"Telemark","name":"Tinn","lat":59.83486,"lon":9.13528,"geocoding":{},"distantMaxMiles":5},"Tokke":{"countryName":"Norway","stateName":"Telemark","name":"Tokke","lat":59.44569,"lon":8.01388,"geocoding":{},"distantMaxMiles":5},"Ulefoss":{"countryName":"Norway","stateName":"Telemark","name":"Ulefoss","lat":59.28245,"lon":9.26548,"geocoding":{},"distantMaxMiles":5},"Vinje":{"countryName":"Norway","stateName":"Telemark","name":"Vinje","lat":59.56924,"lon":7.98896,"geocoding":{},"distantMaxMiles":5}}},"Troms":{"countryName":"Norway","name":"Troms","isoCode":"19","lat":69.8178242,"lon":18.7819365,"geocoding":{},"distantMaxMiles":5,"cities":{"Balsfjord":{"countryName":"Norway","stateName":"Troms","name":"Balsfjord","lat":69.24024,"lon":19.22653,"geocoding":{},"distantMaxMiles":5},"Bardu":{"countryName":"Norway","stateName":"Troms","name":"Bardu","lat":68.86058,"lon":18.35052,"geocoding":{},"distantMaxMiles":5},"Berg":{"countryName":"Norway","stateName":"Troms","name":"Berg","lat":69.44444,"lon":17.2995,"geocoding":{},"distantMaxMiles":5},"Borkenes":{"countryName":"Norway","stateName":"Troms","name":"Borkenes","lat":68.77261,"lon":16.17115,"geocoding":{},"distantMaxMiles":5},"Dyrøy":{"countryName":"Norway","stateName":"Troms","name":"Dyrøy","lat":69.09154,"lon":17.69094,"geocoding":{},"distantMaxMiles":5},"Evenskjer":{"countryName":"Norway","stateName":"Troms","name":"Evenskjer","lat":68.58283,"lon":16.57203,"geocoding":{},"distantMaxMiles":5},"Finnsnes":{"countryName":"Norway","stateName":"Troms","name":"Finnsnes","lat":69.22959,"lon":17.98114,"geocoding":{},"distantMaxMiles":5},"Gratangen":{"countryName":"Norway","stateName":"Troms","name":"Gratangen","lat":68.69273,"lon":17.53186,"geocoding":{},"distantMaxMiles":5},"Gryllefjord":{"countryName":"Norway","stateName":"Troms","name":"Gryllefjord","lat":69.36304,"lon":17.05284,"geocoding":{},"distantMaxMiles":5},"Hansnes":{"countryName":"Norway","stateName":"Troms","name":"Hansnes","lat":69.96701,"lon":19.62752,"geocoding":{},"distantMaxMiles":5},"Harstad":{"countryName":"Norway","stateName":"Troms","name":"Harstad","lat":68.79896,"lon":16.5293,"geocoding":{},"distantMaxMiles":5},"Ibestad":{"countryName":"Norway","stateName":"Troms","name":"Ibestad","lat":68.77866,"lon":17.17661,"geocoding":{},"distantMaxMiles":5},"Karlsøy":{"countryName":"Norway","stateName":"Troms","name":"Karlsøy","lat":69.96185,"lon":19.61811,"geocoding":{},"distantMaxMiles":5},"Kvæfjord":{"countryName":"Norway","stateName":"Troms","name":"Kvæfjord","lat":68.77201,"lon":16.17294,"geocoding":{},"distantMaxMiles":5},"Kvænangen":{"countryName":"Norway","stateName":"Troms","name":"Kvænangen","lat":69.9389,"lon":22.04935,"geocoding":{},"distantMaxMiles":5},"Kåfjord":{"countryName":"Norway","stateName":"Troms","name":"Kåfjord","lat":69.604,"lon":20.53456,"geocoding":{},"distantMaxMiles":5},"Lavangen":{"countryName":"Norway","stateName":"Troms","name":"Lavangen","lat":68.74722,"lon":17.80558,"geocoding":{},"distantMaxMiles":5},"Lenvik":{"countryName":"Norway","stateName":"Troms","name":"Lenvik","lat":69.23111,"lon":17.98739,"geocoding":{},"distantMaxMiles":5},"Lyngen":{"countryName":"Norway","stateName":"Troms","name":"Lyngen","lat":69.57621,"lon":20.21702,"geocoding":{},"distantMaxMiles":5},"Lyngseidet":{"countryName":"Norway","stateName":"Troms","name":"Lyngseidet","lat":69.57629,"lon":20.21887,"geocoding":{},"distantMaxMiles":5},"Moen":{"countryName":"Norway","stateName":"Troms","name":"Moen","lat":69.13043,"lon":18.61226,"geocoding":{},"distantMaxMiles":5},"Målselv":{"countryName":"Norway","stateName":"Troms","name":"Målselv","lat":69.12389,"lon":18.61498,"geocoding":{},"distantMaxMiles":5},"Nordreisa":{"countryName":"Norway","stateName":"Troms","name":"Nordreisa","lat":69.76825,"lon":21.02569,"geocoding":{},"distantMaxMiles":5},"Olderdalen":{"countryName":"Norway","stateName":"Troms","name":"Olderdalen","lat":69.60407,"lon":20.53272,"geocoding":{},"distantMaxMiles":5},"Salangen":{"countryName":"Norway","stateName":"Troms","name":"Salangen","lat":68.87669,"lon":17.83375,"geocoding":{},"distantMaxMiles":5},"Setermoen":{"countryName":"Norway","stateName":"Troms","name":"Setermoen","lat":68.86099,"lon":18.34857,"geocoding":{},"distantMaxMiles":5},"Sjøvegan":{"countryName":"Norway","stateName":"Troms","name":"Sjøvegan","lat":68.87363,"lon":17.84706,"geocoding":{},"distantMaxMiles":5},"Skjervøy":{"countryName":"Norway","stateName":"Troms","name":"Skjervøy","lat":70.03379,"lon":20.97365,"geocoding":{},"distantMaxMiles":5},"Skånland":{"countryName":"Norway","stateName":"Troms","name":"Skånland","lat":68.58378,"lon":16.57305,"geocoding":{},"distantMaxMiles":5},"Storfjord":{"countryName":"Norway","stateName":"Troms","name":"Storfjord","lat":69.2686,"lon":19.96089,"geocoding":{},"distantMaxMiles":5},"Storslett":{"countryName":"Norway","stateName":"Troms","name":"Storslett","lat":69.76783,"lon":21.02466,"geocoding":{},"distantMaxMiles":5},"Storsteinnes":{"countryName":"Norway","stateName":"Troms","name":"Storsteinnes","lat":69.24081,"lon":19.23437,"geocoding":{},"distantMaxMiles":5},"Sørreisa":{"countryName":"Norway","stateName":"Troms","name":"Sørreisa","lat":69.14697,"lon":18.15629,"geocoding":{},"distantMaxMiles":5},"Torsken":{"countryName":"Norway","stateName":"Troms","name":"Torsken","lat":69.36184,"lon":17.05384,"geocoding":{},"distantMaxMiles":5},"Tranøy":{"countryName":"Norway","stateName":"Troms","name":"Tranøy","lat":69.17022,"lon":17.7348,"geocoding":{},"distantMaxMiles":5},"Tromsø":{"countryName":"Norway","stateName":"Troms","name":"Tromsø","lat":69.64961,"lon":18.95702,"geocoding":{},"distantMaxMiles":5}}},"Trøndelag":{"countryName":"Norway","name":"Trøndelag","isoCode":"50","lat":63.5420125,"lon":10.9369267,"geocoding":{},"distantMaxMiles":5,"cities":{"Agdenes":{"countryName":"Norway","stateName":"Trøndelag","name":"Agdenes","lat":63.50575,"lon":9.82623,"geocoding":{},"distantMaxMiles":5},"Berkåk":{"countryName":"Norway","stateName":"Trøndelag","name":"Berkåk","lat":62.82496,"lon":10.01177,"geocoding":{},"distantMaxMiles":5},"Bjugn":{"countryName":"Norway","stateName":"Trøndelag","name":"Bjugn","lat":63.76522,"lon":9.8094,"geocoding":{},"distantMaxMiles":5},"Botngård":{"countryName":"Norway","stateName":"Trøndelag","name":"Botngård","lat":63.76484,"lon":9.80863,"geocoding":{},"distantMaxMiles":5},"Brekstad":{"countryName":"Norway","stateName":"Trøndelag","name":"Brekstad","lat":63.68697,"lon":9.66541,"geocoding":{},"distantMaxMiles":5},"Fillan":{"countryName":"Norway","stateName":"Trøndelag","name":"Fillan","lat":63.60638,"lon":8.96961,"geocoding":{},"distantMaxMiles":5},"Flatanger":{"countryName":"Norway","stateName":"Trøndelag","name":"Flatanger","lat":64.41282,"lon":11.03285,"geocoding":{},"distantMaxMiles":5},"Fosnes":{"countryName":"Norway","stateName":"Trøndelag","name":"Fosnes","lat":64.6591,"lon":11.26535,"geocoding":{},"distantMaxMiles":5},"Frosta":{"countryName":"Norway","stateName":"Trøndelag","name":"Frosta","lat":63.5891,"lon":10.7423,"geocoding":{},"distantMaxMiles":5},"Frøya":{"countryName":"Norway","stateName":"Trøndelag","name":"Frøya","lat":63.73005,"lon":8.82426,"geocoding":{},"distantMaxMiles":5},"Grong":{"countryName":"Norway","stateName":"Trøndelag","name":"Grong","lat":64.46397,"lon":12.31114,"geocoding":{},"distantMaxMiles":5},"Hemne":{"countryName":"Norway","stateName":"Trøndelag","name":"Hemne","lat":63.29095,"lon":9.08893,"geocoding":{},"distantMaxMiles":5},"Hitra":{"countryName":"Norway","stateName":"Trøndelag","name":"Hitra","lat":63.54528,"lon":8.78029,"geocoding":{},"distantMaxMiles":5},"Holtålen":{"countryName":"Norway","stateName":"Trøndelag","name":"Holtålen","lat":62.84318,"lon":11.29284,"geocoding":{},"distantMaxMiles":5},"Hommelvik":{"countryName":"Norway","stateName":"Trøndelag","name":"Hommelvik","lat":63.41083,"lon":10.79424,"geocoding":{},"distantMaxMiles":5},"Høylandet":{"countryName":"Norway","stateName":"Trøndelag","name":"Høylandet","lat":64.62759,"lon":12.30041,"geocoding":{},"distantMaxMiles":5},"Inderøy":{"countryName":"Norway","stateName":"Trøndelag","name":"Inderøy","lat":63.87826,"lon":11.28424,"geocoding":{},"distantMaxMiles":5},"Indre Fosen":{"countryName":"Norway","stateName":"Trøndelag","name":"Indre Fosen","lat":63.58897,"lon":9.95847,"geocoding":{},"distantMaxMiles":5},"Klæbu":{"countryName":"Norway","stateName":"Trøndelag","name":"Klæbu","lat":63.3006,"lon":10.48188,"geocoding":{},"distantMaxMiles":5},"Kolvereid":{"countryName":"Norway","stateName":"Trøndelag","name":"Kolvereid","lat":64.86549,"lon":11.60465,"geocoding":{},"distantMaxMiles":5},"Kyrksæterøra":{"countryName":"Norway","stateName":"Trøndelag","name":"Kyrksæterøra","lat":63.29057,"lon":9.08909,"geocoding":{},"distantMaxMiles":5},"Lauvsnes":{"countryName":"Norway","stateName":"Trøndelag","name":"Lauvsnes","lat":64.50061,"lon":10.89396,"geocoding":{},"distantMaxMiles":5},"Leka":{"countryName":"Norway","stateName":"Trøndelag","name":"Leka","lat":65.09244,"lon":11.70513,"geocoding":{},"distantMaxMiles":5},"Levanger":{"countryName":"Norway","stateName":"Trøndelag","name":"Levanger","lat":63.74585,"lon":11.29991,"geocoding":{},"distantMaxMiles":5},"Lierne":{"countryName":"Norway","stateName":"Trøndelag","name":"Lierne","lat":64.46413,"lon":13.59249,"geocoding":{},"distantMaxMiles":5},"Lundamo":{"countryName":"Norway","stateName":"Trøndelag","name":"Lundamo","lat":63.15216,"lon":10.28555,"geocoding":{},"distantMaxMiles":5},"Malm":{"countryName":"Norway","stateName":"Trøndelag","name":"Malm","lat":64.07534,"lon":11.22398,"geocoding":{},"distantMaxMiles":5},"Malvik":{"countryName":"Norway","stateName":"Trøndelag","name":"Malvik","lat":63.41057,"lon":10.79382,"geocoding":{},"distantMaxMiles":5},"Meldal":{"countryName":"Norway","stateName":"Trøndelag","name":"Meldal","lat":63.04598,"lon":9.71088,"geocoding":{},"distantMaxMiles":5},"Melhus":{"countryName":"Norway","stateName":"Trøndelag","name":"Melhus","lat":63.28755,"lon":10.27686,"geocoding":{},"distantMaxMiles":5},"Meråker":{"countryName":"Norway","stateName":"Trøndelag","name":"Meråker","lat":63.41423,"lon":11.74558,"geocoding":{},"distantMaxMiles":5},"Midtre Gauldal":{"countryName":"Norway","stateName":"Trøndelag","name":"Midtre Gauldal","lat":63.03902,"lon":10.28701,"geocoding":{},"distantMaxMiles":5},"Namdalseid":{"countryName":"Norway","stateName":"Trøndelag","name":"Namdalseid","lat":64.10843,"lon":10.91862,"geocoding":{},"distantMaxMiles":5},"Namsos":{"countryName":"Norway","stateName":"Trøndelag","name":"Namsos","lat":64.47842,"lon":11.54182,"geocoding":{},"distantMaxMiles":5},"Namsskogan":{"countryName":"Norway","stateName":"Trøndelag","name":"Namsskogan","lat":64.92597,"lon":13.15932,"geocoding":{},"distantMaxMiles":5},"Nærøy":{"countryName":"Norway","stateName":"Trøndelag","name":"Nærøy","lat":64.86298,"lon":11.60505,"geocoding":{},"distantMaxMiles":5},"Oppdal":{"countryName":"Norway","stateName":"Trøndelag","name":"Oppdal","lat":62.59495,"lon":9.68761,"geocoding":{},"distantMaxMiles":5},"Orkdal":{"countryName":"Norway","stateName":"Trøndelag","name":"Orkdal","lat":63.29989,"lon":9.84365,"geocoding":{},"distantMaxMiles":5},"Osen":{"countryName":"Norway","stateName":"Trøndelag","name":"Osen","lat":64.29875,"lon":10.51284,"geocoding":{},"distantMaxMiles":5},"Overhalla":{"countryName":"Norway","stateName":"Trøndelag","name":"Overhalla","lat":64.4938,"lon":11.94753,"geocoding":{},"distantMaxMiles":5},"Raarvihke - Røyrvik":{"countryName":"Norway","stateName":"Trøndelag","name":"Raarvihke - Røyrvik","lat":64.8838,"lon":13.5631,"geocoding":{},"distantMaxMiles":5},"Ranemsletta":{"countryName":"Norway","stateName":"Trøndelag","name":"Ranemsletta","lat":64.49447,"lon":11.94912,"geocoding":{},"distantMaxMiles":5},"Rennebu":{"countryName":"Norway","stateName":"Trøndelag","name":"Rennebu","lat":62.82864,"lon":10.00487,"geocoding":{},"distantMaxMiles":5},"Rindal":{"countryName":"Norway","stateName":"Trøndelag","name":"Rindal","lat":63.05511,"lon":9.21274,"geocoding":{},"distantMaxMiles":5},"Roan":{"countryName":"Norway","stateName":"Trøndelag","name":"Roan","lat":64.17281,"lon":10.22511,"geocoding":{},"distantMaxMiles":5},"Røros":{"countryName":"Norway","stateName":"Trøndelag","name":"Røros","lat":62.57562,"lon":11.3873,"geocoding":{},"distantMaxMiles":5},"Rørvik":{"countryName":"Norway","stateName":"Trøndelag","name":"Rørvik","lat":64.86185,"lon":11.23969,"geocoding":{},"distantMaxMiles":5},"Røyrvik":{"countryName":"Norway","stateName":"Trøndelag","name":"Røyrvik","lat":64.88394,"lon":13.56256,"geocoding":{},"distantMaxMiles":5},"Selbu":{"countryName":"Norway","stateName":"Trøndelag","name":"Selbu","lat":63.2177,"lon":11.03938,"geocoding":{},"distantMaxMiles":5},"Sistranda":{"countryName":"Norway","stateName":"Trøndelag","name":"Sistranda","lat":63.72523,"lon":8.83318,"geocoding":{},"distantMaxMiles":5},"Skaun":{"countryName":"Norway","stateName":"Trøndelag","name":"Skaun","lat":63.32386,"lon":10.06745,"geocoding":{},"distantMaxMiles":5},"Skogn":{"countryName":"Norway","stateName":"Trøndelag","name":"Skogn","lat":63.70374,"lon":11.19262,"geocoding":{},"distantMaxMiles":5},"Snillfjord":{"countryName":"Norway","stateName":"Trøndelag","name":"Snillfjord","lat":63.39973,"lon":9.50194,"geocoding":{},"distantMaxMiles":5},"Snåase":{"countryName":"Norway","stateName":"Trøndelag","name":"Snåase","lat":64.2457,"lon":12.37779,"geocoding":{},"distantMaxMiles":5},"Snåase - Snåsa":{"countryName":"Norway","stateName":"Trøndelag","name":"Snåase - Snåsa","lat":64.24606,"lon":12.38294,"geocoding":{},"distantMaxMiles":5},"Steinkjer":{"countryName":"Norway","stateName":"Trøndelag","name":"Steinkjer","lat":64.19303,"lon":11.38505,"geocoding":{},"distantMaxMiles":5},"Stjørdal":{"countryName":"Norway","stateName":"Trøndelag","name":"Stjørdal","lat":63.56699,"lon":11.0273,"geocoding":{},"distantMaxMiles":5},"Stjørdalshalsen":{"countryName":"Norway","stateName":"Trøndelag","name":"Stjørdalshalsen","lat":63.4681,"lon":10.92618,"geocoding":{},"distantMaxMiles":5},"Straumen":{"countryName":"Norway","stateName":"Trøndelag","name":"Straumen","lat":63.87163,"lon":11.29617,"geocoding":{},"distantMaxMiles":5},"Trondheim":{"countryName":"Norway","stateName":"Trøndelag","name":"Trondheim","lat":63.42811,"lon":10.39687,"geocoding":{},"distantMaxMiles":5},"Tydal":{"countryName":"Norway","stateName":"Trøndelag","name":"Tydal","lat":63.04477,"lon":11.65038,"geocoding":{},"distantMaxMiles":5},"Verdal":{"countryName":"Norway","stateName":"Trøndelag","name":"Verdal","lat":63.90023,"lon":11.72724,"geocoding":{},"distantMaxMiles":5},"Verran":{"countryName":"Norway","stateName":"Trøndelag","name":"Verran","lat":64.071,"lon":11.21795,"geocoding":{},"distantMaxMiles":5},"Vikna":{"countryName":"Norway","stateName":"Trøndelag","name":"Vikna","lat":64.86362,"lon":11.24198,"geocoding":{},"distantMaxMiles":5},"Å i Åfjord":{"countryName":"Norway","stateName":"Trøndelag","name":"Å i Åfjord","lat":63.96068,"lon":10.22468,"geocoding":{},"distantMaxMiles":5},"Åfjord":{"countryName":"Norway","stateName":"Trøndelag","name":"Åfjord","lat":63.96196,"lon":10.22587,"geocoding":{},"distantMaxMiles":5},"Ørland":{"countryName":"Norway","stateName":"Trøndelag","name":"Ørland","lat":63.68574,"lon":9.66633,"geocoding":{},"distantMaxMiles":5}}},"Vest-Agder":{"countryName":"Norway","name":"Vest-Agder","isoCode":"10","lat":58.0999081,"lon":6.5869809,"geocoding":{},"distantMaxMiles":5,"cities":{"Audnedal":{"countryName":"Norway","stateName":"Vest-Agder","name":"Audnedal","lat":58.28378,"lon":7.35487,"geocoding":{},"distantMaxMiles":5},"Farsund":{"countryName":"Norway","stateName":"Vest-Agder","name":"Farsund","lat":58.09538,"lon":6.80403,"geocoding":{},"distantMaxMiles":5},"Flekkefjord":{"countryName":"Norway","stateName":"Vest-Agder","name":"Flekkefjord","lat":58.29791,"lon":6.66345,"geocoding":{},"distantMaxMiles":5},"Hægebostad":{"countryName":"Norway","stateName":"Vest-Agder","name":"Hægebostad","lat":58.37572,"lon":7.21973,"geocoding":{},"distantMaxMiles":5},"Justvik":{"countryName":"Norway","stateName":"Vest-Agder","name":"Justvik","lat":58.19691,"lon":8.03107,"geocoding":{},"distantMaxMiles":5},"Kristiansand":{"countryName":"Norway","stateName":"Vest-Agder","name":"Kristiansand","lat":58.14642,"lon":7.99687,"geocoding":{},"distantMaxMiles":5},"Kvinesdal":{"countryName":"Norway","stateName":"Vest-Agder","name":"Kvinesdal","lat":58.23894,"lon":6.71445,"geocoding":{},"distantMaxMiles":5},"Liknes":{"countryName":"Norway","stateName":"Vest-Agder","name":"Liknes","lat":58.31216,"lon":6.9618,"geocoding":{},"distantMaxMiles":5},"Lindesnes":{"countryName":"Norway","stateName":"Vest-Agder","name":"Lindesnes","lat":58.08435,"lon":7.30162,"geocoding":{},"distantMaxMiles":5},"Lyngdal":{"countryName":"Norway","stateName":"Vest-Agder","name":"Lyngdal","lat":58.13829,"lon":7.06836,"geocoding":{},"distantMaxMiles":5},"Mandal":{"countryName":"Norway","stateName":"Vest-Agder","name":"Mandal","lat":58.02633,"lon":7.45014,"geocoding":{},"distantMaxMiles":5},"Marnardal":{"countryName":"Norway","stateName":"Vest-Agder","name":"Marnardal","lat":58.19802,"lon":7.52802,"geocoding":{},"distantMaxMiles":5},"Nodeland":{"countryName":"Norway","stateName":"Vest-Agder","name":"Nodeland","lat":58.15517,"lon":7.83576,"geocoding":{},"distantMaxMiles":5},"Sirdal":{"countryName":"Norway","stateName":"Vest-Agder","name":"Sirdal","lat":58.6651,"lon":6.71585,"geocoding":{},"distantMaxMiles":5},"Skålevik":{"countryName":"Norway","stateName":"Vest-Agder","name":"Skålevik","lat":58.07955,"lon":8.01602,"geocoding":{},"distantMaxMiles":5},"Songdalen":{"countryName":"Norway","stateName":"Vest-Agder","name":"Songdalen","lat":58.15273,"lon":7.83677,"geocoding":{},"distantMaxMiles":5},"Strai":{"countryName":"Norway","stateName":"Vest-Agder","name":"Strai","lat":58.1893,"lon":7.92826,"geocoding":{},"distantMaxMiles":5},"Søgne":{"countryName":"Norway","stateName":"Vest-Agder","name":"Søgne","lat":58.09663,"lon":7.81491,"geocoding":{},"distantMaxMiles":5},"Tonstad":{"countryName":"Norway","stateName":"Vest-Agder","name":"Tonstad","lat":58.66263,"lon":6.71694,"geocoding":{},"distantMaxMiles":5},"Tveit":{"countryName":"Norway","stateName":"Vest-Agder","name":"Tveit","lat":58.23366,"lon":8.12199,"geocoding":{},"distantMaxMiles":5},"Vanse":{"countryName":"Norway","stateName":"Vest-Agder","name":"Vanse","lat":58.09812,"lon":6.69184,"geocoding":{},"distantMaxMiles":5},"Vennesla":{"countryName":"Norway","stateName":"Vest-Agder","name":"Vennesla","lat":58.34271,"lon":7.97596,"geocoding":{},"distantMaxMiles":5},"Vestbygd":{"countryName":"Norway","stateName":"Vest-Agder","name":"Vestbygd","lat":58.09991,"lon":6.58696,"geocoding":{},"distantMaxMiles":5},"Vigeland":{"countryName":"Norway","stateName":"Vest-Agder","name":"Vigeland","lat":58.08437,"lon":7.30497,"geocoding":{},"distantMaxMiles":5},"Åseral":{"countryName":"Norway","stateName":"Vest-Agder","name":"Åseral","lat":58.6173,"lon":7.41118,"geocoding":{},"distantMaxMiles":5}}},"Vestfold":{"countryName":"Norway","name":"Vestfold","isoCode":"07","lat":59.1707862,"lon":10.1144355,"geocoding":{},"distantMaxMiles":5,"cities":{"Barkåker":{"countryName":"Norway","stateName":"Vestfold","name":"Barkåker","lat":59.31859,"lon":10.38963,"geocoding":{},"distantMaxMiles":5},"Berger":{"countryName":"Norway","stateName":"Vestfold","name":"Berger","lat":59.54994,"lon":10.38641,"geocoding":{},"distantMaxMiles":5},"Færder":{"countryName":"Norway","stateName":"Vestfold","name":"Færder","lat":59.22791,"lon":10.4153,"geocoding":{},"distantMaxMiles":5},"Gullhaug":{"countryName":"Norway","stateName":"Vestfold","name":"Gullhaug","lat":59.5013,"lon":10.25224,"geocoding":{},"distantMaxMiles":5},"Holmestrand":{"countryName":"Norway","stateName":"Vestfold","name":"Holmestrand","lat":59.48976,"lon":10.31515,"geocoding":{},"distantMaxMiles":5},"Horten":{"countryName":"Norway","stateName":"Vestfold","name":"Horten","lat":59.41547,"lon":10.48527,"geocoding":{},"distantMaxMiles":5},"Larvik":{"countryName":"Norway","stateName":"Vestfold","name":"Larvik","lat":59.05234,"lon":10.02701,"geocoding":{},"distantMaxMiles":5},"Melsomvik":{"countryName":"Norway","stateName":"Vestfold","name":"Melsomvik","lat":59.22394,"lon":10.33616,"geocoding":{},"distantMaxMiles":5},"Re":{"countryName":"Norway","stateName":"Vestfold","name":"Re","lat":59.35056,"lon":10.24763,"geocoding":{},"distantMaxMiles":5},"Sande":{"countryName":"Norway","stateName":"Vestfold","name":"Sande","lat":59.59362,"lon":10.20757,"geocoding":{},"distantMaxMiles":5},"Sandefjord":{"countryName":"Norway","stateName":"Vestfold","name":"Sandefjord","lat":59.12881,"lon":10.21971,"geocoding":{},"distantMaxMiles":5},"Selvik":{"countryName":"Norway","stateName":"Vestfold","name":"Selvik","lat":59.56645,"lon":10.26004,"geocoding":{},"distantMaxMiles":5},"Sem":{"countryName":"Norway","stateName":"Vestfold","name":"Sem","lat":59.2823,"lon":10.33004,"geocoding":{},"distantMaxMiles":5},"Skoppum":{"countryName":"Norway","stateName":"Vestfold","name":"Skoppum","lat":59.38613,"lon":10.41077,"geocoding":{},"distantMaxMiles":5},"Stavern":{"countryName":"Norway","stateName":"Vestfold","name":"Stavern","lat":59,"lon":10.03333,"geocoding":{},"distantMaxMiles":5},"Stokke":{"countryName":"Norway","stateName":"Vestfold","name":"Stokke","lat":59.22255,"lon":10.30055,"geocoding":{},"distantMaxMiles":5},"Svelvik":{"countryName":"Norway","stateName":"Vestfold","name":"Svelvik","lat":59.60677,"lon":10.40225,"geocoding":{},"distantMaxMiles":5},"Tjøme":{"countryName":"Norway","stateName":"Vestfold","name":"Tjøme","lat":59.1109,"lon":10.3933,"geocoding":{},"distantMaxMiles":5},"Tønsberg":{"countryName":"Norway","stateName":"Vestfold","name":"Tønsberg","lat":59.26754,"lon":10.40762,"geocoding":{},"distantMaxMiles":5},"Årøysund":{"countryName":"Norway","stateName":"Vestfold","name":"Årøysund","lat":59.18321,"lon":10.45743,"geocoding":{},"distantMaxMiles":5},"Åsgårdstrand":{"countryName":"Norway","stateName":"Vestfold","name":"Åsgårdstrand","lat":59.34938,"lon":10.46948,"geocoding":{},"distantMaxMiles":5}}},"Østfold":{"countryName":"Norway","name":"Østfold","isoCode":"01","lat":59.2558286,"lon":11.3279006,"geocoding":{},"distantMaxMiles":5,"cities":{"Aremark":{"countryName":"Norway","stateName":"Østfold","name":"Aremark","lat":59.22198,"lon":11.69582,"geocoding":{},"distantMaxMiles":5},"Askim":{"countryName":"Norway","stateName":"Østfold","name":"Askim","lat":59.58464,"lon":11.16084,"geocoding":{},"distantMaxMiles":5},"Eidsberg":{"countryName":"Norway","stateName":"Østfold","name":"Eidsberg","lat":59.55148,"lon":11.33587,"geocoding":{},"distantMaxMiles":5},"Fossby":{"countryName":"Norway","stateName":"Østfold","name":"Fossby","lat":59.22218,"lon":11.69928,"geocoding":{},"distantMaxMiles":5},"Fredrikstad":{"countryName":"Norway","stateName":"Østfold","name":"Fredrikstad","lat":59.21759,"lon":10.93787,"geocoding":{},"distantMaxMiles":5},"Halden":{"countryName":"Norway","stateName":"Østfold","name":"Halden","lat":59.12258,"lon":11.38709,"geocoding":{},"distantMaxMiles":5},"Hobøl":{"countryName":"Norway","stateName":"Østfold","name":"Hobøl","lat":59.62252,"lon":10.94979,"geocoding":{},"distantMaxMiles":5},"Hvaler":{"countryName":"Norway","stateName":"Østfold","name":"Hvaler","lat":59.02809,"lon":11.0311,"geocoding":{},"distantMaxMiles":5},"Karlshus":{"countryName":"Norway","stateName":"Østfold","name":"Karlshus","lat":59.35195,"lon":10.87226,"geocoding":{},"distantMaxMiles":5},"Knappstad":{"countryName":"Norway","stateName":"Østfold","name":"Knappstad","lat":59.62424,"lon":11.03274,"geocoding":{},"distantMaxMiles":5},"Larkollen":{"countryName":"Norway","stateName":"Østfold","name":"Larkollen","lat":59.33196,"lon":10.66687,"geocoding":{},"distantMaxMiles":5},"Lervik":{"countryName":"Norway","stateName":"Østfold","name":"Lervik","lat":59.27119,"lon":10.7461,"geocoding":{},"distantMaxMiles":5},"Marker":{"countryName":"Norway","stateName":"Østfold","name":"Marker","lat":59.47952,"lon":11.65917,"geocoding":{},"distantMaxMiles":5},"Moss":{"countryName":"Norway","stateName":"Østfold","name":"Moss","lat":59.43436,"lon":10.65968,"geocoding":{},"distantMaxMiles":5},"Mysen":{"countryName":"Norway","stateName":"Østfold","name":"Mysen","lat":59.55354,"lon":11.32578,"geocoding":{},"distantMaxMiles":5},"Rakkestad":{"countryName":"Norway","stateName":"Østfold","name":"Rakkestad","lat":59.42822,"lon":11.3435,"geocoding":{},"distantMaxMiles":5},"Rygge":{"countryName":"Norway","stateName":"Østfold","name":"Rygge","lat":59.40629,"lon":10.69298,"geocoding":{},"distantMaxMiles":5},"Ryggebyen":{"countryName":"Norway","stateName":"Østfold","name":"Ryggebyen","lat":59.375,"lon":10.75,"geocoding":{},"distantMaxMiles":5},"Råde":{"countryName":"Norway","stateName":"Østfold","name":"Råde","lat":59.35162,"lon":10.87135,"geocoding":{},"distantMaxMiles":5},"Rømskog":{"countryName":"Norway","stateName":"Østfold","name":"Rømskog","lat":59.74968,"lon":11.81122,"geocoding":{},"distantMaxMiles":5},"Sarpsborg":{"countryName":"Norway","stateName":"Østfold","name":"Sarpsborg","lat":59.28148,"lon":11.11167,"geocoding":{},"distantMaxMiles":5},"Skiptvet":{"countryName":"Norway","stateName":"Østfold","name":"Skiptvet","lat":59.47751,"lon":11.16171,"geocoding":{},"distantMaxMiles":5},"Skjeberg":{"countryName":"Norway","stateName":"Østfold","name":"Skjeberg","lat":59.21148,"lon":11.19025,"geocoding":{},"distantMaxMiles":5},"Skjærhalden":{"countryName":"Norway","stateName":"Østfold","name":"Skjærhalden","lat":59.02526,"lon":11.03685,"geocoding":{},"distantMaxMiles":5},"Spydeberg":{"countryName":"Norway","stateName":"Østfold","name":"Spydeberg","lat":59.62028,"lon":11.08069,"geocoding":{},"distantMaxMiles":5},"Tomter":{"countryName":"Norway","stateName":"Østfold","name":"Tomter","lat":59.6591,"lon":10.99487,"geocoding":{},"distantMaxMiles":5},"Trøgstad":{"countryName":"Norway","stateName":"Østfold","name":"Trøgstad","lat":59.64016,"lon":11.3189,"geocoding":{},"distantMaxMiles":5},"Våler":{"countryName":"Norway","stateName":"Østfold","name":"Våler","lat":59.4887,"lon":10.86551,"geocoding":{},"distantMaxMiles":5},"Ørje":{"countryName":"Norway","stateName":"Østfold","name":"Ørje","lat":59.48023,"lon":11.66016,"geocoding":{},"distantMaxMiles":5}}}}}