{"name":"South Sudan","isoCode":"SS","lat":7,"lon":30,"geocoding":{},"distantMaxMiles":5,"states":{"Central Equatoria":{"countryName":"South Sudan","name":"Central Equatoria","isoCode":"EC","lat":4.6144063,"lon":31.2626366,"geocoding":{},"distantMaxMiles":5,"cities":{}},"Eastern Equatoria":{"countryName":"South Sudan","name":"Eastern Equatoria","isoCode":"EE","lat":5.0692995,"lon":33.438353,"geocoding":{},"distantMaxMiles":5,"cities":{}},"Jonglei State":{"countryName":"South Sudan","name":"Jonglei State","isoCode":"JG","lat":7.1819619,"lon":32.3560952,"geocoding":{},"distantMaxMiles":5,"cities":{}},"Lakes":{"countryName":"South Sudan","name":"Lakes","isoCode":"LK","lat":37.1628255,"lon":-95.6911623,"geocoding":{},"distantMaxMiles":5,"cities":{"Yirol":{"countryName":"South Sudan","stateName":"Lakes","name":"Yirol","lat":6.5525,"lon":30.49806,"geocoding":{},"distantMaxMiles":5}}},"Northern Bahr el Ghazal":{"countryName":"South Sudan","name":"Northern Bahr el Ghazal","isoCode":"BN","lat":8.5360449,"lon":26.7967849,"geocoding":{},"distantMaxMiles":5,"cities":{}},"Unity":{"countryName":"South Sudan","name":"Unity","isoCode":"UY","lat":37.7871276,"lon":-122.4034079,"geocoding":{},"distantMaxMiles":5,"cities":{}},"Upper Nile":{"countryName":"South Sudan","name":"Upper Nile","isoCode":"NU","lat":9.8894202,"lon":32.7181375,"geocoding":{},"distantMaxMiles":5,"cities":{}},"Warrap":{"countryName":"South Sudan","name":"Warrap","isoCode":"WR","lat":8.0886238,"lon":28.6410641,"geocoding":{},"distantMaxMiles":5,"cities":{}},"Western Bahr el Ghazal":{"countryName":"South Sudan","name":"Western Bahr el Ghazal","isoCode":"BW","lat":8.6452399,"lon":25.2837585,"geocoding":{},"distantMaxMiles":5,"cities":{}},"Western Equatoria":{"countryName":"South Sudan","name":"Western Equatoria","isoCode":"EW","lat":5.3471799,"lon":28.299435,"geocoding":{},"distantMaxMiles":5,"cities":{}}}}