{"name":"Jordan","isoCode":"JO","lat":31,"lon":36,"geocoding":{},"distantMaxMiles":5,"states":{"Ajloun Governorate":{"countryName":"Jordan","name":"Ajloun Governorate","isoCode":"AJ","lat":32.3325584,"lon":35.7516844,"geocoding":{},"distantMaxMiles":5,"cities":{"Şakhrah":{"countryName":"Jordan","stateName":"Ajloun Governorate","name":"Şakhrah","lat":32.37087,"lon":35.84267,"geocoding":{},"distantMaxMiles":5},"Ḩalāwah":{"countryName":"Jordan","stateName":"Ajloun Governorate","name":"Ḩalāwah","lat":32.38433,"lon":35.66167,"geocoding":{},"distantMaxMiles":5},"‘Ajlūn":{"countryName":"Jordan","stateName":"Ajloun Governorate","name":"‘Ajlūn","lat":32.33326,"lon":35.75279,"geocoding":{},"distantMaxMiles":5},"‘Anjarah":{"countryName":"Jordan","stateName":"Ajloun Governorate","name":"‘Anjarah","lat":32.3063,"lon":35.75653,"geocoding":{},"distantMaxMiles":5},"‘Ayn Jannah":{"countryName":"Jordan","stateName":"Ajloun Governorate","name":"‘Ayn Jannah","lat":32.33466,"lon":35.7637,"geocoding":{},"distantMaxMiles":5}}},"Amman Governorate":{"countryName":"Jordan","name":"Amman Governorate","isoCode":"AM","lat":31.9453633,"lon":35.9283895,"geocoding":{},"distantMaxMiles":5,"cities":{"Al Jubayhah":{"countryName":"Jordan","stateName":"Amman Governorate","name":"Al Jubayhah","lat":32.01071,"lon":35.89802,"geocoding":{},"distantMaxMiles":5},"Al Jīzah":{"countryName":"Jordan","stateName":"Amman Governorate","name":"Al Jīzah","lat":31.69893,"lon":35.9553,"geocoding":{},"distantMaxMiles":5},"Amman":{"countryName":"Jordan","stateName":"Amman Governorate","name":"Amman","lat":31.95522,"lon":35.94503,"geocoding":{},"distantMaxMiles":5},"Jāwā":{"countryName":"Jordan","stateName":"Amman Governorate","name":"Jāwā","lat":31.85247,"lon":35.93928,"geocoding":{},"distantMaxMiles":5},"Saḩāb":{"countryName":"Jordan","stateName":"Amman Governorate","name":"Saḩāb","lat":31.87032,"lon":36.00479,"geocoding":{},"distantMaxMiles":5},"Umm as Summāq":{"countryName":"Jordan","stateName":"Amman Governorate","name":"Umm as Summāq","lat":31.88542,"lon":35.8543,"geocoding":{},"distantMaxMiles":5},"Wādī as Sīr":{"countryName":"Jordan","stateName":"Amman Governorate","name":"Wādī as Sīr","lat":31.9545,"lon":35.81831,"geocoding":{},"distantMaxMiles":5},"Ḩayy al Bunayyāt":{"countryName":"Jordan","stateName":"Amman Governorate","name":"Ḩayy al Bunayyāt","lat":31.89603,"lon":35.88465,"geocoding":{},"distantMaxMiles":5},"Ḩayy al Quwaysimah":{"countryName":"Jordan","stateName":"Amman Governorate","name":"Ḩayy al Quwaysimah","lat":31.91037,"lon":35.94975,"geocoding":{},"distantMaxMiles":5}}},"Aqaba Governorate":{"countryName":"Jordan","name":"Aqaba Governorate","isoCode":"AQ","lat":29.532086,"lon":35.0062821,"geocoding":{},"distantMaxMiles":5,"cities":{"Aqaba":{"countryName":"Jordan","stateName":"Aqaba Governorate","name":"Aqaba","lat":29.52667,"lon":35.00778,"geocoding":{},"distantMaxMiles":5},"Tala Bay":{"countryName":"Jordan","stateName":"Aqaba Governorate","name":"Tala Bay","lat":29.40842,"lon":34.97918,"geocoding":{},"distantMaxMiles":5}}},"Balqa Governorate":{"countryName":"Jordan","name":"Balqa Governorate","isoCode":"BA","lat":32.0366806,"lon":35.728848,"geocoding":{},"distantMaxMiles":5,"cities":{"Al Karāmah":{"countryName":"Jordan","stateName":"Balqa Governorate","name":"Al Karāmah","lat":31.95439,"lon":35.58033,"geocoding":{},"distantMaxMiles":5},"As Salţ":{"countryName":"Jordan","stateName":"Balqa Governorate","name":"As Salţ","lat":32.03917,"lon":35.72722,"geocoding":{},"distantMaxMiles":5},"Yarqā":{"countryName":"Jordan","stateName":"Balqa Governorate","name":"Yarqā","lat":31.97583,"lon":35.69638,"geocoding":{},"distantMaxMiles":5}}},"Irbid Governorate":{"countryName":"Jordan","name":"Irbid Governorate","isoCode":"IR","lat":32.5569636,"lon":35.8478965,"geocoding":{},"distantMaxMiles":5,"cities":{"Ar Ramthā":{"countryName":"Jordan","stateName":"Irbid Governorate","name":"Ar Ramthā","lat":32.55873,"lon":36.00816,"geocoding":{},"distantMaxMiles":5},"Ash Shajarah":{"countryName":"Jordan","stateName":"Irbid Governorate","name":"Ash Shajarah","lat":32.64391,"lon":35.94175,"geocoding":{},"distantMaxMiles":5},"Aydūn":{"countryName":"Jordan","stateName":"Irbid Governorate","name":"Aydūn","lat":32.50528,"lon":35.85809,"geocoding":{},"distantMaxMiles":5},"Aţ Ţayyibah":{"countryName":"Jordan","stateName":"Irbid Governorate","name":"Aţ Ţayyibah","lat":32.54304,"lon":35.71756,"geocoding":{},"distantMaxMiles":5},"Aţ Ţurrah":{"countryName":"Jordan","stateName":"Irbid Governorate","name":"Aţ Ţurrah","lat":32.63979,"lon":35.98943,"geocoding":{},"distantMaxMiles":5},"Bayt Yāfā":{"countryName":"Jordan","stateName":"Irbid Governorate","name":"Bayt Yāfā","lat":32.52253,"lon":35.78618,"geocoding":{},"distantMaxMiles":5},"Bayt Īdis":{"countryName":"Jordan","stateName":"Irbid Governorate","name":"Bayt Īdis","lat":32.43775,"lon":35.69765,"geocoding":{},"distantMaxMiles":5},"Dayr Yūsuf":{"countryName":"Jordan","stateName":"Irbid Governorate","name":"Dayr Yūsuf","lat":32.48701,"lon":35.79635,"geocoding":{},"distantMaxMiles":5},"Irbid":{"countryName":"Jordan","stateName":"Irbid Governorate","name":"Irbid","lat":32.55556,"lon":35.85,"geocoding":{},"distantMaxMiles":5},"Judita":{"countryName":"Jordan","stateName":"Irbid Governorate","name":"Judita","lat":32.40792,"lon":35.70802,"geocoding":{},"distantMaxMiles":5},"Kafr Abīl":{"countryName":"Jordan","stateName":"Irbid Governorate","name":"Kafr Abīl","lat":32.41752,"lon":35.66305,"geocoding":{},"distantMaxMiles":5},"Kafr Asad":{"countryName":"Jordan","stateName":"Irbid Governorate","name":"Kafr Asad","lat":32.598,"lon":35.71266,"geocoding":{},"distantMaxMiles":5},"Kafr Sawm":{"countryName":"Jordan","stateName":"Irbid Governorate","name":"Kafr Sawm","lat":32.68527,"lon":35.80102,"geocoding":{},"distantMaxMiles":5},"Kharjā":{"countryName":"Jordan","stateName":"Irbid Governorate","name":"Kharjā","lat":32.65988,"lon":35.88782,"geocoding":{},"distantMaxMiles":5},"Kitim":{"countryName":"Jordan","stateName":"Irbid Governorate","name":"Kitim","lat":32.43834,"lon":35.89677,"geocoding":{},"distantMaxMiles":5},"Kurayyimah":{"countryName":"Jordan","stateName":"Irbid Governorate","name":"Kurayyimah","lat":32.27639,"lon":35.59938,"geocoding":{},"distantMaxMiles":5},"Malkā":{"countryName":"Jordan","stateName":"Irbid Governorate","name":"Malkā","lat":32.67645,"lon":35.74851,"geocoding":{},"distantMaxMiles":5},"Qumaym":{"countryName":"Jordan","stateName":"Irbid Governorate","name":"Qumaym","lat":32.57174,"lon":35.73452,"geocoding":{},"distantMaxMiles":5},"Saḩam al Kaffārāt":{"countryName":"Jordan","stateName":"Irbid Governorate","name":"Saḩam al Kaffārāt","lat":32.69848,"lon":35.77438,"geocoding":{},"distantMaxMiles":5},"Sāl":{"countryName":"Jordan","stateName":"Irbid Governorate","name":"Sāl","lat":32.56897,"lon":35.91185,"geocoding":{},"distantMaxMiles":5},"Tibnah":{"countryName":"Jordan","stateName":"Irbid Governorate","name":"Tibnah","lat":32.47521,"lon":35.73056,"geocoding":{},"distantMaxMiles":5},"Umm Qays":{"countryName":"Jordan","stateName":"Irbid Governorate","name":"Umm Qays","lat":32.65348,"lon":35.68457,"geocoding":{},"distantMaxMiles":5},"Waqqāş":{"countryName":"Jordan","stateName":"Irbid Governorate","name":"Waqqāş","lat":32.54214,"lon":35.60508,"geocoding":{},"distantMaxMiles":5},"Zaḩar":{"countryName":"Jordan","stateName":"Irbid Governorate","name":"Zaḩar","lat":32.5667,"lon":35.77811,"geocoding":{},"distantMaxMiles":5},"Şammā":{"countryName":"Jordan","stateName":"Irbid Governorate","name":"Şammā","lat":32.57102,"lon":35.68984,"geocoding":{},"distantMaxMiles":5},"Ḩakamā":{"countryName":"Jordan","stateName":"Irbid Governorate","name":"Ḩakamā","lat":32.59354,"lon":35.8832,"geocoding":{},"distantMaxMiles":5},"Ḩātim":{"countryName":"Jordan","stateName":"Irbid Governorate","name":"Ḩātim","lat":32.64492,"lon":35.77771,"geocoding":{},"distantMaxMiles":5}}},"Jerash Governorate":{"countryName":"Jordan","name":"Jerash Governorate","isoCode":"JA","lat":32.2747237,"lon":35.8960954,"geocoding":{},"distantMaxMiles":5,"cities":{"Al Kittah":{"countryName":"Jordan","stateName":"Jerash Governorate","name":"Al Kittah","lat":32.27685,"lon":35.84114,"geocoding":{},"distantMaxMiles":5},"Balīlā":{"countryName":"Jordan","stateName":"Jerash Governorate","name":"Balīlā","lat":32.39109,"lon":35.93832,"geocoding":{},"distantMaxMiles":5},"Burmā":{"countryName":"Jordan","stateName":"Jerash Governorate","name":"Burmā","lat":32.2193,"lon":35.78507,"geocoding":{},"distantMaxMiles":5},"Jarash":{"countryName":"Jordan","stateName":"Jerash Governorate","name":"Jarash","lat":32.28082,"lon":35.89929,"geocoding":{},"distantMaxMiles":5},"Qafqafā":{"countryName":"Jordan","stateName":"Jerash Governorate","name":"Qafqafā","lat":32.34851,"lon":35.93864,"geocoding":{},"distantMaxMiles":5},"Raymūn":{"countryName":"Jordan","stateName":"Jerash Governorate","name":"Raymūn","lat":32.28202,"lon":35.82779,"geocoding":{},"distantMaxMiles":5},"Sakib":{"countryName":"Jordan","stateName":"Jerash Governorate","name":"Sakib","lat":32.28431,"lon":35.80909,"geocoding":{},"distantMaxMiles":5},"Sūf":{"countryName":"Jordan","stateName":"Jerash Governorate","name":"Sūf","lat":32.31372,"lon":35.83713,"geocoding":{},"distantMaxMiles":5}}},"Karak Governorate":{"countryName":"Jordan","name":"Karak Governorate","isoCode":"KA","lat":31.1853527,"lon":35.7047682,"geocoding":{},"distantMaxMiles":5,"cities":{"Adir":{"countryName":"Jordan","stateName":"Karak Governorate","name":"Adir","lat":31.20217,"lon":35.76155,"geocoding":{},"distantMaxMiles":5},"Al Khinzīrah":{"countryName":"Jordan","stateName":"Karak Governorate","name":"Al Khinzīrah","lat":31.05056,"lon":35.60606,"geocoding":{},"distantMaxMiles":5},"Al Mazār al Janūbī":{"countryName":"Jordan","stateName":"Karak Governorate","name":"Al Mazār al Janūbī","lat":31.06722,"lon":35.69486,"geocoding":{},"distantMaxMiles":5},"Al Qaşr":{"countryName":"Jordan","stateName":"Karak Governorate","name":"Al Qaşr","lat":31.31407,"lon":35.74393,"geocoding":{},"distantMaxMiles":5},"Ar Rabbah":{"countryName":"Jordan","stateName":"Karak Governorate","name":"Ar Rabbah","lat":31.26923,"lon":35.73829,"geocoding":{},"distantMaxMiles":5},"Karak City":{"countryName":"Jordan","stateName":"Karak Governorate","name":"Karak City","lat":31.16368,"lon":35.76204,"geocoding":{},"distantMaxMiles":5},"Safi":{"countryName":"Jordan","stateName":"Karak Governorate","name":"Safi","lat":31.03608,"lon":35.46544,"geocoding":{},"distantMaxMiles":5},"‘Ayy":{"countryName":"Jordan","stateName":"Karak Governorate","name":"‘Ayy","lat":31.13371,"lon":35.64375,"geocoding":{},"distantMaxMiles":5},"‘Izrā":{"countryName":"Jordan","stateName":"Karak Governorate","name":"‘Izrā","lat":31.15889,"lon":35.69278,"geocoding":{},"distantMaxMiles":5}}},"Ma'an Governorate":{"countryName":"Jordan","name":"Ma'an Governorate","isoCode":"MN","lat":30.1926789,"lon":35.7249319,"geocoding":{},"distantMaxMiles":5,"cities":{"Al Jafr":{"countryName":"Jordan","stateName":"Ma'an Governorate","name":"Al Jafr","lat":30.3184,"lon":36.17775,"geocoding":{},"distantMaxMiles":5},"Al Quwayrah":{"countryName":"Jordan","stateName":"Ma'an Governorate","name":"Al Quwayrah","lat":29.80045,"lon":35.3116,"geocoding":{},"distantMaxMiles":5},"Ash Shawbak":{"countryName":"Jordan","stateName":"Ma'an Governorate","name":"Ash Shawbak","lat":30.52134,"lon":35.57135,"geocoding":{},"distantMaxMiles":5},"Aţ Ţayyibah":{"countryName":"Jordan","stateName":"Ma'an Governorate","name":"Aţ Ţayyibah","lat":30.25125,"lon":35.4657,"geocoding":{},"distantMaxMiles":5},"Ma'an":{"countryName":"Jordan","stateName":"Ma'an Governorate","name":"Ma'an","lat":30.19624,"lon":35.73405,"geocoding":{},"distantMaxMiles":5},"Petra":{"countryName":"Jordan","stateName":"Ma'an Governorate","name":"Petra","lat":30.32096,"lon":35.47895,"geocoding":{},"distantMaxMiles":5},"Qīr Moāv":{"countryName":"Jordan","stateName":"Ma'an Governorate","name":"Qīr Moāv","lat":31.18248,"lon":35.69999,"geocoding":{},"distantMaxMiles":5}}},"Madaba Governorate":{"countryName":"Jordan","name":"Madaba Governorate","isoCode":"MD","lat":31.7196097,"lon":35.7932754,"geocoding":{},"distantMaxMiles":5,"cities":{"Mādabā":{"countryName":"Jordan","stateName":"Madaba Governorate","name":"Mādabā","lat":31.71599,"lon":35.79392,"geocoding":{},"distantMaxMiles":5}}},"Mafraq Governorate":{"countryName":"Jordan","name":"Mafraq Governorate","isoCode":"MA","lat":32.3416923,"lon":36.2020175,"geocoding":{},"distantMaxMiles":5,"cities":{"Al Ḩamrā’":{"countryName":"Jordan","stateName":"Mafraq Governorate","name":"Al Ḩamrā’","lat":32.44017,"lon":36.15265,"geocoding":{},"distantMaxMiles":5},"Mafraq":{"countryName":"Jordan","stateName":"Mafraq Governorate","name":"Mafraq","lat":32.34289,"lon":36.20804,"geocoding":{},"distantMaxMiles":5},"Rehab":{"countryName":"Jordan","stateName":"Mafraq Governorate","name":"Rehab","lat":32.32341,"lon":36.09087,"geocoding":{},"distantMaxMiles":5},"Rukban":{"countryName":"Jordan","stateName":"Mafraq Governorate","name":"Rukban","lat":33.31405,"lon":38.70342,"geocoding":{},"distantMaxMiles":5},"Umm al Qiţţayn":{"countryName":"Jordan","stateName":"Mafraq Governorate","name":"Umm al Qiţţayn","lat":32.31449,"lon":36.62826,"geocoding":{},"distantMaxMiles":5},"Şabḩā":{"countryName":"Jordan","stateName":"Mafraq Governorate","name":"Şabḩā","lat":32.32696,"lon":36.50159,"geocoding":{},"distantMaxMiles":5}}},"Tafilah Governorate":{"countryName":"Jordan","name":"Tafilah Governorate","isoCode":"AT","lat":30.8338063,"lon":35.6160513,"geocoding":{},"distantMaxMiles":5,"cities":{"Aţ Ţafīlah":{"countryName":"Jordan","stateName":"Tafilah Governorate","name":"Aţ Ţafīlah","lat":30.83752,"lon":35.60442,"geocoding":{},"distantMaxMiles":5},"Buşayrā":{"countryName":"Jordan","stateName":"Tafilah Governorate","name":"Buşayrā","lat":30.73256,"lon":35.60943,"geocoding":{},"distantMaxMiles":5}}},"Zarqa Governorate":{"countryName":"Jordan","name":"Zarqa Governorate","isoCode":"AZ","lat":32.0608505,"lon":36.0942121,"geocoding":{},"distantMaxMiles":5,"cities":{"Al Azraq ash Shamālī":{"countryName":"Jordan","stateName":"Zarqa Governorate","name":"Al Azraq ash Shamālī","lat":31.88209,"lon":36.83017,"geocoding":{},"distantMaxMiles":5},"Russeifa":{"countryName":"Jordan","stateName":"Zarqa Governorate","name":"Russeifa","lat":32.01778,"lon":36.04639,"geocoding":{},"distantMaxMiles":5},"Zarqa":{"countryName":"Jordan","stateName":"Zarqa Governorate","name":"Zarqa","lat":32.07275,"lon":36.08796,"geocoding":{},"distantMaxMiles":5}}}}}