{"name":"Madagascar","isoCode":"MG","lat":-20,"lon":47,"geocoding":{},"distantMaxMiles":5,"states":{"Antananarivo Province":{"countryName":"Madagascar","name":"Antananarivo Province","isoCode":"T","lat":-18.7051474,"lon":46.8252838,"geocoding":{},"distantMaxMiles":5,"cities":{}},"Antsiranana Province":{"countryName":"Madagascar","name":"Antsiranana Province","isoCode":"D","lat":-13.771539,"lon":49.5279996,"geocoding":{},"distantMaxMiles":5,"cities":{"Ampasimanolotra":{"countryName":"Madagascar","stateName":"Antsiranana Province","name":"Ampasimanolotra","lat":-18.81667,"lon":49.06667,"geocoding":{},"distantMaxMiles":5},"Andovoranto":{"countryName":"Madagascar","stateName":"Antsiranana Province","name":"Andovoranto","lat":-18.95443,"lon":49.1094,"geocoding":{},"distantMaxMiles":5},"Mahanoro":{"countryName":"Madagascar","stateName":"Antsiranana Province","name":"Mahanoro","lat":-19.9,"lon":48.8,"geocoding":{},"distantMaxMiles":5},"Mahavelona":{"countryName":"Madagascar","stateName":"Antsiranana Province","name":"Mahavelona","lat":-17.68475,"lon":49.50869,"geocoding":{},"distantMaxMiles":5},"Marolambo":{"countryName":"Madagascar","stateName":"Antsiranana Province","name":"Marolambo","lat":-20.05,"lon":48.11667,"geocoding":{},"distantMaxMiles":5},"Toamasina":{"countryName":"Madagascar","stateName":"Antsiranana Province","name":"Toamasina","lat":-18.1492,"lon":49.40234,"geocoding":{},"distantMaxMiles":5},"Toamasina I":{"countryName":"Madagascar","stateName":"Antsiranana Province","name":"Toamasina I","lat":-18.13863,"lon":49.39203,"geocoding":{},"distantMaxMiles":5},"Toamasina II":{"countryName":"Madagascar","stateName":"Antsiranana Province","name":"Toamasina II","lat":-17.94053,"lon":49.14608,"geocoding":{},"distantMaxMiles":5},"Vohibinany":{"countryName":"Madagascar","stateName":"Antsiranana Province","name":"Vohibinany","lat":-17.35,"lon":49.03333,"geocoding":{},"distantMaxMiles":5}}},"Fianarantsoa Province":{"countryName":"Madagascar","name":"Fianarantsoa Province","isoCode":"F","lat":-22.353624,"lon":46.8252838,"geocoding":{},"distantMaxMiles":5,"cities":{}},"Mahajanga Province":{"countryName":"Madagascar","name":"Mahajanga Province","isoCode":"M","lat":-16.523883,"lon":46.516262,"geocoding":{},"distantMaxMiles":5,"cities":{}},"Toamasina Province":{"countryName":"Madagascar","name":"Toamasina Province","isoCode":"A","lat":-18.1442811,"lon":49.3957836,"geocoding":{},"distantMaxMiles":5,"cities":{}},"Toliara Province":{"countryName":"Madagascar","name":"Toliara Province","isoCode":"U","lat":-23.3516191,"lon":43.6854936,"geocoding":{},"distantMaxMiles":5,"cities":{}}}}