{"name":"Egypt","isoCode":"EG","lat":27,"lon":30,"geocoding":{},"distantMaxMiles":5,"states":{"Alexandria":{"countryName":"Egypt","name":"Alexandria","isoCode":"ALX","lat":30.8760568,"lon":29.742604,"geocoding":{},"distantMaxMiles":5,"cities":{"Alexandria":{"countryName":"Egypt","stateName":"Alexandria","name":"Alexandria","lat":31.20176,"lon":29.91582,"geocoding":{},"distantMaxMiles":5}}},"Aswan":{"countryName":"Egypt","name":"Aswan","isoCode":"ASN","lat":23.6966498,"lon":32.7181375,"geocoding":{},"distantMaxMiles":5,"cities":{"Abu Simbel":{"countryName":"Egypt","stateName":"Aswan","name":"Abu Simbel","lat":22.3457,"lon":31.61624,"geocoding":{},"distantMaxMiles":5},"Aswan":{"countryName":"Egypt","stateName":"Aswan","name":"Aswan","lat":24.09082,"lon":32.89942,"geocoding":{},"distantMaxMiles":5},"Idfū":{"countryName":"Egypt","stateName":"Aswan","name":"Idfū","lat":24.97916,"lon":32.87722,"geocoding":{},"distantMaxMiles":5},"Kawm Umbū":{"countryName":"Egypt","stateName":"Aswan","name":"Kawm Umbū","lat":24.47669,"lon":32.94626,"geocoding":{},"distantMaxMiles":5}}},"Asyut":{"countryName":"Egypt","name":"Asyut","isoCode":"AST","lat":27.2133831,"lon":31.4456179,"geocoding":{},"distantMaxMiles":5,"cities":{"Abnūb":{"countryName":"Egypt","stateName":"Asyut","name":"Abnūb","lat":27.2696,"lon":31.15105,"geocoding":{},"distantMaxMiles":5},"Abū Tīj":{"countryName":"Egypt","stateName":"Asyut","name":"Abū Tīj","lat":27.04411,"lon":31.31897,"geocoding":{},"distantMaxMiles":5},"Al Badārī":{"countryName":"Egypt","stateName":"Asyut","name":"Al Badārī","lat":26.99257,"lon":31.41554,"geocoding":{},"distantMaxMiles":5},"Al Qūşīyah":{"countryName":"Egypt","stateName":"Asyut","name":"Al Qūşīyah","lat":27.4402,"lon":30.81841,"geocoding":{},"distantMaxMiles":5},"Asyūţ":{"countryName":"Egypt","stateName":"Asyut","name":"Asyūţ","lat":27.18096,"lon":31.18368,"geocoding":{},"distantMaxMiles":5},"Dayrūţ":{"countryName":"Egypt","stateName":"Asyut","name":"Dayrūţ","lat":27.55602,"lon":30.80764,"geocoding":{},"distantMaxMiles":5},"Manfalūţ":{"countryName":"Egypt","stateName":"Asyut","name":"Manfalūţ","lat":27.3104,"lon":30.97004,"geocoding":{},"distantMaxMiles":5}}},"Beheira":{"countryName":"Egypt","name":"Beheira","isoCode":"BH","lat":30.8480986,"lon":30.3435506,"geocoding":{},"distantMaxMiles":5,"cities":{"Abū al Maţāmīr":{"countryName":"Egypt","stateName":"Beheira","name":"Abū al Maţāmīr","lat":30.91018,"lon":30.17438,"geocoding":{},"distantMaxMiles":5},"Ad Dilinjāt":{"countryName":"Egypt","stateName":"Beheira","name":"Ad Dilinjāt","lat":30.82796,"lon":30.53552,"geocoding":{},"distantMaxMiles":5},"Damanhūr":{"countryName":"Egypt","stateName":"Beheira","name":"Damanhūr","lat":31.03408,"lon":30.46823,"geocoding":{},"distantMaxMiles":5},"Idkū":{"countryName":"Egypt","stateName":"Beheira","name":"Idkū","lat":31.3073,"lon":30.2981,"geocoding":{},"distantMaxMiles":5},"Kafr ad Dawwār":{"countryName":"Egypt","stateName":"Beheira","name":"Kafr ad Dawwār","lat":31.13379,"lon":30.12969,"geocoding":{},"distantMaxMiles":5},"Kawm Ḩamādah":{"countryName":"Egypt","stateName":"Beheira","name":"Kawm Ḩamādah","lat":30.76128,"lon":30.69972,"geocoding":{},"distantMaxMiles":5},"Rosetta":{"countryName":"Egypt","stateName":"Beheira","name":"Rosetta","lat":31.39951,"lon":30.41718,"geocoding":{},"distantMaxMiles":5},"Ḩawsh ‘Īsá":{"countryName":"Egypt","stateName":"Beheira","name":"Ḩawsh ‘Īsá","lat":30.9128,"lon":30.29019,"geocoding":{},"distantMaxMiles":5}}},"Beni Suef":{"countryName":"Egypt","name":"Beni Suef","isoCode":"BNS","lat":28.8938837,"lon":31.4456179,"geocoding":{},"distantMaxMiles":5,"cities":{"Al Fashn":{"countryName":"Egypt","stateName":"Beni Suef","name":"Al Fashn","lat":28.82431,"lon":30.89948,"geocoding":{},"distantMaxMiles":5},"Banī Suwayf":{"countryName":"Egypt","stateName":"Beni Suef","name":"Banī Suwayf","lat":29.07441,"lon":31.09785,"geocoding":{},"distantMaxMiles":5},"Būsh":{"countryName":"Egypt","stateName":"Beni Suef","name":"Būsh","lat":29.14816,"lon":31.12733,"geocoding":{},"distantMaxMiles":5},"Sumusţā as Sulţānī":{"countryName":"Egypt","stateName":"Beni Suef","name":"Sumusţā as Sulţānī","lat":28.91667,"lon":30.85,"geocoding":{},"distantMaxMiles":5}}},"Cairo":{"countryName":"Egypt","name":"Cairo","isoCode":"C","lat":29.9537564,"lon":31.5370003,"geocoding":{},"distantMaxMiles":5,"cities":{"Cairo":{"countryName":"Egypt","stateName":"Cairo","name":"Cairo","lat":30.06263,"lon":31.24967,"geocoding":{},"distantMaxMiles":5},"New Cairo":{"countryName":"Egypt","stateName":"Cairo","name":"New Cairo","lat":30.03,"lon":31.47,"geocoding":{},"distantMaxMiles":5},"Ḩalwān":{"countryName":"Egypt","stateName":"Cairo","name":"Ḩalwān","lat":29.84144,"lon":31.30084,"geocoding":{},"distantMaxMiles":5}}},"Dakahlia":{"countryName":"Egypt","name":"Dakahlia","isoCode":"DK","lat":31.1656044,"lon":31.4913182,"geocoding":{},"distantMaxMiles":5,"cities":{"Ajā":{"countryName":"Egypt","stateName":"Dakahlia","name":"Ajā","lat":30.94162,"lon":31.29039,"geocoding":{},"distantMaxMiles":5},"Al Jammālīyah":{"countryName":"Egypt","stateName":"Dakahlia","name":"Al Jammālīyah","lat":31.18065,"lon":31.86497,"geocoding":{},"distantMaxMiles":5},"Al Manzalah":{"countryName":"Egypt","stateName":"Dakahlia","name":"Al Manzalah","lat":31.15823,"lon":31.936,"geocoding":{},"distantMaxMiles":5},"Al Manşūrah":{"countryName":"Egypt","stateName":"Dakahlia","name":"Al Manşūrah","lat":31.03637,"lon":31.38069,"geocoding":{},"distantMaxMiles":5},"Al Maţarīyah":{"countryName":"Egypt","stateName":"Dakahlia","name":"Al Maţarīyah","lat":31.18287,"lon":32.03108,"geocoding":{},"distantMaxMiles":5},"Bilqās":{"countryName":"Egypt","stateName":"Dakahlia","name":"Bilqās","lat":31.21452,"lon":31.35798,"geocoding":{},"distantMaxMiles":5},"Dikirnis":{"countryName":"Egypt","stateName":"Dakahlia","name":"Dikirnis","lat":31.08898,"lon":31.59478,"geocoding":{},"distantMaxMiles":5},"Minyat an Naşr":{"countryName":"Egypt","stateName":"Dakahlia","name":"Minyat an Naşr","lat":31.12624,"lon":31.64313,"geocoding":{},"distantMaxMiles":5},"Shirbīn":{"countryName":"Egypt","stateName":"Dakahlia","name":"Shirbīn","lat":31.19688,"lon":31.5243,"geocoding":{},"distantMaxMiles":5},"Ţalkhā":{"countryName":"Egypt","stateName":"Dakahlia","name":"Ţalkhā","lat":31.0539,"lon":31.37787,"geocoding":{},"distantMaxMiles":5},"‘Izbat al Burj":{"countryName":"Egypt","stateName":"Dakahlia","name":"‘Izbat al Burj","lat":31.5084,"lon":31.84106,"geocoding":{},"distantMaxMiles":5}}},"Damietta":{"countryName":"Egypt","name":"Damietta","isoCode":"DT","lat":31.3625799,"lon":31.6739371,"geocoding":{},"distantMaxMiles":5,"cities":{"Az Zarqā":{"countryName":"Egypt","stateName":"Damietta","name":"Az Zarqā","lat":31.20864,"lon":31.63528,"geocoding":{},"distantMaxMiles":5},"Damietta":{"countryName":"Egypt","stateName":"Damietta","name":"Damietta","lat":31.41648,"lon":31.81332,"geocoding":{},"distantMaxMiles":5},"Fāraskūr":{"countryName":"Egypt","stateName":"Damietta","name":"Fāraskūr","lat":31.32977,"lon":31.71507,"geocoding":{},"distantMaxMiles":5}}},"Faiyum":{"countryName":"Egypt","name":"Faiyum","isoCode":"FYM","lat":29.3084021,"lon":30.8428497,"geocoding":{},"distantMaxMiles":5,"cities":{"Al Fayyūm":{"countryName":"Egypt","stateName":"Faiyum","name":"Al Fayyūm","lat":29.30995,"lon":30.8418,"geocoding":{},"distantMaxMiles":5},"Al Wāsiţah":{"countryName":"Egypt","stateName":"Faiyum","name":"Al Wāsiţah","lat":29.33778,"lon":31.20556,"geocoding":{},"distantMaxMiles":5},"Ibshawāy":{"countryName":"Egypt","stateName":"Faiyum","name":"Ibshawāy","lat":29.35896,"lon":30.68061,"geocoding":{},"distantMaxMiles":5},"Iţsā":{"countryName":"Egypt","stateName":"Faiyum","name":"Iţsā","lat":29.2376,"lon":30.78944,"geocoding":{},"distantMaxMiles":5},"Ţāmiyah":{"countryName":"Egypt","stateName":"Faiyum","name":"Ţāmiyah","lat":29.47639,"lon":30.96119,"geocoding":{},"distantMaxMiles":5}}},"Gharbia":{"countryName":"Egypt","name":"Gharbia","isoCode":"GH","lat":30.8753556,"lon":31.03351,"geocoding":{},"distantMaxMiles":5,"cities":{"Al Maḩallah al Kubrá":{"countryName":"Egypt","stateName":"Gharbia","name":"Al Maḩallah al Kubrá","lat":30.97063,"lon":31.1669,"geocoding":{},"distantMaxMiles":5},"Basyūn":{"countryName":"Egypt","stateName":"Gharbia","name":"Basyūn","lat":30.93976,"lon":30.81338,"geocoding":{},"distantMaxMiles":5},"Kafr az Zayyāt":{"countryName":"Egypt","stateName":"Gharbia","name":"Kafr az Zayyāt","lat":30.8248,"lon":30.81805,"geocoding":{},"distantMaxMiles":5},"Quţūr":{"countryName":"Egypt","stateName":"Gharbia","name":"Quţūr","lat":30.97225,"lon":30.95614,"geocoding":{},"distantMaxMiles":5},"Samannūd":{"countryName":"Egypt","stateName":"Gharbia","name":"Samannūd","lat":30.9616,"lon":31.24069,"geocoding":{},"distantMaxMiles":5},"Tanda":{"countryName":"Egypt","stateName":"Gharbia","name":"Tanda","lat":30.78847,"lon":31.00192,"geocoding":{},"distantMaxMiles":5},"Zefta":{"countryName":"Egypt","stateName":"Gharbia","name":"Zefta","lat":30.7142,"lon":31.24425,"geocoding":{},"distantMaxMiles":5}}},"Giza":{"countryName":"Egypt","name":"Giza","isoCode":"GZ","lat":28.7666216,"lon":29.2320784,"geocoding":{},"distantMaxMiles":5,"cities":{"Al Bawīţī":{"countryName":"Egypt","stateName":"Giza","name":"Al Bawīţī","lat":28.34919,"lon":28.86591,"geocoding":{},"distantMaxMiles":5},"Al Ḩawāmidīyah":{"countryName":"Egypt","stateName":"Giza","name":"Al Ḩawāmidīyah","lat":29.9,"lon":31.25,"geocoding":{},"distantMaxMiles":5},"Al ‘Ayyāţ":{"countryName":"Egypt","stateName":"Giza","name":"Al ‘Ayyāţ","lat":29.61972,"lon":31.2575,"geocoding":{},"distantMaxMiles":5},"Awsīm":{"countryName":"Egypt","stateName":"Giza","name":"Awsīm","lat":30.12303,"lon":31.13571,"geocoding":{},"distantMaxMiles":5},"Aş Şaff":{"countryName":"Egypt","stateName":"Giza","name":"Aş Şaff","lat":29.56472,"lon":31.28111,"geocoding":{},"distantMaxMiles":5},"Giza":{"countryName":"Egypt","stateName":"Giza","name":"Giza","lat":30.00808,"lon":31.21093,"geocoding":{},"distantMaxMiles":5},"Madīnat Sittah Uktūbar":{"countryName":"Egypt","stateName":"Giza","name":"Madīnat Sittah Uktūbar","lat":29.81667,"lon":31.05,"geocoding":{},"distantMaxMiles":5}}},"Ismailia":{"countryName":"Egypt","name":"Ismailia","isoCode":"IS","lat":30.5830934,"lon":32.2653887,"geocoding":{},"distantMaxMiles":5,"cities":{"Ismailia":{"countryName":"Egypt","stateName":"Ismailia","name":"Ismailia","lat":30.60427,"lon":32.27225,"geocoding":{},"distantMaxMiles":5}}},"Kafr el-Sheikh":{"countryName":"Egypt","name":"Kafr el-Sheikh","isoCode":"KFS","lat":31.3085444,"lon":30.8039474,"geocoding":{},"distantMaxMiles":5,"cities":{"Al Ḩāmūl":{"countryName":"Egypt","stateName":"Kafr el-Sheikh","name":"Al Ḩāmūl","lat":31.31146,"lon":31.14766,"geocoding":{},"distantMaxMiles":5},"Disūq":{"countryName":"Egypt","stateName":"Kafr el-Sheikh","name":"Disūq","lat":31.13259,"lon":30.64784,"geocoding":{},"distantMaxMiles":5},"Fuwwah":{"countryName":"Egypt","stateName":"Kafr el-Sheikh","name":"Fuwwah","lat":31.20365,"lon":30.54908,"geocoding":{},"distantMaxMiles":5},"Kafr ash Shaykh":{"countryName":"Egypt","stateName":"Kafr el-Sheikh","name":"Kafr ash Shaykh","lat":31.11174,"lon":30.93991,"geocoding":{},"distantMaxMiles":5},"Markaz Disūq":{"countryName":"Egypt","stateName":"Kafr el-Sheikh","name":"Markaz Disūq","lat":31.1459,"lon":30.71609,"geocoding":{},"distantMaxMiles":5},"Munshāt ‘Alī Āghā":{"countryName":"Egypt","stateName":"Kafr el-Sheikh","name":"Munshāt ‘Alī Āghā","lat":31.15791,"lon":30.70177,"geocoding":{},"distantMaxMiles":5},"Sīdī Sālim":{"countryName":"Egypt","stateName":"Kafr el-Sheikh","name":"Sīdī Sālim","lat":31.27133,"lon":30.78617,"geocoding":{},"distantMaxMiles":5}}},"Luxor":{"countryName":"Egypt","name":"Luxor","isoCode":"LX","lat":25.3944444,"lon":32.4920088,"geocoding":{},"distantMaxMiles":5,"cities":{"Luxor":{"countryName":"Egypt","stateName":"Luxor","name":"Luxor","lat":25.69893,"lon":32.6421,"geocoding":{},"distantMaxMiles":5},"Markaz al Uqşur":{"countryName":"Egypt","stateName":"Luxor","name":"Markaz al Uqşur","lat":25.62986,"lon":32.59017,"geocoding":{},"distantMaxMiles":5}}},"Matrouh":{"countryName":"Egypt","name":"Matrouh","isoCode":"MT","lat":29.569635,"lon":26.419389,"geocoding":{},"distantMaxMiles":5,"cities":{"Al ‘Alamayn":{"countryName":"Egypt","stateName":"Matrouh","name":"Al ‘Alamayn","lat":30.83007,"lon":28.95502,"geocoding":{},"distantMaxMiles":5},"Mersa Matruh":{"countryName":"Egypt","stateName":"Matrouh","name":"Mersa Matruh","lat":31.3529,"lon":27.23725,"geocoding":{},"distantMaxMiles":5},"Siwa Oasis":{"countryName":"Egypt","stateName":"Matrouh","name":"Siwa Oasis","lat":29.2032,"lon":25.51965,"geocoding":{},"distantMaxMiles":5}}},"Minya":{"countryName":"Egypt","name":"Minya","isoCode":"MN","lat":28.284729,"lon":30.5279096,"geocoding":{},"distantMaxMiles":5,"cities":{"Abū Qurqāş":{"countryName":"Egypt","stateName":"Minya","name":"Abū Qurqāş","lat":27.9312,"lon":30.83841,"geocoding":{},"distantMaxMiles":5},"Al Minyā":{"countryName":"Egypt","stateName":"Minya","name":"Al Minyā","lat":28.10988,"lon":30.7503,"geocoding":{},"distantMaxMiles":5},"Banī Mazār":{"countryName":"Egypt","stateName":"Minya","name":"Banī Mazār","lat":28.5036,"lon":30.8004,"geocoding":{},"distantMaxMiles":5},"Dayr Mawās":{"countryName":"Egypt","stateName":"Minya","name":"Dayr Mawās","lat":27.64176,"lon":30.84662,"geocoding":{},"distantMaxMiles":5},"Mallawī":{"countryName":"Egypt","stateName":"Minya","name":"Mallawī","lat":27.7314,"lon":30.84165,"geocoding":{},"distantMaxMiles":5},"Maţāy":{"countryName":"Egypt","stateName":"Minya","name":"Maţāy","lat":28.41899,"lon":30.77924,"geocoding":{},"distantMaxMiles":5},"Samālūţ":{"countryName":"Egypt","stateName":"Minya","name":"Samālūţ","lat":28.31214,"lon":30.71007,"geocoding":{},"distantMaxMiles":5}}},"Monufia":{"countryName":"Egypt","name":"Monufia","isoCode":"MNF","lat":30.5972455,"lon":30.9876321,"geocoding":{},"distantMaxMiles":5,"cities":{"Al Bājūr":{"countryName":"Egypt","stateName":"Monufia","name":"Al Bājūr","lat":30.43046,"lon":31.03679,"geocoding":{},"distantMaxMiles":5},"Ash Shuhadā’":{"countryName":"Egypt","stateName":"Monufia","name":"Ash Shuhadā’","lat":30.59683,"lon":30.89931,"geocoding":{},"distantMaxMiles":5},"Ashmūn":{"countryName":"Egypt","stateName":"Monufia","name":"Ashmūn","lat":30.29735,"lon":30.97641,"geocoding":{},"distantMaxMiles":5},"Munūf":{"countryName":"Egypt","stateName":"Monufia","name":"Munūf","lat":30.46597,"lon":30.93199,"geocoding":{},"distantMaxMiles":5},"Quwaysinā":{"countryName":"Egypt","stateName":"Monufia","name":"Quwaysinā","lat":30.56482,"lon":31.15777,"geocoding":{},"distantMaxMiles":5},"Shibīn al Kawm":{"countryName":"Egypt","stateName":"Monufia","name":"Shibīn al Kawm","lat":30.55258,"lon":31.00904,"geocoding":{},"distantMaxMiles":5},"Talā":{"countryName":"Egypt","stateName":"Monufia","name":"Talā","lat":30.6798,"lon":30.94364,"geocoding":{},"distantMaxMiles":5}}},"New Valley":{"countryName":"Egypt","name":"New Valley","isoCode":"WAD","lat":24.5455638,"lon":27.1735316,"geocoding":{},"distantMaxMiles":5,"cities":{"Al Khārijah":{"countryName":"Egypt","stateName":"New Valley","name":"Al Khārijah","lat":25.45141,"lon":30.54635,"geocoding":{},"distantMaxMiles":5},"Qaşr al Farāfirah":{"countryName":"Egypt","stateName":"New Valley","name":"Qaşr al Farāfirah","lat":27.0568,"lon":27.96979,"geocoding":{},"distantMaxMiles":5}}},"North Sinai":{"countryName":"Egypt","name":"North Sinai","isoCode":"SIN","lat":30.282365,"lon":33.617577,"geocoding":{},"distantMaxMiles":5,"cities":{"Arish":{"countryName":"Egypt","stateName":"North Sinai","name":"Arish","lat":31.13159,"lon":33.79844,"geocoding":{},"distantMaxMiles":5}}},"Port Said":{"countryName":"Egypt","name":"Port Said","isoCode":"PTS","lat":31.0758606,"lon":32.2653887,"geocoding":{},"distantMaxMiles":5,"cities":{"Port Said":{"countryName":"Egypt","stateName":"Port Said","name":"Port Said","lat":31.25654,"lon":32.28411,"geocoding":{},"distantMaxMiles":5}}},"Qalyubia":{"countryName":"Egypt","name":"Qalyubia","isoCode":"KB","lat":30.3292368,"lon":31.2168466,"geocoding":{},"distantMaxMiles":5,"cities":{"Al Khānkah":{"countryName":"Egypt","stateName":"Qalyubia","name":"Al Khānkah","lat":30.21035,"lon":31.36812,"geocoding":{},"distantMaxMiles":5},"Al Qanāţir al Khayrīyah":{"countryName":"Egypt","stateName":"Qalyubia","name":"Al Qanāţir al Khayrīyah","lat":30.19327,"lon":31.13703,"geocoding":{},"distantMaxMiles":5},"Banhā":{"countryName":"Egypt","stateName":"Qalyubia","name":"Banhā","lat":30.45977,"lon":31.1842,"geocoding":{},"distantMaxMiles":5},"Qalyūb":{"countryName":"Egypt","stateName":"Qalyubia","name":"Qalyūb","lat":30.17922,"lon":31.2056,"geocoding":{},"distantMaxMiles":5},"Shibīn al Qanāṭir":{"countryName":"Egypt","stateName":"Qalyubia","name":"Shibīn al Qanāṭir","lat":30.31269,"lon":31.32018,"geocoding":{},"distantMaxMiles":5},"Toukh":{"countryName":"Egypt","stateName":"Qalyubia","name":"Toukh","lat":30.35487,"lon":31.20105,"geocoding":{},"distantMaxMiles":5}}},"Qena":{"countryName":"Egypt","name":"Qena","isoCode":"KN","lat":26.2346033,"lon":32.9888319,"geocoding":{},"distantMaxMiles":5,"cities":{"Dishnā":{"countryName":"Egypt","stateName":"Qena","name":"Dishnā","lat":26.12467,"lon":32.47598,"geocoding":{},"distantMaxMiles":5},"Farshūţ":{"countryName":"Egypt","stateName":"Qena","name":"Farshūţ","lat":26.05494,"lon":32.16329,"geocoding":{},"distantMaxMiles":5},"Isnā":{"countryName":"Egypt","stateName":"Qena","name":"Isnā","lat":25.29336,"lon":32.55402,"geocoding":{},"distantMaxMiles":5},"Kousa":{"countryName":"Egypt","stateName":"Qena","name":"Kousa","lat":25.91407,"lon":32.76362,"geocoding":{},"distantMaxMiles":5},"Naja' Ḥammādī":{"countryName":"Egypt","stateName":"Qena","name":"Naja' Ḥammādī","lat":26.04949,"lon":32.24142,"geocoding":{},"distantMaxMiles":5},"Qinā":{"countryName":"Egypt","stateName":"Qena","name":"Qinā","lat":26.16418,"lon":32.72671,"geocoding":{},"distantMaxMiles":5}}},"Red Sea":{"countryName":"Egypt","name":"Red Sea","isoCode":"BA","lat":24.6826316,"lon":34.1531947,"geocoding":{},"distantMaxMiles":5,"cities":{"Al Quşayr":{"countryName":"Egypt","stateName":"Red Sea","name":"Al Quşayr","lat":26.10426,"lon":34.27793,"geocoding":{},"distantMaxMiles":5},"El Gouna":{"countryName":"Egypt","stateName":"Red Sea","name":"El Gouna","lat":27.39417,"lon":33.67825,"geocoding":{},"distantMaxMiles":5},"Hurghada":{"countryName":"Egypt","stateName":"Red Sea","name":"Hurghada","lat":27.25738,"lon":33.81291,"geocoding":{},"distantMaxMiles":5},"Makadi Bay":{"countryName":"Egypt","stateName":"Red Sea","name":"Makadi Bay","lat":26.99123,"lon":33.89952,"geocoding":{},"distantMaxMiles":5},"Marsa Alam":{"countryName":"Egypt","stateName":"Red Sea","name":"Marsa Alam","lat":25.06305,"lon":34.89005,"geocoding":{},"distantMaxMiles":5},"Ras Gharib":{"countryName":"Egypt","stateName":"Red Sea","name":"Ras Gharib","lat":28.35831,"lon":33.07829,"geocoding":{},"distantMaxMiles":5},"Safaga":{"countryName":"Egypt","stateName":"Red Sea","name":"Safaga","lat":26.74906,"lon":33.93891,"geocoding":{},"distantMaxMiles":5}}},"Sharqia":{"countryName":"Egypt","name":"Sharqia","isoCode":"SHR","lat":30.6730545,"lon":31.1593247,"geocoding":{},"distantMaxMiles":5,"cities":{"10th of Ramadan":{"countryName":"Egypt","stateName":"Sharqia","name":"10th of Ramadan","lat":30.2993939,"lon":31.6141789,"geocoding":{},"distantMaxMiles":5},"Al Qurein":{"countryName":"Egypt","stateName":"Sharqia","name":"Al Qurein","lat":26.2930066,"lon":31.8495035,"geocoding":{},"distantMaxMiles":5},"Awlad Saqr":{"countryName":"Egypt","stateName":"Sharqia","name":"Awlad Saqr","lat":30.9309623,"lon":31.6913238,"geocoding":{},"distantMaxMiles":5},"Bilbeis":{"countryName":"Egypt","stateName":"Sharqia","name":"Bilbeis","lat":30.4167692,"lon":31.5543048,"geocoding":{},"distantMaxMiles":5},"Diyarb Negm":{"countryName":"Egypt","stateName":"Sharqia","name":"Diyarb Negm","lat":30.7480082,"lon":31.3889308,"geocoding":{},"distantMaxMiles":5},"El Husseiniya":{"countryName":"Egypt","stateName":"Sharqia","name":"El Husseiniya","lat":31.1393396,"lon":32.1494967,"geocoding":{},"distantMaxMiles":5},"Faqous":{"countryName":"Egypt","stateName":"Sharqia","name":"Faqous","lat":30.7229174,"lon":31.7613658,"geocoding":{},"distantMaxMiles":5},"Hihya":{"countryName":"Egypt","stateName":"Sharqia","name":"Hihya","lat":30.6551621,"lon":31.5067157,"geocoding":{},"distantMaxMiles":5},"Kafr Saqr":{"countryName":"Egypt","stateName":"Sharqia","name":"Kafr Saqr","lat":30.7795514,"lon":31.6177412,"geocoding":{},"distantMaxMiles":5},"Markaz Abū Ḩammād":{"countryName":"Egypt","stateName":"Sharqia","name":"Markaz Abū Ḩammād","lat":30.5360443,"lon":31.6597023,"geocoding":{},"distantMaxMiles":5},"Mashtoul El Souk":{"countryName":"Egypt","stateName":"Sharqia","name":"Mashtoul El Souk","lat":30.3557011,"lon":31.3627853,"geocoding":{},"distantMaxMiles":5},"Minya El Qamh":{"countryName":"Egypt","stateName":"Sharqia","name":"Minya El Qamh","lat":30.5003745,"lon":31.2376685,"geocoding":{},"distantMaxMiles":5},"New Salhia":{"countryName":"Egypt","stateName":"Sharqia","name":"New Salhia","lat":30.6286879,"lon":31.9209906,"geocoding":{},"distantMaxMiles":5},"Zagazig":{"countryName":"Egypt","stateName":"Sharqia","name":"Zagazig","lat":30.5845623,"lon":31.3474779,"geocoding":{},"distantMaxMiles":5}}},"Sohag":{"countryName":"Egypt","name":"Sohag","isoCode":"SHG","lat":26.693834,"lon":32.174605,"geocoding":{},"distantMaxMiles":5,"cities":{"Akhmīm":{"countryName":"Egypt","stateName":"Sohag","name":"Akhmīm","lat":26.56217,"lon":31.74503,"geocoding":{},"distantMaxMiles":5},"Al Balyanā":{"countryName":"Egypt","stateName":"Sohag","name":"Al Balyanā","lat":26.23568,"lon":32.00347,"geocoding":{},"distantMaxMiles":5},"Al Manshāh":{"countryName":"Egypt","stateName":"Sohag","name":"Al Manshāh","lat":26.47686,"lon":31.8035,"geocoding":{},"distantMaxMiles":5},"Jirjā":{"countryName":"Egypt","stateName":"Sohag","name":"Jirjā","lat":26.33826,"lon":31.89161,"geocoding":{},"distantMaxMiles":5},"Juhaynah":{"countryName":"Egypt","stateName":"Sohag","name":"Juhaynah","lat":26.67319,"lon":31.4976,"geocoding":{},"distantMaxMiles":5},"Markaz Jirjā":{"countryName":"Egypt","stateName":"Sohag","name":"Markaz Jirjā","lat":26.30683,"lon":31.84574,"geocoding":{},"distantMaxMiles":5},"Markaz Sūhāj":{"countryName":"Egypt","stateName":"Sohag","name":"Markaz Sūhāj","lat":26.53948,"lon":31.67524,"geocoding":{},"distantMaxMiles":5},"Sohag":{"countryName":"Egypt","stateName":"Sohag","name":"Sohag","lat":26.55695,"lon":31.69478,"geocoding":{},"distantMaxMiles":5},"Ţahţā":{"countryName":"Egypt","stateName":"Sohag","name":"Ţahţā","lat":26.7693,"lon":31.50214,"geocoding":{},"distantMaxMiles":5}}},"South Sinai":{"countryName":"Egypt","name":"South Sinai","isoCode":"JS","lat":29.3101828,"lon":34.1531947,"geocoding":{},"distantMaxMiles":5,"cities":{"Dahab":{"countryName":"Egypt","stateName":"South Sinai","name":"Dahab","lat":28.48208,"lon":34.49505,"geocoding":{},"distantMaxMiles":5},"El-Tor":{"countryName":"Egypt","stateName":"South Sinai","name":"El-Tor","lat":28.24168,"lon":33.6222,"geocoding":{},"distantMaxMiles":5},"Nuwaybi‘a":{"countryName":"Egypt","stateName":"South Sinai","name":"Nuwaybi‘a","lat":29.04681,"lon":34.6634,"geocoding":{},"distantMaxMiles":5},"Saint Catherine":{"countryName":"Egypt","stateName":"South Sinai","name":"Saint Catherine","lat":28.56191,"lon":33.94934,"geocoding":{},"distantMaxMiles":5},"Sharm el-Sheikh":{"countryName":"Egypt","stateName":"South Sinai","name":"Sharm el-Sheikh","lat":27.91582,"lon":34.32995,"geocoding":{},"distantMaxMiles":5}}},"Suez":{"countryName":"Egypt","name":"Suez","isoCode":"SUZ","lat":29.3682255,"lon":32.174605,"geocoding":{},"distantMaxMiles":5,"cities":{"Ain Sukhna":{"countryName":"Egypt","stateName":"Suez","name":"Ain Sukhna","lat":29.60018,"lon":32.31671,"geocoding":{},"distantMaxMiles":5},"Suez":{"countryName":"Egypt","stateName":"Suez","name":"Suez","lat":29.97371,"lon":32.52627,"geocoding":{},"distantMaxMiles":5}}}}}