{"name":"Ethiopia","isoCode":"ET","lat":8,"lon":38,"geocoding":{},"distantMaxMiles":5,"states":{"Addis Ababa":{"countryName":"Ethiopia","name":"Addis Ababa","isoCode":"AA","lat":8.9806034,"lon":38.7577605,"geocoding":{},"distantMaxMiles":5,"cities":{"Addis Ababa":{"countryName":"Ethiopia","stateName":"Addis Ababa","name":"Addis Ababa","lat":9.02497,"lon":38.74689,"geocoding":{},"distantMaxMiles":5}}},"Afar Region":{"countryName":"Ethiopia","name":"Afar Region","isoCode":"AF","lat":11.7559388,"lon":40.958688,"geocoding":{},"distantMaxMiles":5,"cities":{"Administrative Zone 2":{"countryName":"Ethiopia","stateName":"Afar Region","name":"Administrative Zone 2","lat":13.68513,"lon":40.05615,"geocoding":{},"distantMaxMiles":5},"Administrative Zone 3":{"countryName":"Ethiopia","stateName":"Afar Region","name":"Administrative Zone 3","lat":10.00902,"lon":40.47394,"geocoding":{},"distantMaxMiles":5},"Asaita":{"countryName":"Ethiopia","stateName":"Afar Region","name":"Asaita","lat":11.56838,"lon":41.43869,"geocoding":{},"distantMaxMiles":5},"Dubti":{"countryName":"Ethiopia","stateName":"Afar Region","name":"Dubti","lat":11.73292,"lon":41.082,"geocoding":{},"distantMaxMiles":5},"Gewanē":{"countryName":"Ethiopia","stateName":"Afar Region","name":"Gewanē","lat":10.16658,"lon":40.64689,"geocoding":{},"distantMaxMiles":5},"Semera":{"countryName":"Ethiopia","stateName":"Afar Region","name":"Semera","lat":11.79342,"lon":41.00578,"geocoding":{},"distantMaxMiles":5},"Āwash":{"countryName":"Ethiopia","stateName":"Afar Region","name":"Āwash","lat":8.98333,"lon":40.16667,"geocoding":{},"distantMaxMiles":5}}},"Amhara Region":{"countryName":"Ethiopia","name":"Amhara Region","isoCode":"AM","lat":11.3494247,"lon":37.9784585,"geocoding":{},"distantMaxMiles":5,"cities":{"Abomsa":{"countryName":"Ethiopia","stateName":"Amhara Region","name":"Abomsa","lat":9.98333,"lon":39.98333,"geocoding":{},"distantMaxMiles":5},"Addiet Canna":{"countryName":"Ethiopia","stateName":"Amhara Region","name":"Addiet Canna","lat":11.26667,"lon":37.48333,"geocoding":{},"distantMaxMiles":5},"Bahir Dar":{"countryName":"Ethiopia","stateName":"Amhara Region","name":"Bahir Dar","lat":11.59364,"lon":37.39077,"geocoding":{},"distantMaxMiles":5},"Batī":{"countryName":"Ethiopia","stateName":"Amhara Region","name":"Batī","lat":11.19152,"lon":40.01675,"geocoding":{},"distantMaxMiles":5},"Bichena":{"countryName":"Ethiopia","stateName":"Amhara Region","name":"Bichena","lat":10.45,"lon":38.2,"geocoding":{},"distantMaxMiles":5},"Burē":{"countryName":"Ethiopia","stateName":"Amhara Region","name":"Burē","lat":10.7,"lon":37.06667,"geocoding":{},"distantMaxMiles":5},"Dabat":{"countryName":"Ethiopia","stateName":"Amhara Region","name":"Dabat","lat":12.98417,"lon":37.765,"geocoding":{},"distantMaxMiles":5},"Debark’":{"countryName":"Ethiopia","stateName":"Amhara Region","name":"Debark’","lat":13.15611,"lon":37.89806,"geocoding":{},"distantMaxMiles":5},"Debre Birhan":{"countryName":"Ethiopia","stateName":"Amhara Region","name":"Debre Birhan","lat":9.67954,"lon":39.53262,"geocoding":{},"distantMaxMiles":5},"Debre Mark’os":{"countryName":"Ethiopia","stateName":"Amhara Region","name":"Debre Mark’os","lat":10.35,"lon":37.73333,"geocoding":{},"distantMaxMiles":5},"Debre Sīna":{"countryName":"Ethiopia","stateName":"Amhara Region","name":"Debre Sīna","lat":9.84752,"lon":39.76027,"geocoding":{},"distantMaxMiles":5},"Debre Tabor":{"countryName":"Ethiopia","stateName":"Amhara Region","name":"Debre Tabor","lat":11.85,"lon":38.01667,"geocoding":{},"distantMaxMiles":5},"Debre Werk’":{"countryName":"Ethiopia","stateName":"Amhara Region","name":"Debre Werk’","lat":10.66667,"lon":38.16667,"geocoding":{},"distantMaxMiles":5},"Dejen":{"countryName":"Ethiopia","stateName":"Amhara Region","name":"Dejen","lat":10.16667,"lon":38.13333,"geocoding":{},"distantMaxMiles":5},"Desē":{"countryName":"Ethiopia","stateName":"Amhara Region","name":"Desē","lat":11.13333,"lon":39.63333,"geocoding":{},"distantMaxMiles":5},"Finote Selam":{"countryName":"Ethiopia","stateName":"Amhara Region","name":"Finote Selam","lat":10.7,"lon":37.26667,"geocoding":{},"distantMaxMiles":5},"Gondar":{"countryName":"Ethiopia","stateName":"Amhara Region","name":"Gondar","lat":12.6,"lon":37.46667,"geocoding":{},"distantMaxMiles":5},"Kemisē":{"countryName":"Ethiopia","stateName":"Amhara Region","name":"Kemisē","lat":10.71668,"lon":39.86997,"geocoding":{},"distantMaxMiles":5},"Kombolcha":{"countryName":"Ethiopia","stateName":"Amhara Region","name":"Kombolcha","lat":11.08155,"lon":39.74339,"geocoding":{},"distantMaxMiles":5},"Lalībela":{"countryName":"Ethiopia","stateName":"Amhara Region","name":"Lalībela","lat":12.03219,"lon":39.04756,"geocoding":{},"distantMaxMiles":5},"North Shewa Zone":{"countryName":"Ethiopia","stateName":"Amhara Region","name":"North Shewa Zone","lat":9.769,"lon":39.668,"geocoding":{},"distantMaxMiles":5},"North Wollo Zone":{"countryName":"Ethiopia","stateName":"Amhara Region","name":"North Wollo Zone","lat":11.92,"lon":39.1,"geocoding":{},"distantMaxMiles":5},"Robīt":{"countryName":"Ethiopia","stateName":"Amhara Region","name":"Robīt","lat":12.01667,"lon":39.63333,"geocoding":{},"distantMaxMiles":5},"South Gondar Zone":{"countryName":"Ethiopia","stateName":"Amhara Region","name":"South Gondar Zone","lat":11.8385,"lon":38.09954,"geocoding":{},"distantMaxMiles":5},"South Wollo Zone":{"countryName":"Ethiopia","stateName":"Amhara Region","name":"South Wollo Zone","lat":11,"lon":39.25,"geocoding":{},"distantMaxMiles":5},"Wag Hemra Zone":{"countryName":"Ethiopia","stateName":"Amhara Region","name":"Wag Hemra Zone","lat":12.765,"lon":38.843,"geocoding":{},"distantMaxMiles":5},"Were Īlu":{"countryName":"Ethiopia","stateName":"Amhara Region","name":"Were Īlu","lat":10.58964,"lon":39.43767,"geocoding":{},"distantMaxMiles":5},"Werota":{"countryName":"Ethiopia","stateName":"Amhara Region","name":"Werota","lat":11.91667,"lon":37.7,"geocoding":{},"distantMaxMiles":5},"Ādīs Zemen":{"countryName":"Ethiopia","stateName":"Amhara Region","name":"Ādīs Zemen","lat":12.11667,"lon":37.78333,"geocoding":{},"distantMaxMiles":5}}},"Benishangul-Gumuz Region":{"countryName":"Ethiopia","name":"Benishangul-Gumuz Region","isoCode":"BE","lat":10.7802889,"lon":35.5657862,"geocoding":{},"distantMaxMiles":5,"cities":{"Asosa":{"countryName":"Ethiopia","stateName":"Benishangul-Gumuz Region","name":"Asosa","lat":10,"lon":34.5,"geocoding":{},"distantMaxMiles":5},"Metekel":{"countryName":"Ethiopia","stateName":"Benishangul-Gumuz Region","name":"Metekel","lat":10.42673,"lon":35.71975,"geocoding":{},"distantMaxMiles":5}}},"Dire Dawa":{"countryName":"Ethiopia","name":"Dire Dawa","isoCode":"DD","lat":9.6008747,"lon":41.850142,"geocoding":{},"distantMaxMiles":5,"cities":{"Dire Dawa":{"countryName":"Ethiopia","stateName":"Dire Dawa","name":"Dire Dawa","lat":9.59306,"lon":41.86611,"geocoding":{},"distantMaxMiles":5}}},"Gambela Region":{"countryName":"Ethiopia","name":"Gambela Region","isoCode":"GA","lat":7.9219687,"lon":34.1531947,"geocoding":{},"distantMaxMiles":5,"cities":{"Administrative Zone 1":{"countryName":"Ethiopia","stateName":"Gambela Region","name":"Administrative Zone 1","lat":8.14699,"lon":33.97335,"geocoding":{},"distantMaxMiles":5},"Gambēla":{"countryName":"Ethiopia","stateName":"Gambela Region","name":"Gambēla","lat":8.25,"lon":34.58333,"geocoding":{},"distantMaxMiles":5}}},"Harari Region":{"countryName":"Ethiopia","name":"Harari Region","isoCode":"HA","lat":9.314866,"lon":42.1967716,"geocoding":{},"distantMaxMiles":5,"cities":{"Harar":{"countryName":"Ethiopia","stateName":"Harari Region","name":"Harar","lat":9.31387,"lon":42.11815,"geocoding":{},"distantMaxMiles":5}}},"Oromia Region":{"countryName":"Ethiopia","name":"Oromia Region","isoCode":"OR","lat":7.5460377,"lon":40.6346851,"geocoding":{},"distantMaxMiles":5,"cities":{"Arsi Zone":{"countryName":"Ethiopia","stateName":"Oromia Region","name":"Arsi Zone","lat":7.5,"lon":39.5,"geocoding":{},"distantMaxMiles":5},"Bedelē":{"countryName":"Ethiopia","stateName":"Oromia Region","name":"Bedelē","lat":8.456,"lon":36.35302,"geocoding":{},"distantMaxMiles":5},"Bedēsa":{"countryName":"Ethiopia","stateName":"Oromia Region","name":"Bedēsa","lat":8.9,"lon":40.78333,"geocoding":{},"distantMaxMiles":5},"Bishoftu":{"countryName":"Ethiopia","stateName":"Oromia Region","name":"Bishoftu","lat":8.75225,"lon":38.97846,"geocoding":{},"distantMaxMiles":5},"Deder":{"countryName":"Ethiopia","stateName":"Oromia Region","name":"Deder","lat":9.31168,"lon":41.44301,"geocoding":{},"distantMaxMiles":5},"Dembī Dolo":{"countryName":"Ethiopia","stateName":"Oromia Region","name":"Dembī Dolo","lat":8.53333,"lon":34.8,"geocoding":{},"distantMaxMiles":5},"Dodola":{"countryName":"Ethiopia","stateName":"Oromia Region","name":"Dodola","lat":6.98333,"lon":39.18333,"geocoding":{},"distantMaxMiles":5},"East Harerghe Zone":{"countryName":"Ethiopia","stateName":"Oromia Region","name":"East Harerghe Zone","lat":8.70114,"lon":42.00241,"geocoding":{},"distantMaxMiles":5},"East Shewa Zone":{"countryName":"Ethiopia","stateName":"Oromia Region","name":"East Shewa Zone","lat":8.21353,"lon":38.84809,"geocoding":{},"distantMaxMiles":5},"East Wellega Zone":{"countryName":"Ethiopia","stateName":"Oromia Region","name":"East Wellega Zone","lat":9.51928,"lon":36.75762,"geocoding":{},"distantMaxMiles":5},"Fichē":{"countryName":"Ethiopia","stateName":"Oromia Region","name":"Fichē","lat":9.8,"lon":38.73333,"geocoding":{},"distantMaxMiles":5},"Gebre Guracha":{"countryName":"Ethiopia","stateName":"Oromia Region","name":"Gebre Guracha","lat":9.8,"lon":38.4,"geocoding":{},"distantMaxMiles":5},"Gelemso":{"countryName":"Ethiopia","stateName":"Oromia Region","name":"Gelemso","lat":8.81667,"lon":40.51667,"geocoding":{},"distantMaxMiles":5},"Genet":{"countryName":"Ethiopia","stateName":"Oromia Region","name":"Genet","lat":9.06667,"lon":38.5,"geocoding":{},"distantMaxMiles":5},"Gimbi":{"countryName":"Ethiopia","stateName":"Oromia Region","name":"Gimbi","lat":9.17031,"lon":35.83491,"geocoding":{},"distantMaxMiles":5},"Ginir":{"countryName":"Ethiopia","stateName":"Oromia Region","name":"Ginir","lat":7.13952,"lon":40.71083,"geocoding":{},"distantMaxMiles":5},"Goba":{"countryName":"Ethiopia","stateName":"Oromia Region","name":"Goba","lat":7.01667,"lon":39.98333,"geocoding":{},"distantMaxMiles":5},"Gorē":{"countryName":"Ethiopia","stateName":"Oromia Region","name":"Gorē","lat":8.15,"lon":35.53333,"geocoding":{},"distantMaxMiles":5},"Guji Zone":{"countryName":"Ethiopia","stateName":"Oromia Region","name":"Guji Zone","lat":5.588,"lon":39.067,"geocoding":{},"distantMaxMiles":5},"Gēdo":{"countryName":"Ethiopia","stateName":"Oromia Region","name":"Gēdo","lat":9.01667,"lon":37.45,"geocoding":{},"distantMaxMiles":5},"Hagere Maryam":{"countryName":"Ethiopia","stateName":"Oromia Region","name":"Hagere Maryam","lat":5.63418,"lon":38.23603,"geocoding":{},"distantMaxMiles":5},"Huruta":{"countryName":"Ethiopia","stateName":"Oromia Region","name":"Huruta","lat":8.15,"lon":39.35,"geocoding":{},"distantMaxMiles":5},"Hāgere Hiywet":{"countryName":"Ethiopia","stateName":"Oromia Region","name":"Hāgere Hiywet","lat":8.98333,"lon":37.85,"geocoding":{},"distantMaxMiles":5},"Hīrna":{"countryName":"Ethiopia","stateName":"Oromia Region","name":"Hīrna","lat":9.21667,"lon":41.1,"geocoding":{},"distantMaxMiles":5},"Illubabor Zone":{"countryName":"Ethiopia","stateName":"Oromia Region","name":"Illubabor Zone","lat":8.27526,"lon":35.75596,"geocoding":{},"distantMaxMiles":5},"Jimma":{"countryName":"Ethiopia","stateName":"Oromia Region","name":"Jimma","lat":7.67344,"lon":36.83441,"geocoding":{},"distantMaxMiles":5},"Jimma Zone":{"countryName":"Ethiopia","stateName":"Oromia Region","name":"Jimma Zone","lat":7.66667,"lon":37,"geocoding":{},"distantMaxMiles":5},"Kibre Mengist":{"countryName":"Ethiopia","stateName":"Oromia Region","name":"Kibre Mengist","lat":5.88333,"lon":38.98333,"geocoding":{},"distantMaxMiles":5},"Kofelē":{"countryName":"Ethiopia","stateName":"Oromia Region","name":"Kofelē","lat":7.06667,"lon":38.78333,"geocoding":{},"distantMaxMiles":5},"Mendī":{"countryName":"Ethiopia","stateName":"Oromia Region","name":"Mendī","lat":9.8,"lon":35.1,"geocoding":{},"distantMaxMiles":5},"Metahāra":{"countryName":"Ethiopia","stateName":"Oromia Region","name":"Metahāra","lat":8.9,"lon":39.91667,"geocoding":{},"distantMaxMiles":5},"Metu":{"countryName":"Ethiopia","stateName":"Oromia Region","name":"Metu","lat":8.3,"lon":35.58333,"geocoding":{},"distantMaxMiles":5},"Mojo":{"countryName":"Ethiopia","stateName":"Oromia Region","name":"Mojo","lat":8.58679,"lon":39.12111,"geocoding":{},"distantMaxMiles":5},"Mēga":{"countryName":"Ethiopia","stateName":"Oromia Region","name":"Mēga","lat":4.05,"lon":38.3,"geocoding":{},"distantMaxMiles":5},"Nazrēt":{"countryName":"Ethiopia","stateName":"Oromia Region","name":"Nazrēt","lat":8.55,"lon":39.26667,"geocoding":{},"distantMaxMiles":5},"Nejo":{"countryName":"Ethiopia","stateName":"Oromia Region","name":"Nejo","lat":9.5,"lon":35.5,"geocoding":{},"distantMaxMiles":5},"North Shewa Zone":{"countryName":"Ethiopia","stateName":"Oromia Region","name":"North Shewa Zone","lat":9.66915,"lon":38.8124,"geocoding":{},"distantMaxMiles":5},"Sebeta":{"countryName":"Ethiopia","stateName":"Oromia Region","name":"Sebeta","lat":8.91667,"lon":38.61667,"geocoding":{},"distantMaxMiles":5},"Sendafa":{"countryName":"Ethiopia","stateName":"Oromia Region","name":"Sendafa","lat":9.15203,"lon":39.02335,"geocoding":{},"distantMaxMiles":5},"Shakiso":{"countryName":"Ethiopia","stateName":"Oromia Region","name":"Shakiso","lat":5.76494,"lon":38.91006,"geocoding":{},"distantMaxMiles":5},"Shambu":{"countryName":"Ethiopia","stateName":"Oromia Region","name":"Shambu","lat":9.56667,"lon":37.1,"geocoding":{},"distantMaxMiles":5},"Shashemenē":{"countryName":"Ethiopia","stateName":"Oromia Region","name":"Shashemenē","lat":7.2,"lon":38.6,"geocoding":{},"distantMaxMiles":5},"Sirre":{"countryName":"Ethiopia","stateName":"Oromia Region","name":"Sirre","lat":8.31667,"lon":39.48333,"geocoding":{},"distantMaxMiles":5},"Tulu Bolo":{"countryName":"Ethiopia","stateName":"Oromia Region","name":"Tulu Bolo","lat":8.66667,"lon":38.21667,"geocoding":{},"distantMaxMiles":5},"Waliso":{"countryName":"Ethiopia","stateName":"Oromia Region","name":"Waliso","lat":8.53417,"lon":37.96515,"geocoding":{},"distantMaxMiles":5},"Wenjī":{"countryName":"Ethiopia","stateName":"Oromia Region","name":"Wenjī","lat":8.45,"lon":39.28333,"geocoding":{},"distantMaxMiles":5},"West Harerghe Zone":{"countryName":"Ethiopia","stateName":"Oromia Region","name":"West Harerghe Zone","lat":8.67245,"lon":40.84885,"geocoding":{},"distantMaxMiles":5},"West Wellega Zone":{"countryName":"Ethiopia","stateName":"Oromia Region","name":"West Wellega Zone","lat":9.17283,"lon":35.05279,"geocoding":{},"distantMaxMiles":5},"Yabēlo":{"countryName":"Ethiopia","stateName":"Oromia Region","name":"Yabēlo","lat":4.88333,"lon":38.08333,"geocoding":{},"distantMaxMiles":5},"Ziway":{"countryName":"Ethiopia","stateName":"Oromia Region","name":"Ziway","lat":7.93333,"lon":38.71667,"geocoding":{},"distantMaxMiles":5},"Ādīs ‘Alem":{"countryName":"Ethiopia","stateName":"Oromia Region","name":"Ādīs ‘Alem","lat":9.03333,"lon":38.4,"geocoding":{},"distantMaxMiles":5},"Āgaro":{"countryName":"Ethiopia","stateName":"Oromia Region","name":"Āgaro","lat":7.85,"lon":36.65,"geocoding":{},"distantMaxMiles":5},"Āsasa":{"countryName":"Ethiopia","stateName":"Oromia Region","name":"Āsasa","lat":7.1,"lon":39.2,"geocoding":{},"distantMaxMiles":5},"Āsbe Teferī":{"countryName":"Ethiopia","stateName":"Oromia Region","name":"Āsbe Teferī","lat":9.08569,"lon":40.86708,"geocoding":{},"distantMaxMiles":5}}},"Somali Region":{"countryName":"Ethiopia","name":"Somali Region","isoCode":"SO","lat":6.6612293,"lon":43.7908453,"geocoding":{},"distantMaxMiles":5,"cities":{"Afder Zone":{"countryName":"Ethiopia","stateName":"Somali Region","name":"Afder Zone","lat":5.25,"lon":43,"geocoding":{},"distantMaxMiles":5},"Degehabur Zone":{"countryName":"Ethiopia","stateName":"Somali Region","name":"Degehabur Zone","lat":8.25,"lon":43.75,"geocoding":{},"distantMaxMiles":5},"Gode Zone":{"countryName":"Ethiopia","stateName":"Somali Region","name":"Gode Zone","lat":6,"lon":43.75,"geocoding":{},"distantMaxMiles":5},"Jijiga":{"countryName":"Ethiopia","stateName":"Somali Region","name":"Jijiga","lat":9.35,"lon":42.8,"geocoding":{},"distantMaxMiles":5},"Liben zone":{"countryName":"Ethiopia","stateName":"Somali Region","name":"Liben zone","lat":4.75,"lon":40.5,"geocoding":{},"distantMaxMiles":5},"Shinile Zone":{"countryName":"Ethiopia","stateName":"Somali Region","name":"Shinile Zone","lat":10.17097,"lon":41.83748,"geocoding":{},"distantMaxMiles":5}}},"Southern Nations, Nationalities, and Peoples' Region":{"countryName":"Ethiopia","name":"Southern Nations, Nationalities, and Peoples' Region","isoCode":"SN","lat":6.5156911,"lon":36.954107,"geocoding":{},"distantMaxMiles":5,"cities":{"Alaba Special Wereda":{"countryName":"Ethiopia","stateName":"Southern Nations, Nationalities, and Peoples' Region","name":"Alaba Special Wereda","lat":7.45347,"lon":38.21189,"geocoding":{},"distantMaxMiles":5},"Arba Minch":{"countryName":"Ethiopia","stateName":"Southern Nations, Nationalities, and Peoples' Region","name":"Arba Minch","lat":6.03333,"lon":37.55,"geocoding":{},"distantMaxMiles":5},"Bako":{"countryName":"Ethiopia","stateName":"Southern Nations, Nationalities, and Peoples' Region","name":"Bako","lat":5.78333,"lon":36.56667,"geocoding":{},"distantMaxMiles":5},"Bench Maji Zone":{"countryName":"Ethiopia","stateName":"Southern Nations, Nationalities, and Peoples' Region","name":"Bench Maji Zone","lat":6.45994,"lon":35.30549,"geocoding":{},"distantMaxMiles":5},"Bodītī":{"countryName":"Ethiopia","stateName":"Southern Nations, Nationalities, and Peoples' Region","name":"Bodītī","lat":6.96667,"lon":37.86667,"geocoding":{},"distantMaxMiles":5},"Bonga":{"countryName":"Ethiopia","stateName":"Southern Nations, Nationalities, and Peoples' Region","name":"Bonga","lat":7.28333,"lon":36.23333,"geocoding":{},"distantMaxMiles":5},"Butajīra":{"countryName":"Ethiopia","stateName":"Southern Nations, Nationalities, and Peoples' Region","name":"Butajīra","lat":8.11667,"lon":38.36667,"geocoding":{},"distantMaxMiles":5},"Dīla":{"countryName":"Ethiopia","stateName":"Southern Nations, Nationalities, and Peoples' Region","name":"Dīla","lat":6.41667,"lon":38.31667,"geocoding":{},"distantMaxMiles":5},"Felege Neway":{"countryName":"Ethiopia","stateName":"Southern Nations, Nationalities, and Peoples' Region","name":"Felege Neway","lat":6.3,"lon":36.88333,"geocoding":{},"distantMaxMiles":5},"Gedeo Zone":{"countryName":"Ethiopia","stateName":"Southern Nations, Nationalities, and Peoples' Region","name":"Gedeo Zone","lat":6.12727,"lon":38.27716,"geocoding":{},"distantMaxMiles":5},"Guraghe Zone":{"countryName":"Ethiopia","stateName":"Southern Nations, Nationalities, and Peoples' Region","name":"Guraghe Zone","lat":8.25,"lon":38,"geocoding":{},"distantMaxMiles":5},"Gīdolē":{"countryName":"Ethiopia","stateName":"Southern Nations, Nationalities, and Peoples' Region","name":"Gīdolē","lat":5.65,"lon":37.36667,"geocoding":{},"distantMaxMiles":5},"Hadiya Zone":{"countryName":"Ethiopia","stateName":"Southern Nations, Nationalities, and Peoples' Region","name":"Hadiya Zone","lat":7.5,"lon":37.75,"geocoding":{},"distantMaxMiles":5},"Hawassa":{"countryName":"Ethiopia","stateName":"Southern Nations, Nationalities, and Peoples' Region","name":"Hawassa","lat":7.06205,"lon":38.47635,"geocoding":{},"distantMaxMiles":5},"Hosa’ina":{"countryName":"Ethiopia","stateName":"Southern Nations, Nationalities, and Peoples' Region","name":"Hosa’ina","lat":7.54978,"lon":37.85374,"geocoding":{},"distantMaxMiles":5},"Hāgere Selam":{"countryName":"Ethiopia","stateName":"Southern Nations, Nationalities, and Peoples' Region","name":"Hāgere Selam","lat":6.48333,"lon":38.51667,"geocoding":{},"distantMaxMiles":5},"Jinka":{"countryName":"Ethiopia","stateName":"Southern Nations, Nationalities, and Peoples' Region","name":"Jinka","lat":5.65,"lon":36.65,"geocoding":{},"distantMaxMiles":5},"Kembata Alaba Tembaro Zone":{"countryName":"Ethiopia","stateName":"Southern Nations, Nationalities, and Peoples' Region","name":"Kembata Alaba Tembaro Zone","lat":7.27039,"lon":37.77887,"geocoding":{},"distantMaxMiles":5},"Konso":{"countryName":"Ethiopia","stateName":"Southern Nations, Nationalities, and Peoples' Region","name":"Konso","lat":5.25,"lon":37.48333,"geocoding":{},"distantMaxMiles":5},"K’olīto":{"countryName":"Ethiopia","stateName":"Southern Nations, Nationalities, and Peoples' Region","name":"K’olīto","lat":7.31667,"lon":38.08333,"geocoding":{},"distantMaxMiles":5},"Leku":{"countryName":"Ethiopia","stateName":"Southern Nations, Nationalities, and Peoples' Region","name":"Leku","lat":6.87309,"lon":38.44425,"geocoding":{},"distantMaxMiles":5},"Lobuni":{"countryName":"Ethiopia","stateName":"Southern Nations, Nationalities, and Peoples' Region","name":"Lobuni","lat":4.83333,"lon":36.1,"geocoding":{},"distantMaxMiles":5},"Mīzan Teferī":{"countryName":"Ethiopia","stateName":"Southern Nations, Nationalities, and Peoples' Region","name":"Mīzan Teferī","lat":6.99865,"lon":35.58879,"geocoding":{},"distantMaxMiles":5},"Sheka Zone":{"countryName":"Ethiopia","stateName":"Southern Nations, Nationalities, and Peoples' Region","name":"Sheka Zone","lat":7.56166,"lon":35.40174,"geocoding":{},"distantMaxMiles":5},"Sidama Zone":{"countryName":"Ethiopia","stateName":"Southern Nations, Nationalities, and Peoples' Region","name":"Sidama Zone","lat":6.718,"lon":38.448,"geocoding":{},"distantMaxMiles":5},"Sodo":{"countryName":"Ethiopia","stateName":"Southern Nations, Nationalities, and Peoples' Region","name":"Sodo","lat":6.86,"lon":37.76159,"geocoding":{},"distantMaxMiles":5},"Tippi":{"countryName":"Ethiopia","stateName":"Southern Nations, Nationalities, and Peoples' Region","name":"Tippi","lat":7.2,"lon":35.45,"geocoding":{},"distantMaxMiles":5},"Turmi":{"countryName":"Ethiopia","stateName":"Southern Nations, Nationalities, and Peoples' Region","name":"Turmi","lat":4.96667,"lon":36.48333,"geocoding":{},"distantMaxMiles":5},"Wendo":{"countryName":"Ethiopia","stateName":"Southern Nations, Nationalities, and Peoples' Region","name":"Wendo","lat":6.6,"lon":38.41667,"geocoding":{},"distantMaxMiles":5},"Wolayita Zone":{"countryName":"Ethiopia","stateName":"Southern Nations, Nationalities, and Peoples' Region","name":"Wolayita Zone","lat":6.84312,"lon":37.70051,"geocoding":{},"distantMaxMiles":5},"Yem":{"countryName":"Ethiopia","stateName":"Southern Nations, Nationalities, and Peoples' Region","name":"Yem","lat":7.83333,"lon":37.5,"geocoding":{},"distantMaxMiles":5},"Yirga ‘Alem":{"countryName":"Ethiopia","stateName":"Southern Nations, Nationalities, and Peoples' Region","name":"Yirga ‘Alem","lat":6.75,"lon":38.41667,"geocoding":{},"distantMaxMiles":5},"Āreka":{"countryName":"Ethiopia","stateName":"Southern Nations, Nationalities, and Peoples' Region","name":"Āreka","lat":7.06667,"lon":37.7,"geocoding":{},"distantMaxMiles":5}}},"Tigray Region":{"countryName":"Ethiopia","name":"Tigray Region","isoCode":"TI","lat":14.0323336,"lon":38.3165725,"geocoding":{},"distantMaxMiles":5,"cities":{"Axum":{"countryName":"Ethiopia","stateName":"Tigray Region","name":"Axum","lat":14.12109,"lon":38.72337,"geocoding":{},"distantMaxMiles":5},"Inda Silasē":{"countryName":"Ethiopia","stateName":"Tigray Region","name":"Inda Silasē","lat":14.10307,"lon":38.28289,"geocoding":{},"distantMaxMiles":5},"Korem":{"countryName":"Ethiopia","stateName":"Tigray Region","name":"Korem","lat":12.50583,"lon":39.52278,"geocoding":{},"distantMaxMiles":5},"Maych’ew":{"countryName":"Ethiopia","stateName":"Tigray Region","name":"Maych’ew","lat":12.7875,"lon":39.54222,"geocoding":{},"distantMaxMiles":5},"Mek'ele":{"countryName":"Ethiopia","stateName":"Tigray Region","name":"Mek'ele","lat":13.49667,"lon":39.47528,"geocoding":{},"distantMaxMiles":5},"Southeastern Tigray Zone":{"countryName":"Ethiopia","stateName":"Tigray Region","name":"Southeastern Tigray Zone","lat":13.24797,"lon":39.53156,"geocoding":{},"distantMaxMiles":5},"Southern Tigray Zone":{"countryName":"Ethiopia","stateName":"Tigray Region","name":"Southern Tigray Zone","lat":12.96033,"lon":39.52831,"geocoding":{},"distantMaxMiles":5},"Ādīgrat":{"countryName":"Ethiopia","stateName":"Tigray Region","name":"Ādīgrat","lat":14.277,"lon":39.462,"geocoding":{},"distantMaxMiles":5}}}}}