{"name":"Hong Kong S.A.R.","isoCode":"HK","lat":22.25,"lon":114.16666666,"geocoding":{},"distantMaxMiles":5,"states":{"Central and Western District":{"countryName":"Hong Kong S.A.R.","name":"Central and Western District","isoCode":"HCW","lat":22.28666,"lon":114.15497,"geocoding":{},"distantMaxMiles":5,"cities":{}},"Eastern":{"countryName":"Hong Kong S.A.R.","name":"Eastern","isoCode":"HEA","lat":22.28411,"lon":114.22414,"geocoding":{},"distantMaxMiles":5,"cities":{}},"Islands District":{"countryName":"Hong Kong S.A.R.","name":"Islands District","isoCode":"NIS","lat":22.26114,"lon":113.94608,"geocoding":{},"distantMaxMiles":5,"cities":{}},"Kowloon City":{"countryName":"Hong Kong S.A.R.","name":"Kowloon City","isoCode":"KKC","lat":22.3282,"lon":114.19155,"geocoding":{},"distantMaxMiles":5,"cities":{}},"Kwai Tsing":{"countryName":"Hong Kong S.A.R.","name":"Kwai Tsing","isoCode":"NKT","lat":22.35488,"lon":114.08401,"geocoding":{},"distantMaxMiles":5,"cities":{}},"Kwun Tong":{"countryName":"Hong Kong S.A.R.","name":"Kwun Tong","isoCode":"KKT","lat":22.31326,"lon":114.22581,"geocoding":{},"distantMaxMiles":5,"cities":{}},"North":{"countryName":"Hong Kong S.A.R.","name":"North","isoCode":"NNO","lat":22.49471,"lon":114.13812,"geocoding":{},"distantMaxMiles":5,"cities":{}},"Sai Kung District":{"countryName":"Hong Kong S.A.R.","name":"Sai Kung District","isoCode":"NSK","lat":22.38143,"lon":114.27052,"geocoding":{},"distantMaxMiles":5,"cities":{}},"Sha Tin":{"countryName":"Hong Kong S.A.R.","name":"Sha Tin","isoCode":"NST","lat":22.38715,"lon":114.19534,"geocoding":{},"distantMaxMiles":5,"cities":{}},"Sham Shui Po":{"countryName":"Hong Kong S.A.R.","name":"Sham Shui Po","isoCode":"KSS","lat":22.33074,"lon":114.1622,"geocoding":{},"distantMaxMiles":5,"cities":{}},"Southern":{"countryName":"Hong Kong S.A.R.","name":"Southern","isoCode":"HSO","lat":22.24725,"lon":114.15884,"geocoding":{},"distantMaxMiles":5,"cities":{}},"Tsuen Wan District":{"countryName":"Hong Kong S.A.R.","name":"Tsuen Wan District","isoCode":"NTW","lat":22.36281,"lon":114.12907,"geocoding":{},"distantMaxMiles":5,"cities":{}},"Tuen Mun":{"countryName":"Hong Kong S.A.R.","name":"Tuen Mun","isoCode":"NTM","lat":22.39163,"lon":113.9770885,"geocoding":{},"distantMaxMiles":5,"cities":{}},"Wan Chai":{"countryName":"Hong Kong S.A.R.","name":"Wan Chai","isoCode":"HWC","lat":22.27968,"lon":114.17168,"geocoding":{},"distantMaxMiles":5,"cities":{}},"Wong Tai Sin":{"countryName":"Hong Kong S.A.R.","name":"Wong Tai Sin","isoCode":"KWT","lat":22.33353,"lon":114.19686,"geocoding":{},"distantMaxMiles":5,"cities":{}},"Yau Tsim Mong":{"countryName":"Hong Kong S.A.R.","name":"Yau Tsim Mong","isoCode":"KYT","lat":22.32138,"lon":114.1726,"geocoding":{},"distantMaxMiles":5,"cities":{}},"Yuen Long District":{"countryName":"Hong Kong S.A.R.","name":"Yuen Long District","isoCode":"NYL","lat":22.44559,"lon":114.02218,"geocoding":{},"distantMaxMiles":5,"cities":{}}}}