{"name":"Turkey","isoCode":"TR","lat":39,"lon":35,"geocoding":{},"distantMaxMiles":5,"states":{"Adana":{"countryName":"Turkey","name":"Adana","isoCode":"01","lat":37.2612315,"lon":35.3905046,"geocoding":{},"distantMaxMiles":5,"cities":{"Adana":{"countryName":"Turkey","stateName":"Adana","name":"Adana","lat":37.00167,"lon":35.32889,"geocoding":{},"distantMaxMiles":5},"Aladağ":{"countryName":"Turkey","stateName":"Adana","name":"Aladağ","lat":37.55854,"lon":35.40196,"geocoding":{},"distantMaxMiles":5},"Bahçe":{"countryName":"Turkey","stateName":"Adana","name":"Bahçe","lat":37.19724,"lon":36.57658,"geocoding":{},"distantMaxMiles":5},"Ceyhan":{"countryName":"Turkey","stateName":"Adana","name":"Ceyhan","lat":37.02472,"lon":35.8175,"geocoding":{},"distantMaxMiles":5},"Feke":{"countryName":"Turkey","stateName":"Adana","name":"Feke","lat":37.82405,"lon":35.91826,"geocoding":{},"distantMaxMiles":5},"Karaisalı":{"countryName":"Turkey","stateName":"Adana","name":"Karaisalı","lat":37.26655,"lon":35.05033,"geocoding":{},"distantMaxMiles":5},"Karataş":{"countryName":"Turkey","stateName":"Adana","name":"Karataş","lat":36.57186,"lon":35.36784,"geocoding":{},"distantMaxMiles":5},"Kozan":{"countryName":"Turkey","stateName":"Adana","name":"Kozan","lat":37.5,"lon":35.75,"geocoding":{},"distantMaxMiles":5},"Pozantı":{"countryName":"Turkey","stateName":"Adana","name":"Pozantı","lat":37.43671,"lon":34.88057,"geocoding":{},"distantMaxMiles":5},"Saimbeyli":{"countryName":"Turkey","stateName":"Adana","name":"Saimbeyli","lat":37.99615,"lon":36.09909,"geocoding":{},"distantMaxMiles":5},"Sarıçam":{"countryName":"Turkey","stateName":"Adana","name":"Sarıçam","lat":37.14971,"lon":35.50949,"geocoding":{},"distantMaxMiles":5},"Seyhan":{"countryName":"Turkey","stateName":"Adana","name":"Seyhan","lat":36.9554,"lon":35.21637,"geocoding":{},"distantMaxMiles":5},"Tufanbeyli":{"countryName":"Turkey","stateName":"Adana","name":"Tufanbeyli","lat":38.27343,"lon":36.22731,"geocoding":{},"distantMaxMiles":5},"Yumurtalık":{"countryName":"Turkey","stateName":"Adana","name":"Yumurtalık","lat":36.78245,"lon":35.79949,"geocoding":{},"distantMaxMiles":5},"Yüreğir":{"countryName":"Turkey","stateName":"Adana","name":"Yüreğir","lat":36.99205,"lon":35.45402,"geocoding":{},"distantMaxMiles":5},"Çukurova":{"countryName":"Turkey","stateName":"Adana","name":"Çukurova","lat":37.05627,"lon":35.13119,"geocoding":{},"distantMaxMiles":5},"İmamoğlu":{"countryName":"Turkey","stateName":"Adana","name":"İmamoğlu","lat":37.275,"lon":35.66649,"geocoding":{},"distantMaxMiles":5}}},"Adıyaman":{"countryName":"Turkey","name":"Adıyaman","isoCode":"02","lat":37.9078291,"lon":38.4849923,"geocoding":{},"distantMaxMiles":5,"cities":{"Adıyaman":{"countryName":"Turkey","stateName":"Adıyaman","name":"Adıyaman","lat":37.76441,"lon":38.27629,"geocoding":{},"distantMaxMiles":5},"Aralık İlçesi":{"countryName":"Turkey","stateName":"Adıyaman","name":"Aralık İlçesi","lat":39.88314,"lon":44.5233,"geocoding":{},"distantMaxMiles":5},"Besni":{"countryName":"Turkey","stateName":"Adıyaman","name":"Besni","lat":37.69278,"lon":37.86111,"geocoding":{},"distantMaxMiles":5},"Gerger":{"countryName":"Turkey","stateName":"Adıyaman","name":"Gerger","lat":37.95,"lon":39.01667,"geocoding":{},"distantMaxMiles":5},"Gölbaşı":{"countryName":"Turkey","stateName":"Adıyaman","name":"Gölbaşı","lat":37.78361,"lon":37.63667,"geocoding":{},"distantMaxMiles":5},"Kâhta":{"countryName":"Turkey","stateName":"Adıyaman","name":"Kâhta","lat":37.78552,"lon":38.6237,"geocoding":{},"distantMaxMiles":5},"Merkez":{"countryName":"Turkey","stateName":"Adıyaman","name":"Merkez","lat":37.74454,"lon":38.26801,"geocoding":{},"distantMaxMiles":5},"Samsat":{"countryName":"Turkey","stateName":"Adıyaman","name":"Samsat","lat":37.58194,"lon":38.47417,"geocoding":{},"distantMaxMiles":5},"Sincik":{"countryName":"Turkey","stateName":"Adıyaman","name":"Sincik","lat":38.03645,"lon":38.61257,"geocoding":{},"distantMaxMiles":5},"Tut":{"countryName":"Turkey","stateName":"Adıyaman","name":"Tut","lat":37.79529,"lon":37.9161,"geocoding":{},"distantMaxMiles":5},"Çelikhan":{"countryName":"Turkey","stateName":"Adıyaman","name":"Çelikhan","lat":38.0256,"lon":38.23665,"geocoding":{},"distantMaxMiles":5}}},"Afyonkarahisar":{"countryName":"Turkey","name":"Afyonkarahisar","isoCode":"03","lat":38.7391099,"lon":30.7120023,"geocoding":{},"distantMaxMiles":5,"cities":{"Afyonkarahisar":{"countryName":"Turkey","stateName":"Afyonkarahisar","name":"Afyonkarahisar","lat":38.75667,"lon":30.54333,"geocoding":{},"distantMaxMiles":5},"Bayat":{"countryName":"Turkey","stateName":"Afyonkarahisar","name":"Bayat","lat":38.98306,"lon":30.92472,"geocoding":{},"distantMaxMiles":5},"Başmakçı":{"countryName":"Turkey","stateName":"Afyonkarahisar","name":"Başmakçı","lat":37.89722,"lon":30.01167,"geocoding":{},"distantMaxMiles":5},"Bolvadin":{"countryName":"Turkey","stateName":"Afyonkarahisar","name":"Bolvadin","lat":38.71111,"lon":31.04861,"geocoding":{},"distantMaxMiles":5},"Dazkırı":{"countryName":"Turkey","stateName":"Afyonkarahisar","name":"Dazkırı","lat":37.91861,"lon":29.86056,"geocoding":{},"distantMaxMiles":5},"Dinar":{"countryName":"Turkey","stateName":"Afyonkarahisar","name":"Dinar","lat":38.065,"lon":30.16557,"geocoding":{},"distantMaxMiles":5},"Emirdağ":{"countryName":"Turkey","stateName":"Afyonkarahisar","name":"Emirdağ","lat":39.01972,"lon":31.15,"geocoding":{},"distantMaxMiles":5},"Evciler":{"countryName":"Turkey","stateName":"Afyonkarahisar","name":"Evciler","lat":38.04139,"lon":29.88667,"geocoding":{},"distantMaxMiles":5},"Hocalar":{"countryName":"Turkey","stateName":"Afyonkarahisar","name":"Hocalar","lat":38.57824,"lon":29.96768,"geocoding":{},"distantMaxMiles":5},"Işıklar":{"countryName":"Turkey","stateName":"Afyonkarahisar","name":"Işıklar","lat":38.67101,"lon":30.74098,"geocoding":{},"distantMaxMiles":5},"Kızılören":{"countryName":"Turkey","stateName":"Afyonkarahisar","name":"Kızılören","lat":38.25806,"lon":30.15167,"geocoding":{},"distantMaxMiles":5},"Merkez":{"countryName":"Turkey","stateName":"Afyonkarahisar","name":"Merkez","lat":38.79698,"lon":30.51951,"geocoding":{},"distantMaxMiles":5},"Sandıklı":{"countryName":"Turkey","stateName":"Afyonkarahisar","name":"Sandıklı","lat":38.46472,"lon":30.26946,"geocoding":{},"distantMaxMiles":5},"Sinanpaşa":{"countryName":"Turkey","stateName":"Afyonkarahisar","name":"Sinanpaşa","lat":38.74444,"lon":30.24278,"geocoding":{},"distantMaxMiles":5},"Sultandağı":{"countryName":"Turkey","stateName":"Afyonkarahisar","name":"Sultandağı","lat":38.53111,"lon":31.22806,"geocoding":{},"distantMaxMiles":5},"Çay":{"countryName":"Turkey","stateName":"Afyonkarahisar","name":"Çay","lat":38.59167,"lon":31.02861,"geocoding":{},"distantMaxMiles":5},"Çobanlar İlçesi":{"countryName":"Turkey","stateName":"Afyonkarahisar","name":"Çobanlar İlçesi","lat":38.71085,"lon":30.78874,"geocoding":{},"distantMaxMiles":5},"İhsaniye":{"countryName":"Turkey","stateName":"Afyonkarahisar","name":"İhsaniye","lat":39.02916,"lon":30.41639,"geocoding":{},"distantMaxMiles":5},"İscehisar":{"countryName":"Turkey","stateName":"Afyonkarahisar","name":"İscehisar","lat":38.939,"lon":30.75002,"geocoding":{},"distantMaxMiles":5},"Şuhut":{"countryName":"Turkey","stateName":"Afyonkarahisar","name":"Şuhut","lat":38.53111,"lon":30.54583,"geocoding":{},"distantMaxMiles":5}}},"Aksaray":{"countryName":"Turkey","name":"Aksaray","isoCode":"68","lat":38.3352043,"lon":33.9750018,"geocoding":{},"distantMaxMiles":5,"cities":{"Aksaray":{"countryName":"Turkey","stateName":"Aksaray","name":"Aksaray","lat":38.37255,"lon":34.02537,"geocoding":{},"distantMaxMiles":5},"Ağaçören":{"countryName":"Turkey","stateName":"Aksaray","name":"Ağaçören","lat":38.87484,"lon":33.91674,"geocoding":{},"distantMaxMiles":5},"Eskil İlçesi":{"countryName":"Turkey","stateName":"Aksaray","name":"Eskil İlçesi","lat":38.41158,"lon":33.41994,"geocoding":{},"distantMaxMiles":5},"Gülağaç İlçesi":{"countryName":"Turkey","stateName":"Aksaray","name":"Gülağaç İlçesi","lat":38.40641,"lon":34.35071,"geocoding":{},"distantMaxMiles":5},"Güzelyurt":{"countryName":"Turkey","stateName":"Aksaray","name":"Güzelyurt","lat":38.27722,"lon":34.37194,"geocoding":{},"distantMaxMiles":5},"Merkez":{"countryName":"Turkey","stateName":"Aksaray","name":"Merkez","lat":38.3706,"lon":34.02843,"geocoding":{},"distantMaxMiles":5},"Ortaköy":{"countryName":"Turkey","stateName":"Aksaray","name":"Ortaköy","lat":38.73728,"lon":34.03866,"geocoding":{},"distantMaxMiles":5},"Sarıyahşi":{"countryName":"Turkey","stateName":"Aksaray","name":"Sarıyahşi","lat":38.98349,"lon":33.84136,"geocoding":{},"distantMaxMiles":5},"Sultanhanı":{"countryName":"Turkey","stateName":"Aksaray","name":"Sultanhanı","lat":38.2471,"lon":33.54961,"geocoding":{},"distantMaxMiles":5}}},"Amasya":{"countryName":"Turkey","name":"Amasya","isoCode":"05","lat":40.6516608,"lon":35.9037966,"geocoding":{},"distantMaxMiles":5,"cities":{"Amasya":{"countryName":"Turkey","stateName":"Amasya","name":"Amasya","lat":40.65333,"lon":35.83306,"geocoding":{},"distantMaxMiles":5},"Dedeköy":{"countryName":"Turkey","stateName":"Amasya","name":"Dedeköy","lat":40.74752,"lon":35.04249,"geocoding":{},"distantMaxMiles":5},"Göynücek":{"countryName":"Turkey","stateName":"Amasya","name":"Göynücek","lat":40.39917,"lon":35.525,"geocoding":{},"distantMaxMiles":5},"Gümüşhacıköy":{"countryName":"Turkey","stateName":"Amasya","name":"Gümüşhacıköy","lat":40.87306,"lon":35.21472,"geocoding":{},"distantMaxMiles":5},"Hamamözü İlçesi":{"countryName":"Turkey","stateName":"Amasya","name":"Hamamözü İlçesi","lat":40.79539,"lon":35.03367,"geocoding":{},"distantMaxMiles":5},"Merkez":{"countryName":"Turkey","stateName":"Amasya","name":"Merkez","lat":40.61939,"lon":35.87016,"geocoding":{},"distantMaxMiles":5},"Merzifon İlçesi":{"countryName":"Turkey","stateName":"Amasya","name":"Merzifon İlçesi","lat":40.88348,"lon":35.47116,"geocoding":{},"distantMaxMiles":5},"Suluova":{"countryName":"Turkey","stateName":"Amasya","name":"Suluova","lat":40.83129,"lon":35.64788,"geocoding":{},"distantMaxMiles":5},"Taşova":{"countryName":"Turkey","stateName":"Amasya","name":"Taşova","lat":40.75972,"lon":36.3225,"geocoding":{},"distantMaxMiles":5}}},"Ankara":{"countryName":"Turkey","name":"Ankara","isoCode":"06","lat":39.7805245,"lon":32.7181375,"geocoding":{},"distantMaxMiles":5,"cities":{"Akyurt":{"countryName":"Turkey","stateName":"Ankara","name":"Akyurt","lat":40.13512,"lon":33.08614,"geocoding":{},"distantMaxMiles":5},"Altpınar":{"countryName":"Turkey","stateName":"Ankara","name":"Altpınar","lat":39.20417,"lon":32.74778,"geocoding":{},"distantMaxMiles":5},"Altındağ":{"countryName":"Turkey","stateName":"Ankara","name":"Altındağ","lat":40.0011,"lon":32.97022,"geocoding":{},"distantMaxMiles":5},"Ankara":{"countryName":"Turkey","stateName":"Ankara","name":"Ankara","lat":39.91987,"lon":32.85427,"geocoding":{},"distantMaxMiles":5},"Ayaş":{"countryName":"Turkey","stateName":"Ankara","name":"Ayaş","lat":40.01933,"lon":32.33221,"geocoding":{},"distantMaxMiles":5},"Bala İlçesi":{"countryName":"Turkey","stateName":"Ankara","name":"Bala İlçesi","lat":39.56374,"lon":33.12962,"geocoding":{},"distantMaxMiles":5},"Batikent":{"countryName":"Turkey","stateName":"Ankara","name":"Batikent","lat":39.96833,"lon":32.73083,"geocoding":{},"distantMaxMiles":5},"Beypazari":{"countryName":"Turkey","stateName":"Ankara","name":"Beypazari","lat":40.14695,"lon":31.91911,"geocoding":{},"distantMaxMiles":5},"Beypazarı":{"countryName":"Turkey","stateName":"Ankara","name":"Beypazarı","lat":40.1675,"lon":31.92111,"geocoding":{},"distantMaxMiles":5},"Elmadağ":{"countryName":"Turkey","stateName":"Ankara","name":"Elmadağ","lat":39.92083,"lon":33.23083,"geocoding":{},"distantMaxMiles":5},"Etimesgut İlçesi":{"countryName":"Turkey","stateName":"Ankara","name":"Etimesgut İlçesi","lat":39.96335,"lon":32.63744,"geocoding":{},"distantMaxMiles":5},"Evren":{"countryName":"Turkey","stateName":"Ankara","name":"Evren","lat":39.02402,"lon":33.80626,"geocoding":{},"distantMaxMiles":5},"Gölbaşı":{"countryName":"Turkey","stateName":"Ankara","name":"Gölbaşı","lat":39.79043,"lon":32.80903,"geocoding":{},"distantMaxMiles":5},"Güdül":{"countryName":"Turkey","stateName":"Ankara","name":"Güdül","lat":40.21051,"lon":32.24552,"geocoding":{},"distantMaxMiles":5},"Haymana":{"countryName":"Turkey","stateName":"Ankara","name":"Haymana","lat":39.43212,"lon":32.49732,"geocoding":{},"distantMaxMiles":5},"Kahramankazan":{"countryName":"Turkey","stateName":"Ankara","name":"Kahramankazan","lat":40.16502,"lon":32.63904,"geocoding":{},"distantMaxMiles":5},"Kalecik":{"countryName":"Turkey","stateName":"Ankara","name":"Kalecik","lat":40.09722,"lon":33.40833,"geocoding":{},"distantMaxMiles":5},"Kazan":{"countryName":"Turkey","stateName":"Ankara","name":"Kazan","lat":40.23167,"lon":32.68389,"geocoding":{},"distantMaxMiles":5},"Keçiören":{"countryName":"Turkey","stateName":"Ankara","name":"Keçiören","lat":40.02106,"lon":32.83102,"geocoding":{},"distantMaxMiles":5},"Kızılcahamam":{"countryName":"Turkey","stateName":"Ankara","name":"Kızılcahamam","lat":40.46972,"lon":32.65056,"geocoding":{},"distantMaxMiles":5},"Mamak İlçesi":{"countryName":"Turkey","stateName":"Ankara","name":"Mamak İlçesi","lat":39.94587,"lon":32.90811,"geocoding":{},"distantMaxMiles":5},"Nallıhan":{"countryName":"Turkey","stateName":"Ankara","name":"Nallıhan","lat":40.18593,"lon":31.35179,"geocoding":{},"distantMaxMiles":5},"Polatlı":{"countryName":"Turkey","stateName":"Ankara","name":"Polatlı","lat":39.57715,"lon":32.14132,"geocoding":{},"distantMaxMiles":5},"Pursaklar":{"countryName":"Turkey","stateName":"Ankara","name":"Pursaklar","lat":40.03961,"lon":32.90139,"geocoding":{},"distantMaxMiles":5},"Sincan İlçesi":{"countryName":"Turkey","stateName":"Ankara","name":"Sincan İlçesi","lat":39.95943,"lon":32.49567,"geocoding":{},"distantMaxMiles":5},"Yenimahalle":{"countryName":"Turkey","stateName":"Ankara","name":"Yenimahalle","lat":39.99043,"lon":32.69555,"geocoding":{},"distantMaxMiles":5},"Çamlıdere":{"countryName":"Turkey","stateName":"Ankara","name":"Çamlıdere","lat":40.48958,"lon":32.47499,"geocoding":{},"distantMaxMiles":5},"Çankaya":{"countryName":"Turkey","stateName":"Ankara","name":"Çankaya","lat":39.9179,"lon":32.86268,"geocoding":{},"distantMaxMiles":5},"Çubuk":{"countryName":"Turkey","stateName":"Ankara","name":"Çubuk","lat":40.23861,"lon":33.03222,"geocoding":{},"distantMaxMiles":5},"Şereflikoçhisar":{"countryName":"Turkey","stateName":"Ankara","name":"Şereflikoçhisar","lat":38.93925,"lon":33.5386,"geocoding":{},"distantMaxMiles":5}}},"Antalya":{"countryName":"Turkey","name":"Antalya","isoCode":"07","lat":37.0951672,"lon":31.0793705,"geocoding":{},"distantMaxMiles":5,"cities":{"Akseki":{"countryName":"Turkey","stateName":"Antalya","name":"Akseki","lat":37.04861,"lon":31.79,"geocoding":{},"distantMaxMiles":5},"Aksu":{"countryName":"Turkey","stateName":"Antalya","name":"Aksu","lat":36.95389,"lon":30.84778,"geocoding":{},"distantMaxMiles":5},"Alanya":{"countryName":"Turkey","stateName":"Antalya","name":"Alanya","lat":36.54375,"lon":31.99982,"geocoding":{},"distantMaxMiles":5},"Antalya":{"countryName":"Turkey","stateName":"Antalya","name":"Antalya","lat":36.90812,"lon":30.69556,"geocoding":{},"distantMaxMiles":5},"Avsallar":{"countryName":"Turkey","stateName":"Antalya","name":"Avsallar","lat":36.62448,"lon":31.76941,"geocoding":{},"distantMaxMiles":5},"Belek":{"countryName":"Turkey","stateName":"Antalya","name":"Belek","lat":36.86278,"lon":31.05556,"geocoding":{},"distantMaxMiles":5},"Beykonak":{"countryName":"Turkey","stateName":"Antalya","name":"Beykonak","lat":36.32573,"lon":30.30302,"geocoding":{},"distantMaxMiles":5},"Boğazkent":{"countryName":"Turkey","stateName":"Antalya","name":"Boğazkent","lat":36.85319,"lon":31.16388,"geocoding":{},"distantMaxMiles":5},"Demre":{"countryName":"Turkey","stateName":"Antalya","name":"Demre","lat":36.24444,"lon":29.985,"geocoding":{},"distantMaxMiles":5},"Döşemealtı İlçesi":{"countryName":"Turkey","stateName":"Antalya","name":"Döşemealtı İlçesi","lat":37.02366,"lon":30.5904,"geocoding":{},"distantMaxMiles":5},"Eksere":{"countryName":"Turkey","stateName":"Antalya","name":"Eksere","lat":36.81339,"lon":31.99971,"geocoding":{},"distantMaxMiles":5},"Elmalı":{"countryName":"Turkey","stateName":"Antalya","name":"Elmalı","lat":36.73583,"lon":29.91775,"geocoding":{},"distantMaxMiles":5},"Evrenseki":{"countryName":"Turkey","stateName":"Antalya","name":"Evrenseki","lat":36.83868,"lon":31.35559,"geocoding":{},"distantMaxMiles":5},"Finike":{"countryName":"Turkey","stateName":"Antalya","name":"Finike","lat":36.42355,"lon":30.06645,"geocoding":{},"distantMaxMiles":5},"Gazipaşa":{"countryName":"Turkey","stateName":"Antalya","name":"Gazipaşa","lat":36.26942,"lon":32.31792,"geocoding":{},"distantMaxMiles":5},"Göynük":{"countryName":"Turkey","stateName":"Antalya","name":"Göynük","lat":36.66,"lon":30.55,"geocoding":{},"distantMaxMiles":5},"Gündoğmuş İlçesi":{"countryName":"Turkey","stateName":"Antalya","name":"Gündoğmuş İlçesi","lat":36.82446,"lon":32.00679,"geocoding":{},"distantMaxMiles":5},"Kalkan":{"countryName":"Turkey","stateName":"Antalya","name":"Kalkan","lat":36.2651,"lon":29.41369,"geocoding":{},"distantMaxMiles":5},"Kaş":{"countryName":"Turkey","stateName":"Antalya","name":"Kaş","lat":36.20176,"lon":29.63766,"geocoding":{},"distantMaxMiles":5},"Kemer":{"countryName":"Turkey","stateName":"Antalya","name":"Kemer","lat":36.59778,"lon":30.56056,"geocoding":{},"distantMaxMiles":5},"Kepez İlçesi":{"countryName":"Turkey","stateName":"Antalya","name":"Kepez İlçesi","lat":37.01187,"lon":30.75966,"geocoding":{},"distantMaxMiles":5},"Konyaaltı":{"countryName":"Turkey","stateName":"Antalya","name":"Konyaaltı","lat":36.86424,"lon":30.62714,"geocoding":{},"distantMaxMiles":5},"Korkuteli":{"countryName":"Turkey","stateName":"Antalya","name":"Korkuteli","lat":37.06498,"lon":30.19565,"geocoding":{},"distantMaxMiles":5},"Kumköy":{"countryName":"Turkey","stateName":"Antalya","name":"Kumköy","lat":36.88286,"lon":30.95178,"geocoding":{},"distantMaxMiles":5},"Kumluca":{"countryName":"Turkey","stateName":"Antalya","name":"Kumluca","lat":36.58,"lon":30.3,"geocoding":{},"distantMaxMiles":5},"Kızılağaç":{"countryName":"Turkey","stateName":"Antalya","name":"Kızılağaç","lat":36.73055,"lon":31.53517,"geocoding":{},"distantMaxMiles":5},"Mahmutlar":{"countryName":"Turkey","stateName":"Antalya","name":"Mahmutlar","lat":36.49463,"lon":32.09085,"geocoding":{},"distantMaxMiles":5},"Manavgat":{"countryName":"Turkey","stateName":"Antalya","name":"Manavgat","lat":36.78667,"lon":31.44306,"geocoding":{},"distantMaxMiles":5},"Muratpaşa":{"countryName":"Turkey","stateName":"Antalya","name":"Muratpaşa","lat":36.89157,"lon":30.76498,"geocoding":{},"distantMaxMiles":5},"Okurcalar":{"countryName":"Turkey","stateName":"Antalya","name":"Okurcalar","lat":36.64876,"lon":31.70387,"geocoding":{},"distantMaxMiles":5},"Payallar":{"countryName":"Turkey","stateName":"Antalya","name":"Payallar","lat":36.6016,"lon":31.85057,"geocoding":{},"distantMaxMiles":5},"Serik":{"countryName":"Turkey","stateName":"Antalya","name":"Serik","lat":37.07743,"lon":31.00677,"geocoding":{},"distantMaxMiles":5},"Side":{"countryName":"Turkey","stateName":"Antalya","name":"Side","lat":36.76667,"lon":31.38889,"geocoding":{},"distantMaxMiles":5},"Tekirova":{"countryName":"Turkey","stateName":"Antalya","name":"Tekirova","lat":36.5017,"lon":30.52723,"geocoding":{},"distantMaxMiles":5},"Turunçova":{"countryName":"Turkey","stateName":"Antalya","name":"Turunçova","lat":36.36889,"lon":30.1375,"geocoding":{},"distantMaxMiles":5},"Türkler":{"countryName":"Turkey","stateName":"Antalya","name":"Türkler","lat":36.60198,"lon":31.82067,"geocoding":{},"distantMaxMiles":5},"İbradı":{"countryName":"Turkey","stateName":"Antalya","name":"İbradı","lat":37.09694,"lon":31.59917,"geocoding":{},"distantMaxMiles":5}}},"Ardahan":{"countryName":"Turkey","name":"Ardahan","isoCode":"75","lat":41.1112964,"lon":42.7831674,"geocoding":{},"distantMaxMiles":5,"cities":{"Ardahan":{"countryName":"Turkey","stateName":"Ardahan","name":"Ardahan","lat":41.10871,"lon":42.70222,"geocoding":{},"distantMaxMiles":5},"Damal":{"countryName":"Turkey","stateName":"Ardahan","name":"Damal","lat":41.34145,"lon":42.8368,"geocoding":{},"distantMaxMiles":5},"Göle":{"countryName":"Turkey","stateName":"Ardahan","name":"Göle","lat":40.78746,"lon":42.60603,"geocoding":{},"distantMaxMiles":5},"Hanak":{"countryName":"Turkey","stateName":"Ardahan","name":"Hanak","lat":41.23344,"lon":42.84037,"geocoding":{},"distantMaxMiles":5},"Posof":{"countryName":"Turkey","stateName":"Ardahan","name":"Posof","lat":41.51111,"lon":42.72917,"geocoding":{},"distantMaxMiles":5},"Çıldır İlçesi":{"countryName":"Turkey","stateName":"Ardahan","name":"Çıldır İlçesi","lat":41.13783,"lon":43.14169,"geocoding":{},"distantMaxMiles":5}}},"Artvin":{"countryName":"Turkey","name":"Artvin","isoCode":"08","lat":41.078664,"lon":41.7628223,"geocoding":{},"distantMaxMiles":5,"cities":{"Ardanuç":{"countryName":"Turkey","stateName":"Artvin","name":"Ardanuç","lat":41.12738,"lon":42.06292,"geocoding":{},"distantMaxMiles":5},"Arhavi":{"countryName":"Turkey","stateName":"Artvin","name":"Arhavi","lat":41.35121,"lon":41.30456,"geocoding":{},"distantMaxMiles":5},"Artvin":{"countryName":"Turkey","stateName":"Artvin","name":"Artvin","lat":41.18161,"lon":41.82172,"geocoding":{},"distantMaxMiles":5},"Borçka":{"countryName":"Turkey","stateName":"Artvin","name":"Borçka","lat":41.35792,"lon":41.66579,"geocoding":{},"distantMaxMiles":5},"Hopa":{"countryName":"Turkey","stateName":"Artvin","name":"Hopa","lat":41.39046,"lon":41.41966,"geocoding":{},"distantMaxMiles":5},"Kemalpaşa":{"countryName":"Turkey","stateName":"Artvin","name":"Kemalpaşa","lat":41.48336,"lon":41.5275,"geocoding":{},"distantMaxMiles":5},"Murgul":{"countryName":"Turkey","stateName":"Artvin","name":"Murgul","lat":41.27937,"lon":41.55514,"geocoding":{},"distantMaxMiles":5},"Seyitler":{"countryName":"Turkey","stateName":"Artvin","name":"Seyitler","lat":41.19484,"lon":41.83696,"geocoding":{},"distantMaxMiles":5},"Yusufeli":{"countryName":"Turkey","stateName":"Artvin","name":"Yusufeli","lat":40.82042,"lon":41.53743,"geocoding":{},"distantMaxMiles":5},"Şavşat":{"countryName":"Turkey","stateName":"Artvin","name":"Şavşat","lat":41.24027,"lon":42.36109,"geocoding":{},"distantMaxMiles":5}}},"Aydın":{"countryName":"Turkey","name":"Aydın","isoCode":"09","lat":37.8117033,"lon":28.4863963,"geocoding":{},"distantMaxMiles":5,"cities":{"Acarlar":{"countryName":"Turkey","stateName":"Aydın","name":"Acarlar","lat":37.82444,"lon":27.74667,"geocoding":{},"distantMaxMiles":5},"Atça":{"countryName":"Turkey","stateName":"Aydın","name":"Atça","lat":37.88859,"lon":28.21528,"geocoding":{},"distantMaxMiles":5},"Aydın":{"countryName":"Turkey","stateName":"Aydın","name":"Aydın","lat":37.84501,"lon":27.83963,"geocoding":{},"distantMaxMiles":5},"Bozdoğan":{"countryName":"Turkey","stateName":"Aydın","name":"Bozdoğan","lat":37.67134,"lon":28.31395,"geocoding":{},"distantMaxMiles":5},"Buharkent":{"countryName":"Turkey","stateName":"Aydın","name":"Buharkent","lat":37.96397,"lon":28.7427,"geocoding":{},"distantMaxMiles":5},"Dalama":{"countryName":"Turkey","stateName":"Aydın","name":"Dalama","lat":37.79028,"lon":28.06639,"geocoding":{},"distantMaxMiles":5},"Davutlar":{"countryName":"Turkey","stateName":"Aydın","name":"Davutlar","lat":37.73392,"lon":27.29283,"geocoding":{},"distantMaxMiles":5},"Didim":{"countryName":"Turkey","stateName":"Aydın","name":"Didim","lat":37.39305,"lon":27.29357,"geocoding":{},"distantMaxMiles":5},"Efeler":{"countryName":"Turkey","stateName":"Aydın","name":"Efeler","lat":37.83835,"lon":27.84557,"geocoding":{},"distantMaxMiles":5},"Germencik":{"countryName":"Turkey","stateName":"Aydın","name":"Germencik","lat":37.87056,"lon":27.60283,"geocoding":{},"distantMaxMiles":5},"Karacasu":{"countryName":"Turkey","stateName":"Aydın","name":"Karacasu","lat":37.74731,"lon":28.59402,"geocoding":{},"distantMaxMiles":5},"Karpuzlu":{"countryName":"Turkey","stateName":"Aydın","name":"Karpuzlu","lat":37.55861,"lon":27.83528,"geocoding":{},"distantMaxMiles":5},"Koçarlı":{"countryName":"Turkey","stateName":"Aydın","name":"Koçarlı","lat":37.76113,"lon":27.70583,"geocoding":{},"distantMaxMiles":5},"Kuyucak":{"countryName":"Turkey","stateName":"Aydın","name":"Kuyucak","lat":37.9133,"lon":28.45917,"geocoding":{},"distantMaxMiles":5},"Kuşadası":{"countryName":"Turkey","stateName":"Aydın","name":"Kuşadası","lat":37.86014,"lon":27.25713,"geocoding":{},"distantMaxMiles":5},"Köşk":{"countryName":"Turkey","stateName":"Aydın","name":"Köşk","lat":37.85333,"lon":28.05167,"geocoding":{},"distantMaxMiles":5},"Nazilli":{"countryName":"Turkey","stateName":"Aydın","name":"Nazilli","lat":37.9357,"lon":28.30609,"geocoding":{},"distantMaxMiles":5},"Sarıkemer":{"countryName":"Turkey","stateName":"Aydın","name":"Sarıkemer","lat":37.56609,"lon":27.3643,"geocoding":{},"distantMaxMiles":5},"Sultanhisar":{"countryName":"Turkey","stateName":"Aydın","name":"Sultanhisar","lat":37.88989,"lon":28.15436,"geocoding":{},"distantMaxMiles":5},"Söke":{"countryName":"Turkey","stateName":"Aydın","name":"Söke","lat":37.7482,"lon":27.40614,"geocoding":{},"distantMaxMiles":5},"Tepecik":{"countryName":"Turkey","stateName":"Aydın","name":"Tepecik","lat":37.82358,"lon":27.87496,"geocoding":{},"distantMaxMiles":5},"Yenipazar":{"countryName":"Turkey","stateName":"Aydın","name":"Yenipazar","lat":37.82332,"lon":28.19573,"geocoding":{},"distantMaxMiles":5},"Çine":{"countryName":"Turkey","stateName":"Aydın","name":"Çine","lat":37.61266,"lon":28.05912,"geocoding":{},"distantMaxMiles":5},"İncirliova":{"countryName":"Turkey","stateName":"Aydın","name":"İncirliova","lat":37.85222,"lon":27.72361,"geocoding":{},"distantMaxMiles":5},"İsabeyli":{"countryName":"Turkey","stateName":"Aydın","name":"İsabeyli","lat":37.90147,"lon":28.26475,"geocoding":{},"distantMaxMiles":5}}},"Ağrı":{"countryName":"Turkey","name":"Ağrı","isoCode":"04","lat":39.6269218,"lon":43.0215965,"geocoding":{},"distantMaxMiles":5,"cities":{"Ağrı":{"countryName":"Turkey","stateName":"Ağrı","name":"Ağrı","lat":39.71944,"lon":43.05139,"geocoding":{},"distantMaxMiles":5},"Diyadin":{"countryName":"Turkey","stateName":"Ağrı","name":"Diyadin","lat":39.54056,"lon":43.67135,"geocoding":{},"distantMaxMiles":5},"Doğubayazıt":{"countryName":"Turkey","stateName":"Ağrı","name":"Doğubayazıt","lat":39.54694,"lon":44.08417,"geocoding":{},"distantMaxMiles":5},"Eleşkirt":{"countryName":"Turkey","stateName":"Ağrı","name":"Eleşkirt","lat":39.79803,"lon":42.67574,"geocoding":{},"distantMaxMiles":5},"Hamur":{"countryName":"Turkey","stateName":"Ağrı","name":"Hamur","lat":39.60561,"lon":42.985,"geocoding":{},"distantMaxMiles":5},"Patnos":{"countryName":"Turkey","stateName":"Ağrı","name":"Patnos","lat":39.22493,"lon":42.85693,"geocoding":{},"distantMaxMiles":5},"Taşlıçay":{"countryName":"Turkey","stateName":"Ağrı","name":"Taşlıçay","lat":39.62966,"lon":43.36878,"geocoding":{},"distantMaxMiles":5},"Tutak İlçesi":{"countryName":"Turkey","stateName":"Ağrı","name":"Tutak İlçesi","lat":39.55042,"lon":42.77572,"geocoding":{},"distantMaxMiles":5}}},"Balıkesir":{"countryName":"Turkey","name":"Balıkesir","isoCode":"10","lat":39.7616782,"lon":28.1122679,"geocoding":{},"distantMaxMiles":5,"cities":{"Altıeylül İlçesi":{"countryName":"Turkey","stateName":"Balıkesir","name":"Altıeylül İlçesi","lat":39.64099,"lon":27.88639,"geocoding":{},"distantMaxMiles":5},"Altınoluk":{"countryName":"Turkey","stateName":"Balıkesir","name":"Altınoluk","lat":39.57944,"lon":26.73722,"geocoding":{},"distantMaxMiles":5},"Ayvalık":{"countryName":"Turkey","stateName":"Balıkesir","name":"Ayvalık","lat":39.31927,"lon":26.69341,"geocoding":{},"distantMaxMiles":5},"Balya":{"countryName":"Turkey","stateName":"Balıkesir","name":"Balya","lat":39.74861,"lon":27.57889,"geocoding":{},"distantMaxMiles":5},"Balıkesir":{"countryName":"Turkey","stateName":"Balıkesir","name":"Balıkesir","lat":39.64917,"lon":27.88611,"geocoding":{},"distantMaxMiles":5},"Bandırma":{"countryName":"Turkey","stateName":"Balıkesir","name":"Bandırma","lat":40.35222,"lon":27.97667,"geocoding":{},"distantMaxMiles":5},"Bigadiç":{"countryName":"Turkey","stateName":"Balıkesir","name":"Bigadiç","lat":39.3925,"lon":28.13111,"geocoding":{},"distantMaxMiles":5},"Burhaniye":{"countryName":"Turkey","stateName":"Balıkesir","name":"Burhaniye","lat":39.50041,"lon":26.97269,"geocoding":{},"distantMaxMiles":5},"Dursunbey":{"countryName":"Turkey","stateName":"Balıkesir","name":"Dursunbey","lat":39.58596,"lon":28.62568,"geocoding":{},"distantMaxMiles":5},"Edremit":{"countryName":"Turkey","stateName":"Balıkesir","name":"Edremit","lat":39.59611,"lon":27.02444,"geocoding":{},"distantMaxMiles":5},"Erdek":{"countryName":"Turkey","stateName":"Balıkesir","name":"Erdek","lat":40.3996,"lon":27.79348,"geocoding":{},"distantMaxMiles":5},"Gömeç":{"countryName":"Turkey","stateName":"Balıkesir","name":"Gömeç","lat":39.39016,"lon":26.84127,"geocoding":{},"distantMaxMiles":5},"Gönen":{"countryName":"Turkey","stateName":"Balıkesir","name":"Gönen","lat":40.1049,"lon":27.65399,"geocoding":{},"distantMaxMiles":5},"Havran":{"countryName":"Turkey","stateName":"Balıkesir","name":"Havran","lat":39.55833,"lon":27.09833,"geocoding":{},"distantMaxMiles":5},"Kepsut":{"countryName":"Turkey","stateName":"Balıkesir","name":"Kepsut","lat":39.68889,"lon":28.15222,"geocoding":{},"distantMaxMiles":5},"Manyas":{"countryName":"Turkey","stateName":"Balıkesir","name":"Manyas","lat":40.04639,"lon":27.97,"geocoding":{},"distantMaxMiles":5},"Marmara":{"countryName":"Turkey","stateName":"Balıkesir","name":"Marmara","lat":40.58633,"lon":27.55541,"geocoding":{},"distantMaxMiles":5},"Savaştepe":{"countryName":"Turkey","stateName":"Balıkesir","name":"Savaştepe","lat":39.38319,"lon":27.65612,"geocoding":{},"distantMaxMiles":5},"Susurluk":{"countryName":"Turkey","stateName":"Balıkesir","name":"Susurluk","lat":39.91361,"lon":28.15778,"geocoding":{},"distantMaxMiles":5},"Sındırgı":{"countryName":"Turkey","stateName":"Balıkesir","name":"Sındırgı","lat":39.24128,"lon":28.17842,"geocoding":{},"distantMaxMiles":5},"İvrindi":{"countryName":"Turkey","stateName":"Balıkesir","name":"İvrindi","lat":39.58389,"lon":27.48639,"geocoding":{},"distantMaxMiles":5}}},"Bartın":{"countryName":"Turkey","name":"Bartın","isoCode":"74","lat":41.5810509,"lon":32.4609794,"geocoding":{},"distantMaxMiles":5,"cities":{"Amasra":{"countryName":"Turkey","stateName":"Bartın","name":"Amasra","lat":41.74633,"lon":32.38633,"geocoding":{},"distantMaxMiles":5},"Bartın":{"countryName":"Turkey","stateName":"Bartın","name":"Bartın","lat":41.63583,"lon":32.3375,"geocoding":{},"distantMaxMiles":5},"Kurucaşile":{"countryName":"Turkey","stateName":"Bartın","name":"Kurucaşile","lat":41.83781,"lon":32.71621,"geocoding":{},"distantMaxMiles":5},"Ulus İlçesi":{"countryName":"Turkey","stateName":"Bartın","name":"Ulus İlçesi","lat":41.59373,"lon":32.65066,"geocoding":{},"distantMaxMiles":5}}},"Batman":{"countryName":"Turkey","name":"Batman","isoCode":"72","lat":37.8362496,"lon":41.3605739,"geocoding":{},"distantMaxMiles":5,"cities":{"Aviski":{"countryName":"Turkey","stateName":"Batman","name":"Aviski","lat":37.96459,"lon":41.33119,"geocoding":{},"distantMaxMiles":5},"Aydınkonak":{"countryName":"Turkey","stateName":"Batman","name":"Aydınkonak","lat":37.89461,"lon":41.16405,"geocoding":{},"distantMaxMiles":5},"Balpınar":{"countryName":"Turkey","stateName":"Batman","name":"Balpınar","lat":37.86804,"lon":41.05536,"geocoding":{},"distantMaxMiles":5},"Batman":{"countryName":"Turkey","stateName":"Batman","name":"Batman","lat":37.88738,"lon":41.13221,"geocoding":{},"distantMaxMiles":5},"Beşiri":{"countryName":"Turkey","stateName":"Batman","name":"Beşiri","lat":37.91573,"lon":41.2865,"geocoding":{},"distantMaxMiles":5},"Beşpınar":{"countryName":"Turkey","stateName":"Batman","name":"Beşpınar","lat":37.83709,"lon":41.60219,"geocoding":{},"distantMaxMiles":5},"Binatlı":{"countryName":"Turkey","stateName":"Batman","name":"Binatlı","lat":37.84708,"lon":41.21608,"geocoding":{},"distantMaxMiles":5},"Demiryol":{"countryName":"Turkey","stateName":"Batman","name":"Demiryol","lat":37.91751,"lon":41.14984,"geocoding":{},"distantMaxMiles":5},"Doğankavak":{"countryName":"Turkey","stateName":"Batman","name":"Doğankavak","lat":37.96265,"lon":41.22675,"geocoding":{},"distantMaxMiles":5},"Erköklü":{"countryName":"Turkey","stateName":"Batman","name":"Erköklü","lat":37.86182,"lon":41.14413,"geocoding":{},"distantMaxMiles":5},"Gercüş İlçesi":{"countryName":"Turkey","stateName":"Batman","name":"Gercüş İlçesi","lat":37.59139,"lon":41.33278,"geocoding":{},"distantMaxMiles":5},"Gerdzhyush":{"countryName":"Turkey","stateName":"Batman","name":"Gerdzhyush","lat":37.56249,"lon":41.37753,"geocoding":{},"distantMaxMiles":5},"Hasankeyf":{"countryName":"Turkey","stateName":"Batman","name":"Hasankeyf","lat":37.70612,"lon":41.4048,"geocoding":{},"distantMaxMiles":5},"Hisar":{"countryName":"Turkey","stateName":"Batman","name":"Hisar","lat":37.60094,"lon":41.22799,"geocoding":{},"distantMaxMiles":5},"Kayapınar":{"countryName":"Turkey","stateName":"Batman","name":"Kayapınar","lat":37.55762,"lon":41.16231,"geocoding":{},"distantMaxMiles":5},"Kozluk İlçesi":{"countryName":"Turkey","stateName":"Batman","name":"Kozluk İlçesi","lat":38.19249,"lon":41.48705,"geocoding":{},"distantMaxMiles":5},"Merkez":{"countryName":"Turkey","stateName":"Batman","name":"Merkez","lat":37.84362,"lon":41.18341,"geocoding":{},"distantMaxMiles":5},"Oymataş":{"countryName":"Turkey","stateName":"Batman","name":"Oymataş","lat":37.79856,"lon":41.02083,"geocoding":{},"distantMaxMiles":5},"Sason":{"countryName":"Turkey","stateName":"Batman","name":"Sason","lat":38.32767,"lon":41.41377,"geocoding":{},"distantMaxMiles":5},"Yeniköy":{"countryName":"Turkey","stateName":"Batman","name":"Yeniköy","lat":37.88042,"lon":41.05004,"geocoding":{},"distantMaxMiles":5},"Yenipınar":{"countryName":"Turkey","stateName":"Batman","name":"Yenipınar","lat":37.84291,"lon":41.30137,"geocoding":{},"distantMaxMiles":5},"Yolağzı":{"countryName":"Turkey","stateName":"Batman","name":"Yolağzı","lat":37.52554,"lon":41.3534,"geocoding":{},"distantMaxMiles":5},"Çevrimova":{"countryName":"Turkey","stateName":"Batman","name":"Çevrimova","lat":37.84003,"lon":41.27288,"geocoding":{},"distantMaxMiles":5}}},"Bayburt":{"countryName":"Turkey","name":"Bayburt","isoCode":"69","lat":40.26032,"lon":40.228048,"geocoding":{},"distantMaxMiles":5,"cities":{"Aydıntepe":{"countryName":"Turkey","stateName":"Bayburt","name":"Aydıntepe","lat":40.38325,"lon":40.14272,"geocoding":{},"distantMaxMiles":5},"Bayburt":{"countryName":"Turkey","stateName":"Bayburt","name":"Bayburt","lat":40.25631,"lon":40.22289,"geocoding":{},"distantMaxMiles":5},"Demirözü İlçesi":{"countryName":"Turkey","stateName":"Bayburt","name":"Demirözü İlçesi","lat":40.1656,"lon":39.89343,"geocoding":{},"distantMaxMiles":5},"Pulur":{"countryName":"Turkey","stateName":"Bayburt","name":"Pulur","lat":40.16023,"lon":39.89239,"geocoding":{},"distantMaxMiles":5}}},"Bilecik":{"countryName":"Turkey","name":"Bilecik","isoCode":"11","lat":40.0566555,"lon":30.0665236,"geocoding":{},"distantMaxMiles":5,"cities":{"Bilecik":{"countryName":"Turkey","stateName":"Bilecik","name":"Bilecik","lat":40.14192,"lon":29.97932,"geocoding":{},"distantMaxMiles":5},"Bozüyük":{"countryName":"Turkey","stateName":"Bilecik","name":"Bozüyük","lat":39.90778,"lon":30.03667,"geocoding":{},"distantMaxMiles":5},"Dodurga":{"countryName":"Turkey","stateName":"Bilecik","name":"Dodurga","lat":39.79972,"lon":29.91722,"geocoding":{},"distantMaxMiles":5},"Gölpazarı":{"countryName":"Turkey","stateName":"Bilecik","name":"Gölpazarı","lat":40.28472,"lon":30.31722,"geocoding":{},"distantMaxMiles":5},"Küplü":{"countryName":"Turkey","stateName":"Bilecik","name":"Küplü","lat":40.09837,"lon":30.0001,"geocoding":{},"distantMaxMiles":5},"Osmaneli":{"countryName":"Turkey","stateName":"Bilecik","name":"Osmaneli","lat":40.35722,"lon":30.01417,"geocoding":{},"distantMaxMiles":5},"Pazaryeri":{"countryName":"Turkey","stateName":"Bilecik","name":"Pazaryeri","lat":39.99395,"lon":29.90424,"geocoding":{},"distantMaxMiles":5},"Söğüt İlçesi":{"countryName":"Turkey","stateName":"Bilecik","name":"Söğüt İlçesi","lat":40.02479,"lon":30.173,"geocoding":{},"distantMaxMiles":5},"Vezirhan":{"countryName":"Turkey","stateName":"Bilecik","name":"Vezirhan","lat":40.24472,"lon":30.02,"geocoding":{},"distantMaxMiles":5},"Yenipazar":{"countryName":"Turkey","stateName":"Bilecik","name":"Yenipazar","lat":40.17833,"lon":30.52,"geocoding":{},"distantMaxMiles":5},"İnhisar":{"countryName":"Turkey","stateName":"Bilecik","name":"İnhisar","lat":40.04932,"lon":30.38521,"geocoding":{},"distantMaxMiles":5}}},"Bingöl":{"countryName":"Turkey","name":"Bingöl","isoCode":"12","lat":39.0626354,"lon":40.7696095,"geocoding":{},"distantMaxMiles":5,"cities":{"Adaklı İlçesi":{"countryName":"Turkey","stateName":"Bingöl","name":"Adaklı İlçesi","lat":39.2287,"lon":40.48252,"geocoding":{},"distantMaxMiles":5},"Bingöl":{"countryName":"Turkey","stateName":"Bingöl","name":"Bingöl","lat":38.88472,"lon":40.49389,"geocoding":{},"distantMaxMiles":5},"Genç":{"countryName":"Turkey","stateName":"Bingöl","name":"Genç","lat":38.74773,"lon":40.55343,"geocoding":{},"distantMaxMiles":5},"Karlıova":{"countryName":"Turkey","stateName":"Bingöl","name":"Karlıova","lat":39.29044,"lon":41.00594,"geocoding":{},"distantMaxMiles":5},"Kiğı İlçesi":{"countryName":"Turkey","stateName":"Bingöl","name":"Kiğı İlçesi","lat":39.30894,"lon":40.34995,"geocoding":{},"distantMaxMiles":5},"Merkez":{"countryName":"Turkey","stateName":"Bingöl","name":"Merkez","lat":38.95025,"lon":40.52802,"geocoding":{},"distantMaxMiles":5},"Solhan":{"countryName":"Turkey","stateName":"Bingöl","name":"Solhan","lat":38.96525,"lon":41.05443,"geocoding":{},"distantMaxMiles":5},"Yayladere":{"countryName":"Turkey","stateName":"Bingöl","name":"Yayladere","lat":39.22614,"lon":40.0695,"geocoding":{},"distantMaxMiles":5},"Yedisu":{"countryName":"Turkey","stateName":"Bingöl","name":"Yedisu","lat":39.43277,"lon":40.53368,"geocoding":{},"distantMaxMiles":5}}},"Bitlis":{"countryName":"Turkey","name":"Bitlis","isoCode":"13","lat":38.6523133,"lon":42.4202028,"geocoding":{},"distantMaxMiles":5,"cities":{"Adilcevaz":{"countryName":"Turkey","stateName":"Bitlis","name":"Adilcevaz","lat":38.79911,"lon":42.73159,"geocoding":{},"distantMaxMiles":5},"Ahlat":{"countryName":"Turkey","stateName":"Bitlis","name":"Ahlat","lat":38.7489,"lon":42.48007,"geocoding":{},"distantMaxMiles":5},"Beğendik":{"countryName":"Turkey","stateName":"Bitlis","name":"Beğendik","lat":37.97557,"lon":42.64823,"geocoding":{},"distantMaxMiles":5},"Bitlis":{"countryName":"Turkey","stateName":"Bitlis","name":"Bitlis","lat":38.40115,"lon":42.10784,"geocoding":{},"distantMaxMiles":5},"Güroymak":{"countryName":"Turkey","stateName":"Bitlis","name":"Güroymak","lat":38.5758,"lon":42.01558,"geocoding":{},"distantMaxMiles":5},"Hizan":{"countryName":"Turkey","stateName":"Bitlis","name":"Hizan","lat":38.22498,"lon":42.4183,"geocoding":{},"distantMaxMiles":5},"Merkez":{"countryName":"Turkey","stateName":"Bitlis","name":"Merkez","lat":38.31702,"lon":42.10065,"geocoding":{},"distantMaxMiles":5},"Mutki":{"countryName":"Turkey","stateName":"Bitlis","name":"Mutki","lat":38.40624,"lon":41.92018,"geocoding":{},"distantMaxMiles":5},"Tatvan":{"countryName":"Turkey","stateName":"Bitlis","name":"Tatvan","lat":38.49221,"lon":42.28269,"geocoding":{},"distantMaxMiles":5}}},"Bolu":{"countryName":"Turkey","name":"Bolu","isoCode":"14","lat":40.5759766,"lon":31.5788086,"geocoding":{},"distantMaxMiles":5,"cities":{"Bolu":{"countryName":"Turkey","stateName":"Bolu","name":"Bolu","lat":40.73583,"lon":31.60611,"geocoding":{},"distantMaxMiles":5},"Dörtdivan":{"countryName":"Turkey","stateName":"Bolu","name":"Dörtdivan","lat":40.72052,"lon":32.06314,"geocoding":{},"distantMaxMiles":5},"Gerede":{"countryName":"Turkey","stateName":"Bolu","name":"Gerede","lat":40.71364,"lon":32.31263,"geocoding":{},"distantMaxMiles":5},"Göynük":{"countryName":"Turkey","stateName":"Bolu","name":"Göynük","lat":40.40028,"lon":30.78833,"geocoding":{},"distantMaxMiles":5},"Kıbrıscık":{"countryName":"Turkey","stateName":"Bolu","name":"Kıbrıscık","lat":40.40778,"lon":31.85194,"geocoding":{},"distantMaxMiles":5},"Mengen":{"countryName":"Turkey","stateName":"Bolu","name":"Mengen","lat":40.93877,"lon":32.07642,"geocoding":{},"distantMaxMiles":5},"Mudurnu":{"countryName":"Turkey","stateName":"Bolu","name":"Mudurnu","lat":40.473,"lon":31.20755,"geocoding":{},"distantMaxMiles":5},"Seben":{"countryName":"Turkey","stateName":"Bolu","name":"Seben","lat":40.41134,"lon":31.57359,"geocoding":{},"distantMaxMiles":5},"Yeniçağa":{"countryName":"Turkey","stateName":"Bolu","name":"Yeniçağa","lat":40.77115,"lon":32.03375,"geocoding":{},"distantMaxMiles":5}}},"Burdur":{"countryName":"Turkey","name":"Burdur","isoCode":"15","lat":37.4612669,"lon":30.0665236,"geocoding":{},"distantMaxMiles":5,"cities":{"Altınyayla":{"countryName":"Turkey","stateName":"Burdur","name":"Altınyayla","lat":36.99722,"lon":29.54579,"geocoding":{},"distantMaxMiles":5},"Ağlasun":{"countryName":"Turkey","stateName":"Burdur","name":"Ağlasun","lat":37.64944,"lon":30.53417,"geocoding":{},"distantMaxMiles":5},"Bucak":{"countryName":"Turkey","stateName":"Burdur","name":"Bucak","lat":37.45917,"lon":30.595,"geocoding":{},"distantMaxMiles":5},"Burdur":{"countryName":"Turkey","stateName":"Burdur","name":"Burdur","lat":37.72028,"lon":30.29083,"geocoding":{},"distantMaxMiles":5},"Gölhisar":{"countryName":"Turkey","stateName":"Burdur","name":"Gölhisar","lat":37.1459,"lon":29.50876,"geocoding":{},"distantMaxMiles":5},"Karamanlı":{"countryName":"Turkey","stateName":"Burdur","name":"Karamanlı","lat":37.37301,"lon":29.82308,"geocoding":{},"distantMaxMiles":5},"Kemer":{"countryName":"Turkey","stateName":"Burdur","name":"Kemer","lat":37.35222,"lon":30.06306,"geocoding":{},"distantMaxMiles":5},"Kocaaliler":{"countryName":"Turkey","stateName":"Burdur","name":"Kocaaliler","lat":37.31694,"lon":30.74,"geocoding":{},"distantMaxMiles":5},"Kızılkaya":{"countryName":"Turkey","stateName":"Burdur","name":"Kızılkaya","lat":37.30361,"lon":30.44417,"geocoding":{},"distantMaxMiles":5},"Merkez":{"countryName":"Turkey","stateName":"Burdur","name":"Merkez","lat":37.62762,"lon":30.20408,"geocoding":{},"distantMaxMiles":5},"Tefenni":{"countryName":"Turkey","stateName":"Burdur","name":"Tefenni","lat":37.30968,"lon":29.77538,"geocoding":{},"distantMaxMiles":5},"Yeşilova":{"countryName":"Turkey","stateName":"Burdur","name":"Yeşilova","lat":37.50806,"lon":29.75472,"geocoding":{},"distantMaxMiles":5},"Çavdır İlçesi":{"countryName":"Turkey","stateName":"Burdur","name":"Çavdır İlçesi","lat":37.16483,"lon":29.69937,"geocoding":{},"distantMaxMiles":5},"Çeltikçi İlçesi":{"countryName":"Turkey","stateName":"Burdur","name":"Çeltikçi İlçesi","lat":37.53885,"lon":30.46823,"geocoding":{},"distantMaxMiles":5}}},"Bursa":{"countryName":"Turkey","name":"Bursa","isoCode":"16","lat":40.0655459,"lon":29.2320784,"geocoding":{},"distantMaxMiles":5,"cities":{"Alanyurt":{"countryName":"Turkey","stateName":"Bursa","name":"Alanyurt","lat":40.10881,"lon":29.51871,"geocoding":{},"distantMaxMiles":5},"Balarim":{"countryName":"Turkey","stateName":"Bursa","name":"Balarim","lat":40.37381,"lon":29.59025,"geocoding":{},"distantMaxMiles":5},"Boyalıca":{"countryName":"Turkey","stateName":"Bursa","name":"Boyalıca","lat":40.48194,"lon":29.56083,"geocoding":{},"distantMaxMiles":5},"Bursa":{"countryName":"Turkey","stateName":"Bursa","name":"Bursa","lat":40.19559,"lon":29.06013,"geocoding":{},"distantMaxMiles":5},"Büyükorhan İlçesi":{"countryName":"Turkey","stateName":"Bursa","name":"Büyükorhan İlçesi","lat":39.78223,"lon":28.89338,"geocoding":{},"distantMaxMiles":5},"Cerrah":{"countryName":"Turkey","stateName":"Bursa","name":"Cerrah","lat":40.07124,"lon":29.44661,"geocoding":{},"distantMaxMiles":5},"Demirtaş":{"countryName":"Turkey","stateName":"Bursa","name":"Demirtaş","lat":40.27194,"lon":29.09833,"geocoding":{},"distantMaxMiles":5},"Elbeyli":{"countryName":"Turkey","stateName":"Bursa","name":"Elbeyli","lat":40.48611,"lon":29.72472,"geocoding":{},"distantMaxMiles":5},"Gemlik":{"countryName":"Turkey","stateName":"Bursa","name":"Gemlik","lat":40.4351,"lon":29.14943,"geocoding":{},"distantMaxMiles":5},"Gürsu":{"countryName":"Turkey","stateName":"Bursa","name":"Gürsu","lat":40.25498,"lon":29.21183,"geocoding":{},"distantMaxMiles":5},"Hamzabey":{"countryName":"Turkey","stateName":"Bursa","name":"Hamzabey","lat":40.13583,"lon":29.52639,"geocoding":{},"distantMaxMiles":5},"Harmancık İlçesi":{"countryName":"Turkey","stateName":"Bursa","name":"Harmancık İlçesi","lat":39.67743,"lon":29.15523,"geocoding":{},"distantMaxMiles":5},"Karacabey":{"countryName":"Turkey","stateName":"Bursa","name":"Karacabey","lat":40.21323,"lon":28.3612,"geocoding":{},"distantMaxMiles":5},"Karıncalı":{"countryName":"Turkey","stateName":"Bursa","name":"Karıncalı","lat":39.97118,"lon":28.85894,"geocoding":{},"distantMaxMiles":5},"Keles":{"countryName":"Turkey","stateName":"Bursa","name":"Keles","lat":39.91361,"lon":29.22944,"geocoding":{},"distantMaxMiles":5},"Kestel":{"countryName":"Turkey","stateName":"Bursa","name":"Kestel","lat":40.19828,"lon":29.21237,"geocoding":{},"distantMaxMiles":5},"Kirazlı":{"countryName":"Turkey","stateName":"Bursa","name":"Kirazlı","lat":40.09964,"lon":29.04163,"geocoding":{},"distantMaxMiles":5},"Kurşunlu":{"countryName":"Turkey","stateName":"Bursa","name":"Kurşunlu","lat":40.03712,"lon":29.65972,"geocoding":{},"distantMaxMiles":5},"Küçükkumla":{"countryName":"Turkey","stateName":"Bursa","name":"Küçükkumla","lat":40.47047,"lon":29.10152,"geocoding":{},"distantMaxMiles":5},"Mudanya":{"countryName":"Turkey","stateName":"Bursa","name":"Mudanya","lat":40.33342,"lon":28.77218,"geocoding":{},"distantMaxMiles":5},"Mustafakemalpaşa":{"countryName":"Turkey","stateName":"Bursa","name":"Mustafakemalpaşa","lat":40.03815,"lon":28.40866,"geocoding":{},"distantMaxMiles":5},"Narlıca":{"countryName":"Turkey","stateName":"Bursa","name":"Narlıca","lat":40.38583,"lon":29.48111,"geocoding":{},"distantMaxMiles":5},"Nilüfer":{"countryName":"Turkey","stateName":"Bursa","name":"Nilüfer","lat":40.21375,"lon":28.98464,"geocoding":{},"distantMaxMiles":5},"Orhaneli":{"countryName":"Turkey","stateName":"Bursa","name":"Orhaneli","lat":39.90333,"lon":28.99056,"geocoding":{},"distantMaxMiles":5},"Orhangazi":{"countryName":"Turkey","stateName":"Bursa","name":"Orhangazi","lat":40.48917,"lon":29.30889,"geocoding":{},"distantMaxMiles":5},"Osmangazi":{"countryName":"Turkey","stateName":"Bursa","name":"Osmangazi","lat":40.15644,"lon":29.08753,"geocoding":{},"distantMaxMiles":5},"Sölöz":{"countryName":"Turkey","stateName":"Bursa","name":"Sölöz","lat":40.3948,"lon":29.41559,"geocoding":{},"distantMaxMiles":5},"Tacir":{"countryName":"Turkey","stateName":"Bursa","name":"Tacir","lat":40.52556,"lon":29.73972,"geocoding":{},"distantMaxMiles":5},"Tahtaköprü":{"countryName":"Turkey","stateName":"Bursa","name":"Tahtaköprü","lat":39.95,"lon":29.65,"geocoding":{},"distantMaxMiles":5},"Tatkavaklı":{"countryName":"Turkey","stateName":"Bursa","name":"Tatkavaklı","lat":40.03333,"lon":28.36667,"geocoding":{},"distantMaxMiles":5},"Umurbey":{"countryName":"Turkey","stateName":"Bursa","name":"Umurbey","lat":40.41472,"lon":29.18306,"geocoding":{},"distantMaxMiles":5},"Yenice":{"countryName":"Turkey","stateName":"Bursa","name":"Yenice","lat":40.08778,"lon":29.42194,"geocoding":{},"distantMaxMiles":5},"Yeniköy":{"countryName":"Turkey","stateName":"Bursa","name":"Yeniköy","lat":40.53568,"lon":29.35364,"geocoding":{},"distantMaxMiles":5},"Yenişehir":{"countryName":"Turkey","stateName":"Bursa","name":"Yenişehir","lat":40.26444,"lon":29.65306,"geocoding":{},"distantMaxMiles":5},"Yıldırım İlçesi":{"countryName":"Turkey","stateName":"Bursa","name":"Yıldırım İlçesi","lat":40.19567,"lon":29.0364,"geocoding":{},"distantMaxMiles":5},"Çakırca":{"countryName":"Turkey","stateName":"Bursa","name":"Çakırca","lat":40.47056,"lon":29.66333,"geocoding":{},"distantMaxMiles":5},"Çakırlı":{"countryName":"Turkey","stateName":"Bursa","name":"Çakırlı","lat":40.51806,"lon":29.45222,"geocoding":{},"distantMaxMiles":5},"İnegol":{"countryName":"Turkey","stateName":"Bursa","name":"İnegol","lat":40.07806,"lon":29.51333,"geocoding":{},"distantMaxMiles":5},"İznik":{"countryName":"Turkey","stateName":"Bursa","name":"İznik","lat":40.42861,"lon":29.72111,"geocoding":{},"distantMaxMiles":5}}},"Denizli":{"countryName":"Turkey","name":"Denizli","isoCode":"20","lat":37.6128395,"lon":29.2320784,"geocoding":{},"distantMaxMiles":5,"cities":{"Acıpayam":{"countryName":"Turkey","stateName":"Denizli","name":"Acıpayam","lat":37.42385,"lon":29.34941,"geocoding":{},"distantMaxMiles":5},"Akkent":{"countryName":"Turkey","stateName":"Denizli","name":"Akkent","lat":38.15268,"lon":29.3789,"geocoding":{},"distantMaxMiles":5},"Akköy":{"countryName":"Turkey","stateName":"Denizli","name":"Akköy","lat":37.95694,"lon":29.07813,"geocoding":{},"distantMaxMiles":5},"Babadağ":{"countryName":"Turkey","stateName":"Denizli","name":"Babadağ","lat":37.80764,"lon":28.85665,"geocoding":{},"distantMaxMiles":5},"Baklan":{"countryName":"Turkey","stateName":"Denizli","name":"Baklan","lat":37.97694,"lon":29.60861,"geocoding":{},"distantMaxMiles":5},"Bekilli":{"countryName":"Turkey","stateName":"Denizli","name":"Bekilli","lat":38.24027,"lon":29.42559,"geocoding":{},"distantMaxMiles":5},"Beyağaç İlçesi":{"countryName":"Turkey","stateName":"Denizli","name":"Beyağaç İlçesi","lat":37.24546,"lon":28.90041,"geocoding":{},"distantMaxMiles":5},"Bozkurt":{"countryName":"Turkey","stateName":"Denizli","name":"Bozkurt","lat":37.77583,"lon":29.60811,"geocoding":{},"distantMaxMiles":5},"Buldan":{"countryName":"Turkey","stateName":"Denizli","name":"Buldan","lat":38.045,"lon":28.83056,"geocoding":{},"distantMaxMiles":5},"Denizli":{"countryName":"Turkey","stateName":"Denizli","name":"Denizli","lat":37.77417,"lon":29.0875,"geocoding":{},"distantMaxMiles":5},"Gözler":{"countryName":"Turkey","stateName":"Denizli","name":"Gözler","lat":38.10679,"lon":29.15375,"geocoding":{},"distantMaxMiles":5},"Güney İlçesi":{"countryName":"Turkey","stateName":"Denizli","name":"Güney İlçesi","lat":38.16454,"lon":29.07324,"geocoding":{},"distantMaxMiles":5},"Honaz":{"countryName":"Turkey","stateName":"Denizli","name":"Honaz","lat":37.77146,"lon":29.34466,"geocoding":{},"distantMaxMiles":5},"Kale":{"countryName":"Turkey","stateName":"Denizli","name":"Kale","lat":37.43917,"lon":28.84528,"geocoding":{},"distantMaxMiles":5},"Merkezefendi":{"countryName":"Turkey","stateName":"Denizli","name":"Merkezefendi","lat":37.80544,"lon":29.04236,"geocoding":{},"distantMaxMiles":5},"Nikfer":{"countryName":"Turkey","stateName":"Denizli","name":"Nikfer","lat":37.40542,"lon":29.13727,"geocoding":{},"distantMaxMiles":5},"Pamukkale":{"countryName":"Turkey","stateName":"Denizli","name":"Pamukkale","lat":37.91644,"lon":29.11729,"geocoding":{},"distantMaxMiles":5},"Sarayköy":{"countryName":"Turkey","stateName":"Denizli","name":"Sarayköy","lat":37.9158,"lon":28.87999,"geocoding":{},"distantMaxMiles":5},"Serinhisar":{"countryName":"Turkey","stateName":"Denizli","name":"Serinhisar","lat":37.58105,"lon":29.26639,"geocoding":{},"distantMaxMiles":5},"Tavas":{"countryName":"Turkey","stateName":"Denizli","name":"Tavas","lat":37.57351,"lon":29.07058,"geocoding":{},"distantMaxMiles":5},"Çal İlçesi":{"countryName":"Turkey","stateName":"Denizli","name":"Çal İlçesi","lat":38.09371,"lon":29.40467,"geocoding":{},"distantMaxMiles":5},"Çameli İlçesi":{"countryName":"Turkey","stateName":"Denizli","name":"Çameli İlçesi","lat":37.0866,"lon":29.35225,"geocoding":{},"distantMaxMiles":5},"Çardak":{"countryName":"Turkey","stateName":"Denizli","name":"Çardak","lat":37.77485,"lon":29.70593,"geocoding":{},"distantMaxMiles":5},"Çivril":{"countryName":"Turkey","stateName":"Denizli","name":"Çivril","lat":38.30139,"lon":29.73861,"geocoding":{},"distantMaxMiles":5}}},"Diyarbakır":{"countryName":"Turkey","name":"Diyarbakır","isoCode":"21","lat":38.1066372,"lon":40.5426896,"geocoding":{},"distantMaxMiles":5,"cities":{"Alacakaya İlçesi":{"countryName":"Turkey","stateName":"Diyarbakır","name":"Alacakaya İlçesi","lat":38.46326,"lon":39.85514,"geocoding":{},"distantMaxMiles":5},"Altınkum":{"countryName":"Turkey","stateName":"Diyarbakır","name":"Altınkum","lat":38.26374,"lon":41.0625,"geocoding":{},"distantMaxMiles":5},"Ambar":{"countryName":"Turkey","stateName":"Diyarbakır","name":"Ambar","lat":37.85305,"lon":40.52798,"geocoding":{},"distantMaxMiles":5},"Aralık":{"countryName":"Turkey","stateName":"Diyarbakır","name":"Aralık","lat":37.82945,"lon":40.68025,"geocoding":{},"distantMaxMiles":5},"Bağlar":{"countryName":"Turkey","stateName":"Diyarbakır","name":"Bağlar","lat":37.91068,"lon":40.22627,"geocoding":{},"distantMaxMiles":5},"Bismil":{"countryName":"Turkey","stateName":"Diyarbakır","name":"Bismil","lat":37.84514,"lon":40.65931,"geocoding":{},"distantMaxMiles":5},"Dicle":{"countryName":"Turkey","stateName":"Diyarbakır","name":"Dicle","lat":38.36571,"lon":40.0645,"geocoding":{},"distantMaxMiles":5},"Diyarbakır":{"countryName":"Turkey","stateName":"Diyarbakır","name":"Diyarbakır","lat":37.91363,"lon":40.21721,"geocoding":{},"distantMaxMiles":5},"Ergani":{"countryName":"Turkey","stateName":"Diyarbakır","name":"Ergani","lat":38.26899,"lon":39.75446,"geocoding":{},"distantMaxMiles":5},"Eğil":{"countryName":"Turkey","stateName":"Diyarbakır","name":"Eğil","lat":38.25748,"lon":40.07435,"geocoding":{},"distantMaxMiles":5},"Hani":{"countryName":"Turkey","stateName":"Diyarbakır","name":"Hani","lat":38.40741,"lon":40.38578,"geocoding":{},"distantMaxMiles":5},"Hazro":{"countryName":"Turkey","stateName":"Diyarbakır","name":"Hazro","lat":38.24903,"lon":40.77129,"geocoding":{},"distantMaxMiles":5},"Kayapınar":{"countryName":"Turkey","stateName":"Diyarbakır","name":"Kayapınar","lat":37.938,"lon":40.1731,"geocoding":{},"distantMaxMiles":5},"Kazancı":{"countryName":"Turkey","stateName":"Diyarbakır","name":"Kazancı","lat":37.77106,"lon":40.6,"geocoding":{},"distantMaxMiles":5},"Kerh":{"countryName":"Turkey","stateName":"Diyarbakır","name":"Kerh","lat":37.8257,"lon":40.54402,"geocoding":{},"distantMaxMiles":5},"Kocaköy":{"countryName":"Turkey","stateName":"Diyarbakır","name":"Kocaköy","lat":38.28889,"lon":40.49786,"geocoding":{},"distantMaxMiles":5},"Kulp":{"countryName":"Turkey","stateName":"Diyarbakır","name":"Kulp","lat":38.49754,"lon":41.00668,"geocoding":{},"distantMaxMiles":5},"Köseli":{"countryName":"Turkey","stateName":"Diyarbakır","name":"Köseli","lat":37.83879,"lon":40.60811,"geocoding":{},"distantMaxMiles":5},"Lice":{"countryName":"Turkey","stateName":"Diyarbakır","name":"Lice","lat":38.45821,"lon":40.63888,"geocoding":{},"distantMaxMiles":5},"Salat":{"countryName":"Turkey","stateName":"Diyarbakır","name":"Salat","lat":37.84172,"lon":40.8865,"geocoding":{},"distantMaxMiles":5},"Silvan":{"countryName":"Turkey","stateName":"Diyarbakır","name":"Silvan","lat":38.13708,"lon":41.00817,"geocoding":{},"distantMaxMiles":5},"Sinanköy":{"countryName":"Turkey","stateName":"Diyarbakır","name":"Sinanköy","lat":37.86166,"lon":40.99283,"geocoding":{},"distantMaxMiles":5},"Sur":{"countryName":"Turkey","stateName":"Diyarbakır","name":"Sur","lat":37.91356,"lon":40.23743,"geocoding":{},"distantMaxMiles":5},"Yaprakbaşı":{"countryName":"Turkey","stateName":"Diyarbakır","name":"Yaprakbaşı","lat":37.65409,"lon":40.54635,"geocoding":{},"distantMaxMiles":5},"Yenişehir":{"countryName":"Turkey","stateName":"Diyarbakır","name":"Yenişehir","lat":37.91373,"lon":40.2061,"geocoding":{},"distantMaxMiles":5},"Çermik":{"countryName":"Turkey","stateName":"Diyarbakır","name":"Çermik","lat":38.13538,"lon":39.445,"geocoding":{},"distantMaxMiles":5},"Çüngüş":{"countryName":"Turkey","stateName":"Diyarbakır","name":"Çüngüş","lat":38.20798,"lon":39.28554,"geocoding":{},"distantMaxMiles":5},"Çınar İlçesi":{"countryName":"Turkey","stateName":"Diyarbakır","name":"Çınar İlçesi","lat":37.72562,"lon":40.41484,"geocoding":{},"distantMaxMiles":5}}},"Düzce":{"countryName":"Turkey","name":"Düzce","isoCode":"81","lat":40.8770531,"lon":31.3192713,"geocoding":{},"distantMaxMiles":5,"cities":{"Akçakoca":{"countryName":"Turkey","stateName":"Düzce","name":"Akçakoca","lat":41.08663,"lon":31.11623,"geocoding":{},"distantMaxMiles":5},"Cumayeri İlçesi":{"countryName":"Turkey","stateName":"Düzce","name":"Cumayeri İlçesi","lat":40.88176,"lon":30.94094,"geocoding":{},"distantMaxMiles":5},"Düzce":{"countryName":"Turkey","stateName":"Düzce","name":"Düzce","lat":40.83889,"lon":31.16389,"geocoding":{},"distantMaxMiles":5},"Gölyaka İlçesi":{"countryName":"Turkey","stateName":"Düzce","name":"Gölyaka İlçesi","lat":40.78644,"lon":31.00276,"geocoding":{},"distantMaxMiles":5},"Gümüşova İlçesi":{"countryName":"Turkey","stateName":"Düzce","name":"Gümüşova İlçesi","lat":40.8564,"lon":30.94935,"geocoding":{},"distantMaxMiles":5},"Kaynaşlı İlçesi":{"countryName":"Turkey","stateName":"Düzce","name":"Kaynaşlı İlçesi","lat":40.77908,"lon":31.31135,"geocoding":{},"distantMaxMiles":5},"Yığılca İlçesi":{"countryName":"Turkey","stateName":"Düzce","name":"Yığılca İlçesi","lat":40.96497,"lon":31.45672,"geocoding":{},"distantMaxMiles":5},"Çilimli İlçesi":{"countryName":"Turkey","stateName":"Düzce","name":"Çilimli İlçesi","lat":40.90267,"lon":31.05913,"geocoding":{},"distantMaxMiles":5}}},"Edirne":{"countryName":"Turkey","name":"Edirne","isoCode":"22","lat":41.1517222,"lon":26.5137964,"geocoding":{},"distantMaxMiles":5,"cities":{"Edirne":{"countryName":"Turkey","stateName":"Edirne","name":"Edirne","lat":41.67719,"lon":26.55597,"geocoding":{},"distantMaxMiles":5},"Enez":{"countryName":"Turkey","stateName":"Edirne","name":"Enez","lat":40.72472,"lon":26.0825,"geocoding":{},"distantMaxMiles":5},"Havsa":{"countryName":"Turkey","stateName":"Edirne","name":"Havsa","lat":41.54898,"lon":26.82207,"geocoding":{},"distantMaxMiles":5},"Keşan":{"countryName":"Turkey","stateName":"Edirne","name":"Keşan","lat":40.85583,"lon":26.63028,"geocoding":{},"distantMaxMiles":5},"Küplü":{"countryName":"Turkey","stateName":"Edirne","name":"Küplü","lat":41.10694,"lon":26.35194,"geocoding":{},"distantMaxMiles":5},"Lâlapaşa":{"countryName":"Turkey","stateName":"Edirne","name":"Lâlapaşa","lat":41.83951,"lon":26.73561,"geocoding":{},"distantMaxMiles":5},"Meriç":{"countryName":"Turkey","stateName":"Edirne","name":"Meriç","lat":41.19183,"lon":26.42097,"geocoding":{},"distantMaxMiles":5},"Süloğlu İlçesi":{"countryName":"Turkey","stateName":"Edirne","name":"Süloğlu İlçesi","lat":41.77956,"lon":26.92602,"geocoding":{},"distantMaxMiles":5},"Uzunköprü":{"countryName":"Turkey","stateName":"Edirne","name":"Uzunköprü","lat":41.26597,"lon":26.6885,"geocoding":{},"distantMaxMiles":5},"İpsala":{"countryName":"Turkey","stateName":"Edirne","name":"İpsala","lat":40.92115,"lon":26.38273,"geocoding":{},"distantMaxMiles":5}}},"Elazığ":{"countryName":"Turkey","name":"Elazığ","isoCode":"23","lat":38.4964804,"lon":39.2199029,"geocoding":{},"distantMaxMiles":5,"cities":{"Arıcak":{"countryName":"Turkey","stateName":"Elazığ","name":"Arıcak","lat":38.5634,"lon":40.1248,"geocoding":{},"distantMaxMiles":5},"Ağın":{"countryName":"Turkey","stateName":"Elazığ","name":"Ağın","lat":38.93792,"lon":38.71155,"geocoding":{},"distantMaxMiles":5},"Baskil":{"countryName":"Turkey","stateName":"Elazığ","name":"Baskil","lat":38.56866,"lon":38.81634,"geocoding":{},"distantMaxMiles":5},"Elazığ":{"countryName":"Turkey","stateName":"Elazığ","name":"Elazığ","lat":38.67431,"lon":39.22321,"geocoding":{},"distantMaxMiles":5},"Karakoçan":{"countryName":"Turkey","stateName":"Elazığ","name":"Karakoçan","lat":38.95178,"lon":40.02706,"geocoding":{},"distantMaxMiles":5},"Karakoçan / Elazığ":{"countryName":"Turkey","stateName":"Elazığ","name":"Karakoçan / Elazığ","lat":38.95527,"lon":40.04053,"geocoding":{},"distantMaxMiles":5},"Keban":{"countryName":"Turkey","stateName":"Elazığ","name":"Keban","lat":38.7938,"lon":38.73517,"geocoding":{},"distantMaxMiles":5},"Kovancılar":{"countryName":"Turkey","stateName":"Elazığ","name":"Kovancılar","lat":38.71882,"lon":39.86268,"geocoding":{},"distantMaxMiles":5},"Maden İlçesi":{"countryName":"Turkey","stateName":"Elazığ","name":"Maden İlçesi","lat":38.39354,"lon":39.67252,"geocoding":{},"distantMaxMiles":5},"Merkez":{"countryName":"Turkey","stateName":"Elazığ","name":"Merkez","lat":38.6679,"lon":39.21567,"geocoding":{},"distantMaxMiles":5},"Palu":{"countryName":"Turkey","stateName":"Elazığ","name":"Palu","lat":38.69135,"lon":39.91984,"geocoding":{},"distantMaxMiles":5},"Sivrice":{"countryName":"Turkey","stateName":"Elazığ","name":"Sivrice","lat":38.44223,"lon":39.30938,"geocoding":{},"distantMaxMiles":5},"Turluk":{"countryName":"Turkey","stateName":"Elazığ","name":"Turluk","lat":39.44034,"lon":39.87773,"geocoding":{},"distantMaxMiles":5}}},"Erzincan":{"countryName":"Turkey","name":"Erzincan","isoCode":"24","lat":39.7681914,"lon":39.0501306,"geocoding":{},"distantMaxMiles":5,"cities":{"Cimin":{"countryName":"Turkey","stateName":"Erzincan","name":"Cimin","lat":39.70947,"lon":39.70015,"geocoding":{},"distantMaxMiles":5},"Erzincan":{"countryName":"Turkey","stateName":"Erzincan","name":"Erzincan","lat":39.73919,"lon":39.49015,"geocoding":{},"distantMaxMiles":5},"Kemah":{"countryName":"Turkey","stateName":"Erzincan","name":"Kemah","lat":39.59606,"lon":39.02329,"geocoding":{},"distantMaxMiles":5},"Kemaliye":{"countryName":"Turkey","stateName":"Erzincan","name":"Kemaliye","lat":39.26288,"lon":38.49674,"geocoding":{},"distantMaxMiles":5},"Otlukbeli":{"countryName":"Turkey","stateName":"Erzincan","name":"Otlukbeli","lat":39.97,"lon":40.01872,"geocoding":{},"distantMaxMiles":5},"Refahiye":{"countryName":"Turkey","stateName":"Erzincan","name":"Refahiye","lat":39.89315,"lon":38.76607,"geocoding":{},"distantMaxMiles":5},"Tercan":{"countryName":"Turkey","stateName":"Erzincan","name":"Tercan","lat":39.77709,"lon":40.37783,"geocoding":{},"distantMaxMiles":5},"Çayırlı İlçesi":{"countryName":"Turkey","stateName":"Erzincan","name":"Çayırlı İlçesi","lat":39.80454,"lon":40.03724,"geocoding":{},"distantMaxMiles":5},"Üzümlü İlçesi":{"countryName":"Turkey","stateName":"Erzincan","name":"Üzümlü İlçesi","lat":39.70943,"lon":39.70125,"geocoding":{},"distantMaxMiles":5},"İliç İlçesi":{"countryName":"Turkey","stateName":"Erzincan","name":"İliç İlçesi","lat":39.45587,"lon":38.56409,"geocoding":{},"distantMaxMiles":5}}},"Erzurum":{"countryName":"Turkey","name":"Erzurum","isoCode":"25","lat":40.0746799,"lon":41.6694562,"geocoding":{},"distantMaxMiles":5,"cities":{"Aziziye":{"countryName":"Turkey","stateName":"Erzurum","name":"Aziziye","lat":39.94028,"lon":41.11153,"geocoding":{},"distantMaxMiles":5},"Aşkale":{"countryName":"Turkey","stateName":"Erzurum","name":"Aşkale","lat":39.92083,"lon":40.695,"geocoding":{},"distantMaxMiles":5},"Erzurum":{"countryName":"Turkey","stateName":"Erzurum","name":"Erzurum","lat":39.90861,"lon":41.27694,"geocoding":{},"distantMaxMiles":5},"Horasan":{"countryName":"Turkey","stateName":"Erzurum","name":"Horasan","lat":40.03885,"lon":42.16366,"geocoding":{},"distantMaxMiles":5},"Hınıs":{"countryName":"Turkey","stateName":"Erzurum","name":"Hınıs","lat":39.35766,"lon":41.69253,"geocoding":{},"distantMaxMiles":5},"Ilıca":{"countryName":"Turkey","stateName":"Erzurum","name":"Ilıca","lat":39.94653,"lon":41.0952,"geocoding":{},"distantMaxMiles":5},"Karayazı":{"countryName":"Turkey","stateName":"Erzurum","name":"Karayazı","lat":39.69604,"lon":42.14277,"geocoding":{},"distantMaxMiles":5},"Karaçoban":{"countryName":"Turkey","stateName":"Erzurum","name":"Karaçoban","lat":39.34364,"lon":42.09918,"geocoding":{},"distantMaxMiles":5},"Köprüköy İlçesi":{"countryName":"Turkey","stateName":"Erzurum","name":"Köprüköy İlçesi","lat":39.97178,"lon":41.86804,"geocoding":{},"distantMaxMiles":5},"Narman":{"countryName":"Turkey","stateName":"Erzurum","name":"Narman","lat":40.34449,"lon":41.86088,"geocoding":{},"distantMaxMiles":5},"Oltu":{"countryName":"Turkey","stateName":"Erzurum","name":"Oltu","lat":40.53945,"lon":41.98722,"geocoding":{},"distantMaxMiles":5},"Olur":{"countryName":"Turkey","stateName":"Erzurum","name":"Olur","lat":40.82165,"lon":42.13055,"geocoding":{},"distantMaxMiles":5},"Palandöken":{"countryName":"Turkey","stateName":"Erzurum","name":"Palandöken","lat":39.8556,"lon":41.27975,"geocoding":{},"distantMaxMiles":5},"Pasinler":{"countryName":"Turkey","stateName":"Erzurum","name":"Pasinler","lat":39.97975,"lon":41.66997,"geocoding":{},"distantMaxMiles":5},"Pazaryolu":{"countryName":"Turkey","stateName":"Erzurum","name":"Pazaryolu","lat":40.41142,"lon":40.7678,"geocoding":{},"distantMaxMiles":5},"Tekman":{"countryName":"Turkey","stateName":"Erzurum","name":"Tekman","lat":39.64111,"lon":41.50542,"geocoding":{},"distantMaxMiles":5},"Tortum":{"countryName":"Turkey","stateName":"Erzurum","name":"Tortum","lat":40.28892,"lon":41.54096,"geocoding":{},"distantMaxMiles":5},"Uzundere":{"countryName":"Turkey","stateName":"Erzurum","name":"Uzundere","lat":40.53218,"lon":41.53832,"geocoding":{},"distantMaxMiles":5},"Yakutiye":{"countryName":"Turkey","stateName":"Erzurum","name":"Yakutiye","lat":40.00132,"lon":41.30997,"geocoding":{},"distantMaxMiles":5},"Çat İlçesi":{"countryName":"Turkey","stateName":"Erzurum","name":"Çat İlçesi","lat":39.61055,"lon":40.97851,"geocoding":{},"distantMaxMiles":5},"İspir":{"countryName":"Turkey","stateName":"Erzurum","name":"İspir","lat":40.47981,"lon":40.99373,"geocoding":{},"distantMaxMiles":5},"Şenkaya":{"countryName":"Turkey","stateName":"Erzurum","name":"Şenkaya","lat":40.55652,"lon":42.34266,"geocoding":{},"distantMaxMiles":5}}},"Eskişehir":{"countryName":"Turkey","name":"Eskişehir","isoCode":"26","lat":39.6329657,"lon":31.2626366,"geocoding":{},"distantMaxMiles":5,"cities":{"Alpu":{"countryName":"Turkey","stateName":"Eskişehir","name":"Alpu","lat":39.76903,"lon":30.9606,"geocoding":{},"distantMaxMiles":5},"Beylikova":{"countryName":"Turkey","stateName":"Eskişehir","name":"Beylikova","lat":39.68694,"lon":31.20556,"geocoding":{},"distantMaxMiles":5},"Bozan":{"countryName":"Turkey","stateName":"Eskişehir","name":"Bozan","lat":39.78806,"lon":31.10167,"geocoding":{},"distantMaxMiles":5},"Eskişehir":{"countryName":"Turkey","stateName":"Eskişehir","name":"Eskişehir","lat":39.77667,"lon":30.52056,"geocoding":{},"distantMaxMiles":5},"Günyüzü İlçesi":{"countryName":"Turkey","stateName":"Eskişehir","name":"Günyüzü İlçesi","lat":39.3941,"lon":31.814,"geocoding":{},"distantMaxMiles":5},"Han":{"countryName":"Turkey","stateName":"Eskişehir","name":"Han","lat":39.15917,"lon":30.86139,"geocoding":{},"distantMaxMiles":5},"Kırka":{"countryName":"Turkey","stateName":"Eskişehir","name":"Kırka","lat":39.27944,"lon":30.52639,"geocoding":{},"distantMaxMiles":5},"Mahmudiye İlçesi":{"countryName":"Turkey","stateName":"Eskişehir","name":"Mahmudiye İlçesi","lat":39.50724,"lon":30.99247,"geocoding":{},"distantMaxMiles":5},"Mihalgazi":{"countryName":"Turkey","stateName":"Eskişehir","name":"Mihalgazi","lat":40.02621,"lon":30.57707,"geocoding":{},"distantMaxMiles":5},"Mihalıçcık İlçesi":{"countryName":"Turkey","stateName":"Eskişehir","name":"Mihalıçcık İlçesi","lat":39.87564,"lon":31.50091,"geocoding":{},"distantMaxMiles":5},"Odunpazarı":{"countryName":"Turkey","stateName":"Eskişehir","name":"Odunpazarı","lat":39.76699,"lon":30.54113,"geocoding":{},"distantMaxMiles":5},"Sarıcakaya İlçesi":{"countryName":"Turkey","stateName":"Eskişehir","name":"Sarıcakaya İlçesi","lat":40.04671,"lon":30.61994,"geocoding":{},"distantMaxMiles":5},"Sevinç":{"countryName":"Turkey","stateName":"Eskişehir","name":"Sevinç","lat":39.78,"lon":30.68889,"geocoding":{},"distantMaxMiles":5},"Seyitgazi":{"countryName":"Turkey","stateName":"Eskişehir","name":"Seyitgazi","lat":39.44472,"lon":30.69472,"geocoding":{},"distantMaxMiles":5},"Sivrihisar":{"countryName":"Turkey","stateName":"Eskişehir","name":"Sivrihisar","lat":39.45037,"lon":31.53409,"geocoding":{},"distantMaxMiles":5},"Tepebaşı":{"countryName":"Turkey","stateName":"Eskişehir","name":"Tepebaşı","lat":39.7843,"lon":30.50206,"geocoding":{},"distantMaxMiles":5},"Çifteler":{"countryName":"Turkey","stateName":"Eskişehir","name":"Çifteler","lat":39.38306,"lon":31.03917,"geocoding":{},"distantMaxMiles":5},"İnönü":{"countryName":"Turkey","stateName":"Eskişehir","name":"İnönü","lat":39.81534,"lon":30.14549,"geocoding":{},"distantMaxMiles":5}}},"Gaziantep":{"countryName":"Turkey","name":"Gaziantep","isoCode":"27","lat":37.0763882,"lon":37.3827234,"geocoding":{},"distantMaxMiles":5,"cities":{"Araban":{"countryName":"Turkey","stateName":"Gaziantep","name":"Araban","lat":37.42559,"lon":37.78175,"geocoding":{},"distantMaxMiles":5},"Doğanpınar":{"countryName":"Turkey","stateName":"Gaziantep","name":"Doğanpınar","lat":36.84321,"lon":37.61759,"geocoding":{},"distantMaxMiles":5},"Gaziantep":{"countryName":"Turkey","stateName":"Gaziantep","name":"Gaziantep","lat":37.05944,"lon":37.3825,"geocoding":{},"distantMaxMiles":5},"Karkamış":{"countryName":"Turkey","stateName":"Gaziantep","name":"Karkamış","lat":36.83452,"lon":37.9983,"geocoding":{},"distantMaxMiles":5},"Nizip":{"countryName":"Turkey","stateName":"Gaziantep","name":"Nizip","lat":37.00972,"lon":37.79417,"geocoding":{},"distantMaxMiles":5},"Nurdağı":{"countryName":"Turkey","stateName":"Gaziantep","name":"Nurdağı","lat":37.16821,"lon":36.73623,"geocoding":{},"distantMaxMiles":5},"Oğuzeli":{"countryName":"Turkey","stateName":"Gaziantep","name":"Oğuzeli","lat":36.96572,"lon":37.51339,"geocoding":{},"distantMaxMiles":5},"Sekili":{"countryName":"Turkey","stateName":"Gaziantep","name":"Sekili","lat":36.97876,"lon":37.67174,"geocoding":{},"distantMaxMiles":5},"Uluyatır":{"countryName":"Turkey","stateName":"Gaziantep","name":"Uluyatır","lat":36.96333,"lon":37.69361,"geocoding":{},"distantMaxMiles":5},"Yavuzeli":{"countryName":"Turkey","stateName":"Gaziantep","name":"Yavuzeli","lat":37.31772,"lon":37.56824,"geocoding":{},"distantMaxMiles":5},"Yeşildere":{"countryName":"Turkey","stateName":"Gaziantep","name":"Yeşildere","lat":36.973,"lon":37.49488,"geocoding":{},"distantMaxMiles":5},"İkizce":{"countryName":"Turkey","stateName":"Gaziantep","name":"İkizce","lat":36.86262,"lon":37.77432,"geocoding":{},"distantMaxMiles":5},"İslahiye İlçesi":{"countryName":"Turkey","stateName":"Gaziantep","name":"İslahiye İlçesi","lat":36.96528,"lon":36.70972,"geocoding":{},"distantMaxMiles":5},"Şahinbey İlçesi":{"countryName":"Turkey","stateName":"Gaziantep","name":"Şahinbey İlçesi","lat":37.03741,"lon":37.37822,"geocoding":{},"distantMaxMiles":5},"Şehitkamil":{"countryName":"Turkey","stateName":"Gaziantep","name":"Şehitkamil","lat":37.17217,"lon":37.36974,"geocoding":{},"distantMaxMiles":5}}},"Giresun":{"countryName":"Turkey","name":"Giresun","isoCode":"28","lat":40.6461672,"lon":38.5935511,"geocoding":{},"distantMaxMiles":5,"cities":{"Alucra İlçesi":{"countryName":"Turkey","stateName":"Giresun","name":"Alucra İlçesi","lat":40.31924,"lon":38.76528,"geocoding":{},"distantMaxMiles":5},"Bulancak":{"countryName":"Turkey","stateName":"Giresun","name":"Bulancak","lat":40.93805,"lon":38.23148,"geocoding":{},"distantMaxMiles":5},"Dereli":{"countryName":"Turkey","stateName":"Giresun","name":"Dereli","lat":40.613,"lon":38.39,"geocoding":{},"distantMaxMiles":5},"Doğankent":{"countryName":"Turkey","stateName":"Giresun","name":"Doğankent","lat":40.8075,"lon":38.91722,"geocoding":{},"distantMaxMiles":5},"Espiye":{"countryName":"Turkey","stateName":"Giresun","name":"Espiye","lat":40.94705,"lon":38.70299,"geocoding":{},"distantMaxMiles":5},"Eynesil":{"countryName":"Turkey","stateName":"Giresun","name":"Eynesil","lat":41.06436,"lon":39.14274,"geocoding":{},"distantMaxMiles":5},"Giresun":{"countryName":"Turkey","stateName":"Giresun","name":"Giresun","lat":40.91698,"lon":38.38741,"geocoding":{},"distantMaxMiles":5},"Görele":{"countryName":"Turkey","stateName":"Giresun","name":"Görele","lat":41.03083,"lon":39.00306,"geocoding":{},"distantMaxMiles":5},"Güce İlçesi":{"countryName":"Turkey","stateName":"Giresun","name":"Güce İlçesi","lat":40.89368,"lon":38.80855,"geocoding":{},"distantMaxMiles":5},"Keşap":{"countryName":"Turkey","stateName":"Giresun","name":"Keşap","lat":40.91387,"lon":38.51442,"geocoding":{},"distantMaxMiles":5},"Merkez":{"countryName":"Turkey","stateName":"Giresun","name":"Merkez","lat":40.8266,"lon":38.36085,"geocoding":{},"distantMaxMiles":5},"Piraziz":{"countryName":"Turkey","stateName":"Giresun","name":"Piraziz","lat":40.92244,"lon":38.12458,"geocoding":{},"distantMaxMiles":5},"Tirebolu":{"countryName":"Turkey","stateName":"Giresun","name":"Tirebolu","lat":41.00633,"lon":38.8498,"geocoding":{},"distantMaxMiles":5},"Yağlıdere İlçesi":{"countryName":"Turkey","stateName":"Giresun","name":"Yağlıdere İlçesi","lat":40.85711,"lon":38.63242,"geocoding":{},"distantMaxMiles":5},"Çamoluk İlçesi":{"countryName":"Turkey","stateName":"Giresun","name":"Çamoluk İlçesi","lat":40.13418,"lon":38.73389,"geocoding":{},"distantMaxMiles":5},"Çanakçı":{"countryName":"Turkey","stateName":"Giresun","name":"Çanakçı","lat":40.86,"lon":39.05,"geocoding":{},"distantMaxMiles":5},"Şebin Karahisar":{"countryName":"Turkey","stateName":"Giresun","name":"Şebin Karahisar","lat":40.28833,"lon":38.42361,"geocoding":{},"distantMaxMiles":5}}},"Gümüşhane":{"countryName":"Turkey","name":"Gümüşhane","isoCode":"29","lat":40.2803673,"lon":39.3143253,"geocoding":{},"distantMaxMiles":5,"cities":{"Evren":{"countryName":"Turkey","stateName":"Gümüşhane","name":"Evren","lat":40.24527,"lon":39.17535,"geocoding":{},"distantMaxMiles":5},"Gumushkhane":{"countryName":"Turkey","stateName":"Gümüşhane","name":"Gumushkhane","lat":40.46001,"lon":39.47176,"geocoding":{},"distantMaxMiles":5},"Kelkit":{"countryName":"Turkey","stateName":"Gümüşhane","name":"Kelkit","lat":40.12682,"lon":39.43424,"geocoding":{},"distantMaxMiles":5},"Köse":{"countryName":"Turkey","stateName":"Gümüşhane","name":"Köse","lat":40.20692,"lon":39.64626,"geocoding":{},"distantMaxMiles":5},"Kürtün":{"countryName":"Turkey","stateName":"Gümüşhane","name":"Kürtün","lat":40.69516,"lon":39.09468,"geocoding":{},"distantMaxMiles":5},"Merkez":{"countryName":"Turkey","stateName":"Gümüşhane","name":"Merkez","lat":40.46843,"lon":39.67441,"geocoding":{},"distantMaxMiles":5},"Torul":{"countryName":"Turkey","stateName":"Gümüşhane","name":"Torul","lat":40.55071,"lon":39.28344,"geocoding":{},"distantMaxMiles":5},"Yağlıdere":{"countryName":"Turkey","stateName":"Gümüşhane","name":"Yağlıdere","lat":40.54432,"lon":39.52762,"geocoding":{},"distantMaxMiles":5},"Şiran":{"countryName":"Turkey","stateName":"Gümüşhane","name":"Şiran","lat":40.19064,"lon":39.11747,"geocoding":{},"distantMaxMiles":5}}},"Hakkâri":{"countryName":"Turkey","name":"Hakkâri","isoCode":"30","lat":37.4459319,"lon":43.7449841,"geocoding":{},"distantMaxMiles":5,"cities":{"Hakkâri":{"countryName":"Turkey","stateName":"Hakkâri","name":"Hakkâri","lat":37.57444,"lon":43.74083,"geocoding":{},"distantMaxMiles":5},"Karsani":{"countryName":"Turkey","stateName":"Hakkâri","name":"Karsani","lat":37.30716,"lon":43.4541,"geocoding":{},"distantMaxMiles":5},"Yüksekova":{"countryName":"Turkey","stateName":"Hakkâri","name":"Yüksekova","lat":37.54627,"lon":44.25827,"geocoding":{},"distantMaxMiles":5},"Çukurca":{"countryName":"Turkey","stateName":"Hakkâri","name":"Çukurca","lat":37.24806,"lon":43.61361,"geocoding":{},"distantMaxMiles":5},"Şemdinli":{"countryName":"Turkey","stateName":"Hakkâri","name":"Şemdinli","lat":37.30514,"lon":44.5742,"geocoding":{},"distantMaxMiles":5},"Şemdinni İlçesi":{"countryName":"Turkey","stateName":"Hakkâri","name":"Şemdinni İlçesi","lat":37.31325,"lon":44.58016,"geocoding":{},"distantMaxMiles":5}}},"Hatay":{"countryName":"Turkey","name":"Hatay","isoCode":"31","lat":36.4018488,"lon":36.3498097,"geocoding":{},"distantMaxMiles":5,"cities":{"Altınözü":{"countryName":"Turkey","stateName":"Hatay","name":"Altınözü","lat":36.11244,"lon":36.24488,"geocoding":{},"distantMaxMiles":5},"Anayazı":{"countryName":"Turkey","stateName":"Hatay","name":"Anayazı","lat":36.32107,"lon":36.19061,"geocoding":{},"distantMaxMiles":5},"Antakya":{"countryName":"Turkey","stateName":"Hatay","name":"Antakya","lat":36.20655,"lon":36.15722,"geocoding":{},"distantMaxMiles":5},"Arsuz":{"countryName":"Turkey","stateName":"Hatay","name":"Arsuz","lat":36.41305,"lon":35.89033,"geocoding":{},"distantMaxMiles":5},"Açıkdere":{"countryName":"Turkey","stateName":"Hatay","name":"Açıkdere","lat":36.21909,"lon":36.25992,"geocoding":{},"distantMaxMiles":5},"Aşağı Karafakılı":{"countryName":"Turkey","stateName":"Hatay","name":"Aşağı Karafakılı","lat":36.77885,"lon":36.55776,"geocoding":{},"distantMaxMiles":5},"Aşağıokçular":{"countryName":"Turkey","stateName":"Hatay","name":"Aşağıokçular","lat":36.17802,"lon":36.14033,"geocoding":{},"distantMaxMiles":5},"Balıklıdere":{"countryName":"Turkey","stateName":"Hatay","name":"Balıklıdere","lat":36.12096,"lon":36.10481,"geocoding":{},"distantMaxMiles":5},"Belen":{"countryName":"Turkey","stateName":"Hatay","name":"Belen","lat":36.48866,"lon":36.19489,"geocoding":{},"distantMaxMiles":5},"Boynuyoğun":{"countryName":"Turkey","stateName":"Hatay","name":"Boynuyoğun","lat":36.16935,"lon":36.34249,"geocoding":{},"distantMaxMiles":5},"Büyük Dalyan":{"countryName":"Turkey","stateName":"Hatay","name":"Büyük Dalyan","lat":36.28824,"lon":36.20903,"geocoding":{},"distantMaxMiles":5},"Büyükçat":{"countryName":"Turkey","stateName":"Hatay","name":"Büyükçat","lat":36.115,"lon":36.0774,"geocoding":{},"distantMaxMiles":5},"Defne":{"countryName":"Turkey","stateName":"Hatay","name":"Defne","lat":36.23739,"lon":36.16364,"geocoding":{},"distantMaxMiles":5},"Denizciler":{"countryName":"Turkey","stateName":"Hatay","name":"Denizciler","lat":36.6411,"lon":36.21418,"geocoding":{},"distantMaxMiles":5},"Dursunlu":{"countryName":"Turkey","stateName":"Hatay","name":"Dursunlu","lat":36.16736,"lon":36.15788,"geocoding":{},"distantMaxMiles":5},"Dörtyol":{"countryName":"Turkey","stateName":"Hatay","name":"Dörtyol","lat":36.83917,"lon":36.23025,"geocoding":{},"distantMaxMiles":5},"Erzin":{"countryName":"Turkey","stateName":"Hatay","name":"Erzin","lat":36.95348,"lon":36.19839,"geocoding":{},"distantMaxMiles":5},"Gümüşgöze":{"countryName":"Turkey","stateName":"Hatay","name":"Gümüşgöze","lat":36.14785,"lon":36.13284,"geocoding":{},"distantMaxMiles":5},"Günyazı":{"countryName":"Turkey","stateName":"Hatay","name":"Günyazı","lat":36.23307,"lon":36.11702,"geocoding":{},"distantMaxMiles":5},"Hacıpaşa":{"countryName":"Turkey","stateName":"Hatay","name":"Hacıpaşa","lat":36.06907,"lon":36.37076,"geocoding":{},"distantMaxMiles":5},"Hassa":{"countryName":"Turkey","stateName":"Hatay","name":"Hassa","lat":36.79944,"lon":36.51778,"geocoding":{},"distantMaxMiles":5},"Karasüleymanlı":{"countryName":"Turkey","stateName":"Hatay","name":"Karasüleymanlı","lat":36.34191,"lon":36.41431,"geocoding":{},"distantMaxMiles":5},"Kastal":{"countryName":"Turkey","stateName":"Hatay","name":"Kastal","lat":36.2476,"lon":36.2409,"geocoding":{},"distantMaxMiles":5},"Kumlu İlçesi":{"countryName":"Turkey","stateName":"Hatay","name":"Kumlu İlçesi","lat":36.36508,"lon":36.45526,"geocoding":{},"distantMaxMiles":5},"Kuzeytepe":{"countryName":"Turkey","stateName":"Hatay","name":"Kuzeytepe","lat":36.26505,"lon":36.1535,"geocoding":{},"distantMaxMiles":5},"Kırıkhan":{"countryName":"Turkey","stateName":"Hatay","name":"Kırıkhan","lat":36.49939,"lon":36.35755,"geocoding":{},"distantMaxMiles":5},"Kızkalesi":{"countryName":"Turkey","stateName":"Hatay","name":"Kızkalesi","lat":36.46192,"lon":34.14199,"geocoding":{},"distantMaxMiles":5},"Kışlak":{"countryName":"Turkey","stateName":"Hatay","name":"Kışlak","lat":35.9675,"lon":36.15749,"geocoding":{},"distantMaxMiles":5},"Mahmutlar":{"countryName":"Turkey","stateName":"Hatay","name":"Mahmutlar","lat":36.949,"lon":36.19231,"geocoding":{},"distantMaxMiles":5},"Payas":{"countryName":"Turkey","stateName":"Hatay","name":"Payas","lat":36.756,"lon":36.21432,"geocoding":{},"distantMaxMiles":5},"Reyhanlı":{"countryName":"Turkey","stateName":"Hatay","name":"Reyhanlı","lat":36.26791,"lon":36.56747,"geocoding":{},"distantMaxMiles":5},"Samankaya":{"countryName":"Turkey","stateName":"Hatay","name":"Samankaya","lat":36.15027,"lon":36.12829,"geocoding":{},"distantMaxMiles":5},"Serinyol":{"countryName":"Turkey","stateName":"Hatay","name":"Serinyol","lat":36.36139,"lon":36.21361,"geocoding":{},"distantMaxMiles":5},"Tepehan":{"countryName":"Turkey","stateName":"Hatay","name":"Tepehan","lat":36.15853,"lon":36.2286,"geocoding":{},"distantMaxMiles":5},"Toygarlı":{"countryName":"Turkey","stateName":"Hatay","name":"Toygarlı","lat":36.21261,"lon":36.07262,"geocoding":{},"distantMaxMiles":5},"Uzunbağ":{"countryName":"Turkey","stateName":"Hatay","name":"Uzunbağ","lat":36.14023,"lon":36.03603,"geocoding":{},"distantMaxMiles":5},"Uzunkavak":{"countryName":"Turkey","stateName":"Hatay","name":"Uzunkavak","lat":36.3524,"lon":36.41952,"geocoding":{},"distantMaxMiles":5},"Yayladağı":{"countryName":"Turkey","stateName":"Hatay","name":"Yayladağı","lat":35.9025,"lon":36.06272,"geocoding":{},"distantMaxMiles":5},"Çırtıman":{"countryName":"Turkey","stateName":"Hatay","name":"Çırtıman","lat":36.52531,"lon":36.18129,"geocoding":{},"distantMaxMiles":5},"İskenderun":{"countryName":"Turkey","stateName":"Hatay","name":"İskenderun","lat":36.58718,"lon":36.17347,"geocoding":{},"distantMaxMiles":5}}},"Isparta":{"countryName":"Turkey","name":"Isparta","isoCode":"32","lat":38.0211464,"lon":31.0793705,"geocoding":{},"distantMaxMiles":5,"cities":{"Aksu":{"countryName":"Turkey","stateName":"Isparta","name":"Aksu","lat":37.79889,"lon":31.07111,"geocoding":{},"distantMaxMiles":5},"Anamas":{"countryName":"Turkey","stateName":"Isparta","name":"Anamas","lat":37.76667,"lon":30.8,"geocoding":{},"distantMaxMiles":5},"Atabey":{"countryName":"Turkey","stateName":"Isparta","name":"Atabey","lat":37.95083,"lon":30.63861,"geocoding":{},"distantMaxMiles":5},"Eğirdir":{"countryName":"Turkey","stateName":"Isparta","name":"Eğirdir","lat":37.87462,"lon":30.85042,"geocoding":{},"distantMaxMiles":5},"Gelendost":{"countryName":"Turkey","stateName":"Isparta","name":"Gelendost","lat":38.12083,"lon":31.01528,"geocoding":{},"distantMaxMiles":5},"Gönen":{"countryName":"Turkey","stateName":"Isparta","name":"Gönen","lat":37.95639,"lon":30.5114,"geocoding":{},"distantMaxMiles":5},"Isparta":{"countryName":"Turkey","stateName":"Isparta","name":"Isparta","lat":37.76444,"lon":30.55222,"geocoding":{},"distantMaxMiles":5},"Keçiborlu":{"countryName":"Turkey","stateName":"Isparta","name":"Keçiborlu","lat":37.9425,"lon":30.30222,"geocoding":{},"distantMaxMiles":5},"Pavlu Cebel":{"countryName":"Turkey","stateName":"Isparta","name":"Pavlu Cebel","lat":37.49737,"lon":30.97727,"geocoding":{},"distantMaxMiles":5},"Senirkent":{"countryName":"Turkey","stateName":"Isparta","name":"Senirkent","lat":38.10444,"lon":30.54861,"geocoding":{},"distantMaxMiles":5},"Sütçüler İlçesi":{"countryName":"Turkey","stateName":"Isparta","name":"Sütçüler İlçesi","lat":37.5112,"lon":30.95661,"geocoding":{},"distantMaxMiles":5},"Uluborlu":{"countryName":"Turkey","stateName":"Isparta","name":"Uluborlu","lat":38.07825,"lon":30.45019,"geocoding":{},"distantMaxMiles":5},"Yalvaç":{"countryName":"Turkey","stateName":"Isparta","name":"Yalvaç","lat":38.29556,"lon":31.17778,"geocoding":{},"distantMaxMiles":5},"Yenişarbademli":{"countryName":"Turkey","stateName":"Isparta","name":"Yenişarbademli","lat":37.70778,"lon":31.38639,"geocoding":{},"distantMaxMiles":5},"Şarkîkaraağaç":{"countryName":"Turkey","stateName":"Isparta","name":"Şarkîkaraağaç","lat":38.07944,"lon":31.36639,"geocoding":{},"distantMaxMiles":5}}},"Istanbul":{"countryName":"Turkey","name":"Istanbul","isoCode":"34","lat":41.1634302,"lon":28.7664408,"geocoding":{},"distantMaxMiles":5,"cities":{"Adalar":{"countryName":"Turkey","stateName":"Istanbul","name":"Adalar","lat":40.86913,"lon":29.12064,"geocoding":{},"distantMaxMiles":5},"Arnavutköy":{"countryName":"Turkey","stateName":"Istanbul","name":"Arnavutköy","lat":41.19674,"lon":28.73405,"geocoding":{},"distantMaxMiles":5},"Ataşehir":{"countryName":"Turkey","stateName":"Istanbul","name":"Ataşehir","lat":40.99104,"lon":29.13471,"geocoding":{},"distantMaxMiles":5},"Avcılar":{"countryName":"Turkey","stateName":"Istanbul","name":"Avcılar","lat":41.02355,"lon":28.7186,"geocoding":{},"distantMaxMiles":5},"Bahçelievler":{"countryName":"Turkey","stateName":"Istanbul","name":"Bahçelievler","lat":41.00652,"lon":28.84099,"geocoding":{},"distantMaxMiles":5},"Bakırköy":{"countryName":"Turkey","stateName":"Istanbul","name":"Bakırköy","lat":40.98388,"lon":28.83541,"geocoding":{},"distantMaxMiles":5},"Bayrampaşa":{"countryName":"Turkey","stateName":"Istanbul","name":"Bayrampaşa","lat":41.04691,"lon":28.90278,"geocoding":{},"distantMaxMiles":5},"Bağcılar":{"countryName":"Turkey","stateName":"Istanbul","name":"Bağcılar","lat":41.04275,"lon":28.83625,"geocoding":{},"distantMaxMiles":5},"Başakşehir":{"countryName":"Turkey","stateName":"Istanbul","name":"Başakşehir","lat":41.09203,"lon":28.80203,"geocoding":{},"distantMaxMiles":5},"Beykoz":{"countryName":"Turkey","stateName":"Istanbul","name":"Beykoz","lat":41.13774,"lon":29.16932,"geocoding":{},"distantMaxMiles":5},"Beylikdüzü":{"countryName":"Turkey","stateName":"Istanbul","name":"Beylikdüzü","lat":41.00322,"lon":28.64067,"geocoding":{},"distantMaxMiles":5},"Beyoğlu":{"countryName":"Turkey","stateName":"Istanbul","name":"Beyoğlu","lat":41.03786,"lon":28.96767,"geocoding":{},"distantMaxMiles":5},"Beşiktaş":{"countryName":"Turkey","stateName":"Istanbul","name":"Beşiktaş","lat":41.07122,"lon":29.02321,"geocoding":{},"distantMaxMiles":5},"Büyükçekmece":{"countryName":"Turkey","stateName":"Istanbul","name":"Büyükçekmece","lat":41.04521,"lon":28.59573,"geocoding":{},"distantMaxMiles":5},"Eminönü":{"countryName":"Turkey","stateName":"Istanbul","name":"Eminönü","lat":41.01766,"lon":28.97438,"geocoding":{},"distantMaxMiles":5},"Esenler":{"countryName":"Turkey","stateName":"Istanbul","name":"Esenler","lat":41.07925,"lon":28.85235,"geocoding":{},"distantMaxMiles":5},"Esenyurt":{"countryName":"Turkey","stateName":"Istanbul","name":"Esenyurt","lat":41.04,"lon":28.66161,"geocoding":{},"distantMaxMiles":5},"Eyüpsultan":{"countryName":"Turkey","stateName":"Istanbul","name":"Eyüpsultan","lat":41.19904,"lon":28.88667,"geocoding":{},"distantMaxMiles":5},"Fatih":{"countryName":"Turkey","stateName":"Istanbul","name":"Fatih","lat":41.01746,"lon":28.94053,"geocoding":{},"distantMaxMiles":5},"Gaziosmanpaşa":{"countryName":"Turkey","stateName":"Istanbul","name":"Gaziosmanpaşa","lat":41.07857,"lon":28.89679,"geocoding":{},"distantMaxMiles":5},"Güngören":{"countryName":"Turkey","stateName":"Istanbul","name":"Güngören","lat":41.01787,"lon":28.87882,"geocoding":{},"distantMaxMiles":5},"Kadıköy":{"countryName":"Turkey","stateName":"Istanbul","name":"Kadıköy","lat":40.98229,"lon":29.09032,"geocoding":{},"distantMaxMiles":5},"Kartal":{"countryName":"Turkey","stateName":"Istanbul","name":"Kartal","lat":40.91197,"lon":29.2119,"geocoding":{},"distantMaxMiles":5},"Kâğıthane":{"countryName":"Turkey","stateName":"Istanbul","name":"Kâğıthane","lat":41.08319,"lon":28.97826,"geocoding":{},"distantMaxMiles":5},"Küçükçekmece":{"countryName":"Turkey","stateName":"Istanbul","name":"Küçükçekmece","lat":41.06947,"lon":28.76983,"geocoding":{},"distantMaxMiles":5},"Maltepe":{"countryName":"Turkey","stateName":"Istanbul","name":"Maltepe","lat":40.9589,"lon":29.17866,"geocoding":{},"distantMaxMiles":5},"Pendik":{"countryName":"Turkey","stateName":"Istanbul","name":"Pendik","lat":40.94577,"lon":29.33019,"geocoding":{},"distantMaxMiles":5},"Sancaktepe":{"countryName":"Turkey","stateName":"Istanbul","name":"Sancaktepe","lat":40.98949,"lon":29.2432,"geocoding":{},"distantMaxMiles":5},"Sarıyer":{"countryName":"Turkey","stateName":"Istanbul","name":"Sarıyer","lat":41.21482,"lon":29.05678,"geocoding":{},"distantMaxMiles":5},"Silivri":{"countryName":"Turkey","stateName":"Istanbul","name":"Silivri","lat":41.18116,"lon":28.1989,"geocoding":{},"distantMaxMiles":5},"Sultanbeyli":{"countryName":"Turkey","stateName":"Istanbul","name":"Sultanbeyli","lat":40.95264,"lon":29.26797,"geocoding":{},"distantMaxMiles":5},"Sultangazi":{"countryName":"Turkey","stateName":"Istanbul","name":"Sultangazi","lat":41.21792,"lon":28.7174,"geocoding":{},"distantMaxMiles":5},"Tuzla":{"countryName":"Turkey","stateName":"Istanbul","name":"Tuzla","lat":40.86368,"lon":29.31942,"geocoding":{},"distantMaxMiles":5},"Umraniye":{"countryName":"Turkey","stateName":"Istanbul","name":"Umraniye","lat":41.01643,"lon":29.12476,"geocoding":{},"distantMaxMiles":5},"Zeytinburnu":{"countryName":"Turkey","stateName":"Istanbul","name":"Zeytinburnu","lat":41.00824,"lon":28.90952,"geocoding":{},"distantMaxMiles":5},"Çatalca":{"countryName":"Turkey","stateName":"Istanbul","name":"Çatalca","lat":41.29651,"lon":28.45419,"geocoding":{},"distantMaxMiles":5},"Çekmeköy":{"countryName":"Turkey","stateName":"Istanbul","name":"Çekmeköy","lat":41.03819,"lon":29.20029,"geocoding":{},"distantMaxMiles":5},"Üsküdar":{"countryName":"Turkey","stateName":"Istanbul","name":"Üsküdar","lat":41.02274,"lon":29.01366,"geocoding":{},"distantMaxMiles":5},"Şile":{"countryName":"Turkey","stateName":"Istanbul","name":"Şile","lat":41.12902,"lon":29.61845,"geocoding":{},"distantMaxMiles":5},"Şişli":{"countryName":"Turkey","stateName":"Istanbul","name":"Şişli","lat":41.12514,"lon":29.00013,"geocoding":{},"distantMaxMiles":5}}},"Iğdır":{"countryName":"Turkey","name":"Iğdır","isoCode":"76","lat":39.8879841,"lon":44.0048365,"geocoding":{},"distantMaxMiles":5,"cities":{"Iğdır":{"countryName":"Turkey","stateName":"Iğdır","name":"Iğdır","lat":39.92371,"lon":44.045,"geocoding":{},"distantMaxMiles":5},"Karakoyunlu":{"countryName":"Turkey","stateName":"Iğdır","name":"Karakoyunlu","lat":39.87036,"lon":43.63014,"geocoding":{},"distantMaxMiles":5},"Tuzluca İlçesi":{"countryName":"Turkey","stateName":"Iğdır","name":"Tuzluca İlçesi","lat":40.03863,"lon":43.65212,"geocoding":{},"distantMaxMiles":5}}},"Kahramanmaraş":{"countryName":"Turkey","name":"Kahramanmaraş","isoCode":"46","lat":37.7503036,"lon":36.954107,"geocoding":{},"distantMaxMiles":5,"cities":{"Afşin":{"countryName":"Turkey","stateName":"Kahramanmaraş","name":"Afşin","lat":38.24769,"lon":36.91399,"geocoding":{},"distantMaxMiles":5},"Andırın":{"countryName":"Turkey","stateName":"Kahramanmaraş","name":"Andırın","lat":37.57757,"lon":36.35492,"geocoding":{},"distantMaxMiles":5},"Celeyke":{"countryName":"Turkey","stateName":"Kahramanmaraş","name":"Celeyke","lat":38.05974,"lon":37.18786,"geocoding":{},"distantMaxMiles":5},"Dulkadiroğlu":{"countryName":"Turkey","stateName":"Kahramanmaraş","name":"Dulkadiroğlu","lat":37.58254,"lon":36.91973,"geocoding":{},"distantMaxMiles":5},"Ekinözü İlçesi":{"countryName":"Turkey","stateName":"Kahramanmaraş","name":"Ekinözü İlçesi","lat":38.07007,"lon":37.19414,"geocoding":{},"distantMaxMiles":5},"Elbistan":{"countryName":"Turkey","stateName":"Kahramanmaraş","name":"Elbistan","lat":38.20591,"lon":37.1983,"geocoding":{},"distantMaxMiles":5},"Göksun":{"countryName":"Turkey","stateName":"Kahramanmaraş","name":"Göksun","lat":38.02096,"lon":36.4973,"geocoding":{},"distantMaxMiles":5},"Kahramanmaraş":{"countryName":"Turkey","stateName":"Kahramanmaraş","name":"Kahramanmaraş","lat":37.5847,"lon":36.92641,"geocoding":{},"distantMaxMiles":5},"Nurhak":{"countryName":"Turkey","stateName":"Kahramanmaraş","name":"Nurhak","lat":37.96366,"lon":37.44047,"geocoding":{},"distantMaxMiles":5},"Onikişubat":{"countryName":"Turkey","stateName":"Kahramanmaraş","name":"Onikişubat","lat":37.59002,"lon":36.90548,"geocoding":{},"distantMaxMiles":5},"Pazarcık":{"countryName":"Turkey","stateName":"Kahramanmaraş","name":"Pazarcık","lat":37.48685,"lon":37.29961,"geocoding":{},"distantMaxMiles":5},"Süleymanlı":{"countryName":"Turkey","stateName":"Kahramanmaraş","name":"Süleymanlı","lat":37.87264,"lon":36.81714,"geocoding":{},"distantMaxMiles":5},"Türkoğlu İlçesi":{"countryName":"Turkey","stateName":"Kahramanmaraş","name":"Türkoğlu İlçesi","lat":37.38417,"lon":36.84626,"geocoding":{},"distantMaxMiles":5},"Çağlayancerit":{"countryName":"Turkey","stateName":"Kahramanmaraş","name":"Çağlayancerit","lat":37.74523,"lon":37.28618,"geocoding":{},"distantMaxMiles":5}}},"Karabük":{"countryName":"Turkey","name":"Karabük","isoCode":"78","lat":41.187489,"lon":32.7417419,"geocoding":{},"distantMaxMiles":5,"cities":{"Eflani":{"countryName":"Turkey","stateName":"Karabük","name":"Eflani","lat":41.42289,"lon":32.95761,"geocoding":{},"distantMaxMiles":5},"Eskipazar İlçesi":{"countryName":"Turkey","stateName":"Karabük","name":"Eskipazar İlçesi","lat":40.95207,"lon":32.54604,"geocoding":{},"distantMaxMiles":5},"Gözyeri":{"countryName":"Turkey","stateName":"Karabük","name":"Gözyeri","lat":40.86596,"lon":32.54167,"geocoding":{},"distantMaxMiles":5},"Karabük":{"countryName":"Turkey","stateName":"Karabük","name":"Karabük","lat":41.20488,"lon":32.62768,"geocoding":{},"distantMaxMiles":5},"Ovacık İlçesi":{"countryName":"Turkey","stateName":"Karabük","name":"Ovacık İlçesi","lat":41.08029,"lon":32.93224,"geocoding":{},"distantMaxMiles":5},"Safranbolu":{"countryName":"Turkey","stateName":"Karabük","name":"Safranbolu","lat":41.25083,"lon":32.69417,"geocoding":{},"distantMaxMiles":5},"Yenice":{"countryName":"Turkey","stateName":"Karabük","name":"Yenice","lat":41.19962,"lon":32.33133,"geocoding":{},"distantMaxMiles":5}}},"Karaman":{"countryName":"Turkey","name":"Karaman","isoCode":"70","lat":37.2436336,"lon":33.617577,"geocoding":{},"distantMaxMiles":5,"cities":{"Ayrancı İlçesi":{"countryName":"Turkey","stateName":"Karaman","name":"Ayrancı İlçesi","lat":37.37111,"lon":33.69291,"geocoding":{},"distantMaxMiles":5},"Başyayla":{"countryName":"Turkey","stateName":"Karaman","name":"Başyayla","lat":36.75337,"lon":32.68018,"geocoding":{},"distantMaxMiles":5},"Ermenek":{"countryName":"Turkey","stateName":"Karaman","name":"Ermenek","lat":36.64043,"lon":32.89179,"geocoding":{},"distantMaxMiles":5},"Karaman":{"countryName":"Turkey","stateName":"Karaman","name":"Karaman","lat":37.18111,"lon":33.215,"geocoding":{},"distantMaxMiles":5},"Kazımkarabekir":{"countryName":"Turkey","stateName":"Karaman","name":"Kazımkarabekir","lat":37.23028,"lon":32.95889,"geocoding":{},"distantMaxMiles":5},"Sarıveliler":{"countryName":"Turkey","stateName":"Karaman","name":"Sarıveliler","lat":36.69705,"lon":32.61203,"geocoding":{},"distantMaxMiles":5},"İnönü":{"countryName":"Turkey","stateName":"Karaman","name":"İnönü","lat":37.31667,"lon":33.76667,"geocoding":{},"distantMaxMiles":5}}},"Kars":{"countryName":"Turkey","name":"Kars","isoCode":"36","lat":40.2807636,"lon":42.9919527,"geocoding":{},"distantMaxMiles":5,"cities":{"Akyaka":{"countryName":"Turkey","stateName":"Kars","name":"Akyaka","lat":40.74093,"lon":43.61432,"geocoding":{},"distantMaxMiles":5},"Arpaçay":{"countryName":"Turkey","stateName":"Kars","name":"Arpaçay","lat":40.84522,"lon":43.32747,"geocoding":{},"distantMaxMiles":5},"Digor İlçesi":{"countryName":"Turkey","stateName":"Kars","name":"Digor İlçesi","lat":40.37515,"lon":43.41361,"geocoding":{},"distantMaxMiles":5},"Kars":{"countryName":"Turkey","stateName":"Kars","name":"Kars","lat":40.59825,"lon":43.08548,"geocoding":{},"distantMaxMiles":5},"Kağızman":{"countryName":"Turkey","stateName":"Kars","name":"Kağızman","lat":40.15669,"lon":43.13424,"geocoding":{},"distantMaxMiles":5},"Sarıkamış":{"countryName":"Turkey","stateName":"Kars","name":"Sarıkamış","lat":40.32769,"lon":42.58705,"geocoding":{},"distantMaxMiles":5},"Selim":{"countryName":"Turkey","stateName":"Kars","name":"Selim","lat":40.45772,"lon":42.78287,"geocoding":{},"distantMaxMiles":5},"Susuz":{"countryName":"Turkey","stateName":"Kars","name":"Susuz","lat":40.7791,"lon":43.12769,"geocoding":{},"distantMaxMiles":5}}},"Kastamonu":{"countryName":"Turkey","name":"Kastamonu","isoCode":"37","lat":41.4103863,"lon":33.6998334,"geocoding":{},"distantMaxMiles":5,"cities":{"Abana":{"countryName":"Turkey","stateName":"Kastamonu","name":"Abana","lat":41.97858,"lon":34.011,"geocoding":{},"distantMaxMiles":5},"Araç":{"countryName":"Turkey","stateName":"Kastamonu","name":"Araç","lat":41.24222,"lon":33.32767,"geocoding":{},"distantMaxMiles":5},"Azdavay":{"countryName":"Turkey","stateName":"Kastamonu","name":"Azdavay","lat":41.64267,"lon":33.3,"geocoding":{},"distantMaxMiles":5},"Ağlı İlçesi":{"countryName":"Turkey","stateName":"Kastamonu","name":"Ağlı İlçesi","lat":41.69283,"lon":33.54487,"geocoding":{},"distantMaxMiles":5},"Bozkurt":{"countryName":"Turkey","stateName":"Kastamonu","name":"Bozkurt","lat":41.95769,"lon":34.01087,"geocoding":{},"distantMaxMiles":5},"Cide":{"countryName":"Turkey","stateName":"Kastamonu","name":"Cide","lat":41.85583,"lon":33.03977,"geocoding":{},"distantMaxMiles":5},"Daday":{"countryName":"Turkey","stateName":"Kastamonu","name":"Daday","lat":41.47866,"lon":33.46667,"geocoding":{},"distantMaxMiles":5},"Devrekani":{"countryName":"Turkey","stateName":"Kastamonu","name":"Devrekani","lat":41.60303,"lon":33.83922,"geocoding":{},"distantMaxMiles":5},"Doğanyurt":{"countryName":"Turkey","stateName":"Kastamonu","name":"Doğanyurt","lat":42.00457,"lon":33.46029,"geocoding":{},"distantMaxMiles":5},"Hanönü":{"countryName":"Turkey","stateName":"Kastamonu","name":"Hanönü","lat":41.62705,"lon":34.46667,"geocoding":{},"distantMaxMiles":5},"Kastamonu":{"countryName":"Turkey","stateName":"Kastamonu","name":"Kastamonu","lat":41.37805,"lon":33.77528,"geocoding":{},"distantMaxMiles":5},"Küre":{"countryName":"Turkey","stateName":"Kastamonu","name":"Küre","lat":41.80578,"lon":33.71161,"geocoding":{},"distantMaxMiles":5},"Pınarbaşı":{"countryName":"Turkey","stateName":"Kastamonu","name":"Pınarbaşı","lat":41.60388,"lon":33.11099,"geocoding":{},"distantMaxMiles":5},"Seydiler":{"countryName":"Turkey","stateName":"Kastamonu","name":"Seydiler","lat":41.62005,"lon":33.71815,"geocoding":{},"distantMaxMiles":5},"Taşköprü":{"countryName":"Turkey","stateName":"Kastamonu","name":"Taşköprü","lat":41.5098,"lon":34.21414,"geocoding":{},"distantMaxMiles":5},"Tosya":{"countryName":"Turkey","stateName":"Kastamonu","name":"Tosya","lat":41.01545,"lon":34.04013,"geocoding":{},"distantMaxMiles":5},"Çatalzeytin İlçesi":{"countryName":"Turkey","stateName":"Kastamonu","name":"Çatalzeytin İlçesi","lat":41.93795,"lon":34.20285,"geocoding":{},"distantMaxMiles":5},"İhsangazi":{"countryName":"Turkey","stateName":"Kastamonu","name":"İhsangazi","lat":41.20432,"lon":33.55455,"geocoding":{},"distantMaxMiles":5},"İnebolu":{"countryName":"Turkey","stateName":"Kastamonu","name":"İnebolu","lat":41.97472,"lon":33.76083,"geocoding":{},"distantMaxMiles":5},"Şenpazar İlçesi":{"countryName":"Turkey","stateName":"Kastamonu","name":"Şenpazar İlçesi","lat":41.81651,"lon":33.21766,"geocoding":{},"distantMaxMiles":5}}},"Kayseri":{"countryName":"Turkey","name":"Kayseri","isoCode":"38","lat":38.6256854,"lon":35.7406882,"geocoding":{},"distantMaxMiles":5,"cities":{"Akkışla":{"countryName":"Turkey","stateName":"Kayseri","name":"Akkışla","lat":39.00222,"lon":36.17381,"geocoding":{},"distantMaxMiles":5},"Bünyan":{"countryName":"Turkey","stateName":"Kayseri","name":"Bünyan","lat":38.8463,"lon":35.86033,"geocoding":{},"distantMaxMiles":5},"Develi":{"countryName":"Turkey","stateName":"Kayseri","name":"Develi","lat":38.26789,"lon":35.59161,"geocoding":{},"distantMaxMiles":5},"Felahiye":{"countryName":"Turkey","stateName":"Kayseri","name":"Felahiye","lat":39.09056,"lon":35.56722,"geocoding":{},"distantMaxMiles":5},"Hacılar":{"countryName":"Turkey","stateName":"Kayseri","name":"Hacılar","lat":38.64631,"lon":35.44937,"geocoding":{},"distantMaxMiles":5},"Incesu":{"countryName":"Turkey","stateName":"Kayseri","name":"Incesu","lat":38.63789,"lon":35.19394,"geocoding":{},"distantMaxMiles":5},