{"name":"Uzbekistan","isoCode":"UZ","lat":41,"lon":64,"geocoding":{},"distantMaxMiles":5,"states":{"Andijan Region":{"countryName":"Uzbekistan","name":"Andijan Region","isoCode":"AN","lat":40.7685941,"lon":72.236379,"geocoding":{},"distantMaxMiles":5,"cities":{"Andijon":{"countryName":"Uzbekistan","stateName":"Andijan Region","name":"Andijon","lat":40.78206,"lon":72.34424,"geocoding":{},"distantMaxMiles":5},"Andijon Tumani":{"countryName":"Uzbekistan","stateName":"Andijan Region","name":"Andijon Tumani","lat":40.8,"lon":72.41667,"geocoding":{},"distantMaxMiles":5},"Asaka":{"countryName":"Uzbekistan","stateName":"Andijan Region","name":"Asaka","lat":40.64153,"lon":72.23868,"geocoding":{},"distantMaxMiles":5},"Asaka Tumani":{"countryName":"Uzbekistan","stateName":"Andijan Region","name":"Asaka Tumani","lat":40.66667,"lon":72.25,"geocoding":{},"distantMaxMiles":5},"Baliqchi Tumani":{"countryName":"Uzbekistan","stateName":"Andijan Region","name":"Baliqchi Tumani","lat":40.86667,"lon":72,"geocoding":{},"distantMaxMiles":5},"Bo‘z Tumani":{"countryName":"Uzbekistan","stateName":"Andijan Region","name":"Bo‘z Tumani","lat":40.66667,"lon":71.91667,"geocoding":{},"distantMaxMiles":5},"Buloqboshi Tumani":{"countryName":"Uzbekistan","stateName":"Andijan Region","name":"Buloqboshi Tumani","lat":40.61667,"lon":72.46667,"geocoding":{},"distantMaxMiles":5},"Izboskan Tumani":{"countryName":"Uzbekistan","stateName":"Andijan Region","name":"Izboskan Tumani","lat":40.91667,"lon":72.25,"geocoding":{},"distantMaxMiles":5},"Jalolkuduk Tumani":{"countryName":"Uzbekistan","stateName":"Andijan Region","name":"Jalolkuduk Tumani","lat":40.75,"lon":72.66667,"geocoding":{},"distantMaxMiles":5},"Khŭjaobod Tumani":{"countryName":"Uzbekistan","stateName":"Andijan Region","name":"Khŭjaobod Tumani","lat":40.66667,"lon":72.58333,"geocoding":{},"distantMaxMiles":5},"Marhamat":{"countryName":"Uzbekistan","stateName":"Andijan Region","name":"Marhamat","lat":40.48048,"lon":72.31388,"geocoding":{},"distantMaxMiles":5},"Marhamat Tumani":{"countryName":"Uzbekistan","stateName":"Andijan Region","name":"Marhamat Tumani","lat":40.5,"lon":72.31667,"geocoding":{},"distantMaxMiles":5},"Oltinkŭl Tumani":{"countryName":"Uzbekistan","stateName":"Andijan Region","name":"Oltinkŭl Tumani","lat":40.8,"lon":72.16667,"geocoding":{},"distantMaxMiles":5},"Pakhtaobod Tumani":{"countryName":"Uzbekistan","stateName":"Andijan Region","name":"Pakhtaobod Tumani","lat":40.93333,"lon":72.5,"geocoding":{},"distantMaxMiles":5},"Paxtaobod":{"countryName":"Uzbekistan","stateName":"Andijan Region","name":"Paxtaobod","lat":40.92936,"lon":72.49687,"geocoding":{},"distantMaxMiles":5},"Qo‘rg‘ontepa":{"countryName":"Uzbekistan","stateName":"Andijan Region","name":"Qo‘rg‘ontepa","lat":40.73192,"lon":72.76177,"geocoding":{},"distantMaxMiles":5},"Qŭrghontepa Tumani":{"countryName":"Uzbekistan","stateName":"Andijan Region","name":"Qŭrghontepa Tumani","lat":40.75,"lon":72.83333,"geocoding":{},"distantMaxMiles":5},"Shahrikhon Tumani":{"countryName":"Uzbekistan","stateName":"Andijan Region","name":"Shahrikhon Tumani","lat":40.71667,"lon":72.06667,"geocoding":{},"distantMaxMiles":5},"Shahrixon":{"countryName":"Uzbekistan","stateName":"Andijan Region","name":"Shahrixon","lat":40.71331,"lon":72.05706,"geocoding":{},"distantMaxMiles":5},"Ulug‘nor Tumani":{"countryName":"Uzbekistan","stateName":"Andijan Region","name":"Ulug‘nor Tumani","lat":40.75,"lon":71.7,"geocoding":{},"distantMaxMiles":5},"Xo‘jaobod":{"countryName":"Uzbekistan","stateName":"Andijan Region","name":"Xo‘jaobod","lat":40.66886,"lon":72.56002,"geocoding":{},"distantMaxMiles":5}}},"Bukhara Region":{"countryName":"Uzbekistan","name":"Bukhara Region","isoCode":"BU","lat":40.2504162,"lon":63.2032151,"geocoding":{},"distantMaxMiles":5,"cities":{"Bukhara":{"countryName":"Uzbekistan","stateName":"Bukhara Region","name":"Bukhara","lat":39.77472,"lon":64.42861,"geocoding":{},"distantMaxMiles":5},"Galaosiyo":{"countryName":"Uzbekistan","stateName":"Bukhara Region","name":"Galaosiyo","lat":39.85778,"lon":64.44833,"geocoding":{},"distantMaxMiles":5},"Gazli":{"countryName":"Uzbekistan","stateName":"Bukhara Region","name":"Gazli","lat":40.13333,"lon":63.45,"geocoding":{},"distantMaxMiles":5},"Ghijduwon":{"countryName":"Uzbekistan","stateName":"Bukhara Region","name":"Ghijduwon","lat":40.1,"lon":64.68333,"geocoding":{},"distantMaxMiles":5},"Karakul’":{"countryName":"Uzbekistan","stateName":"Bukhara Region","name":"Karakul’","lat":39.53333,"lon":63.83333,"geocoding":{},"distantMaxMiles":5},"Kogon":{"countryName":"Uzbekistan","stateName":"Bukhara Region","name":"Kogon","lat":39.72278,"lon":64.55167,"geocoding":{},"distantMaxMiles":5},"Olot":{"countryName":"Uzbekistan","stateName":"Bukhara Region","name":"Olot","lat":39.415,"lon":63.80333,"geocoding":{},"distantMaxMiles":5},"Peshku Tumani":{"countryName":"Uzbekistan","stateName":"Bukhara Region","name":"Peshku Tumani","lat":40.41667,"lon":63.83333,"geocoding":{},"distantMaxMiles":5},"Qorako’l":{"countryName":"Uzbekistan","stateName":"Bukhara Region","name":"Qorako’l","lat":39.49944,"lon":63.85389,"geocoding":{},"distantMaxMiles":5},"Qorovulbozor":{"countryName":"Uzbekistan","stateName":"Bukhara Region","name":"Qorovulbozor","lat":39.50056,"lon":64.79361,"geocoding":{},"distantMaxMiles":5},"Romiton":{"countryName":"Uzbekistan","stateName":"Bukhara Region","name":"Romiton","lat":39.92944,"lon":64.37944,"geocoding":{},"distantMaxMiles":5},"Shofirkon":{"countryName":"Uzbekistan","stateName":"Bukhara Region","name":"Shofirkon","lat":40.12,"lon":64.50139,"geocoding":{},"distantMaxMiles":5},"Wobkent":{"countryName":"Uzbekistan","stateName":"Bukhara Region","name":"Wobkent","lat":40.03028,"lon":64.515,"geocoding":{},"distantMaxMiles":5},"Wobkent Tumani":{"countryName":"Uzbekistan","stateName":"Bukhara Region","name":"Wobkent Tumani","lat":40,"lon":64.5,"geocoding":{},"distantMaxMiles":5}}},"Fergana Region":{"countryName":"Uzbekistan","name":"Fergana Region","isoCode":"FA","lat":40.4568081,"lon":71.2874209,"geocoding":{},"distantMaxMiles":5,"cities":{"Beshariq":{"countryName":"Uzbekistan","stateName":"Fergana Region","name":"Beshariq","lat":40.43583,"lon":70.61028,"geocoding":{},"distantMaxMiles":5},"Fergana":{"countryName":"Uzbekistan","stateName":"Fergana Region","name":"Fergana","lat":40.38421,"lon":71.78432,"geocoding":{},"distantMaxMiles":5},"Hamza":{"countryName":"Uzbekistan","stateName":"Fergana Region","name":"Hamza","lat":40.42762,"lon":71.50534,"geocoding":{},"distantMaxMiles":5},"Kirguli":{"countryName":"Uzbekistan","stateName":"Fergana Region","name":"Kirguli","lat":40.43553,"lon":71.76721,"geocoding":{},"distantMaxMiles":5},"Marg‘ilon":{"countryName":"Uzbekistan","stateName":"Fergana Region","name":"Marg‘ilon","lat":40.47237,"lon":71.72463,"geocoding":{},"distantMaxMiles":5},"Oltiariq":{"countryName":"Uzbekistan","stateName":"Fergana Region","name":"Oltiariq","lat":40.39194,"lon":71.47417,"geocoding":{},"distantMaxMiles":5},"Qo‘qon":{"countryName":"Uzbekistan","stateName":"Fergana Region","name":"Qo‘qon","lat":40.52861,"lon":70.9425,"geocoding":{},"distantMaxMiles":5},"Quva":{"countryName":"Uzbekistan","stateName":"Fergana Region","name":"Quva","lat":40.52204,"lon":72.07292,"geocoding":{},"distantMaxMiles":5},"Quvasoy":{"countryName":"Uzbekistan","stateName":"Fergana Region","name":"Quvasoy","lat":40.29721,"lon":71.98026,"geocoding":{},"distantMaxMiles":5},"Rishton":{"countryName":"Uzbekistan","stateName":"Fergana Region","name":"Rishton","lat":40.35667,"lon":71.28472,"geocoding":{},"distantMaxMiles":5},"Shohimardon":{"countryName":"Uzbekistan","stateName":"Fergana Region","name":"Shohimardon","lat":39.98322,"lon":71.80512,"geocoding":{},"distantMaxMiles":5},"So‘x Tumani":{"countryName":"Uzbekistan","stateName":"Fergana Region","name":"So‘x Tumani","lat":40.04417,"lon":71.09417,"geocoding":{},"distantMaxMiles":5},"Toshloq":{"countryName":"Uzbekistan","stateName":"Fergana Region","name":"Toshloq","lat":40.47722,"lon":71.76778,"geocoding":{},"distantMaxMiles":5},"Yangi Marg‘ilon":{"countryName":"Uzbekistan","stateName":"Fergana Region","name":"Yangi Marg‘ilon","lat":40.42722,"lon":71.71889,"geocoding":{},"distantMaxMiles":5},"Yaypan":{"countryName":"Uzbekistan","stateName":"Fergana Region","name":"Yaypan","lat":40.37583,"lon":70.81556,"geocoding":{},"distantMaxMiles":5}}},"Jizzakh Region":{"countryName":"Uzbekistan","name":"Jizzakh Region","isoCode":"JI","lat":40.4706415,"lon":67.5708536,"geocoding":{},"distantMaxMiles":5,"cities":{"Dashtobod":{"countryName":"Uzbekistan","stateName":"Jizzakh Region","name":"Dashtobod","lat":40.12694,"lon":68.49444,"geocoding":{},"distantMaxMiles":5},"Dŭstlik":{"countryName":"Uzbekistan","stateName":"Jizzakh Region","name":"Dŭstlik","lat":40.52472,"lon":68.03583,"geocoding":{},"distantMaxMiles":5},"Gagarin":{"countryName":"Uzbekistan","stateName":"Jizzakh Region","name":"Gagarin","lat":40.66194,"lon":68.17222,"geocoding":{},"distantMaxMiles":5},"Jizzax":{"countryName":"Uzbekistan","stateName":"Jizzakh Region","name":"Jizzax","lat":40.11583,"lon":67.84222,"geocoding":{},"distantMaxMiles":5},"Paxtakor":{"countryName":"Uzbekistan","stateName":"Jizzakh Region","name":"Paxtakor","lat":40.31528,"lon":67.95444,"geocoding":{},"distantMaxMiles":5},"Zomin":{"countryName":"Uzbekistan","stateName":"Jizzakh Region","name":"Zomin","lat":39.96056,"lon":68.39583,"geocoding":{},"distantMaxMiles":5}}},"Karakalpakstan":{"countryName":"Uzbekistan","name":"Karakalpakstan","isoCode":"QR","lat":43.8041334,"lon":59.4457988,"geocoding":{},"distantMaxMiles":5,"cities":{"Beruniy":{"countryName":"Uzbekistan","stateName":"Karakalpakstan","name":"Beruniy","lat":41.69111,"lon":60.7525,"geocoding":{},"distantMaxMiles":5},"Kegeyli Shahar":{"countryName":"Uzbekistan","stateName":"Karakalpakstan","name":"Kegeyli Shahar","lat":42.77667,"lon":59.60778,"geocoding":{},"distantMaxMiles":5},"Khŭjayli":{"countryName":"Uzbekistan","stateName":"Karakalpakstan","name":"Khŭjayli","lat":42.40043,"lon":59.46005,"geocoding":{},"distantMaxMiles":5},"Manghit":{"countryName":"Uzbekistan","stateName":"Karakalpakstan","name":"Manghit","lat":42.11556,"lon":60.05972,"geocoding":{},"distantMaxMiles":5},"Mŭynoq":{"countryName":"Uzbekistan","stateName":"Karakalpakstan","name":"Mŭynoq","lat":43.76833,"lon":59.02139,"geocoding":{},"distantMaxMiles":5},"Novyy Turtkul’":{"countryName":"Uzbekistan","stateName":"Karakalpakstan","name":"Novyy Turtkul’","lat":41.55,"lon":61.01667,"geocoding":{},"distantMaxMiles":5},"Nukus":{"countryName":"Uzbekistan","stateName":"Karakalpakstan","name":"Nukus","lat":42.45306,"lon":59.61028,"geocoding":{},"distantMaxMiles":5},"Oltinko‘l":{"countryName":"Uzbekistan","stateName":"Karakalpakstan","name":"Oltinko‘l","lat":43.06874,"lon":58.90372,"geocoding":{},"distantMaxMiles":5}}},"Namangan Region":{"countryName":"Uzbekistan","name":"Namangan Region","isoCode":"NG","lat":41.0510037,"lon":71.097317,"geocoding":{},"distantMaxMiles":5,"cities":{"Chortoq":{"countryName":"Uzbekistan","stateName":"Namangan Region","name":"Chortoq","lat":41.06924,"lon":71.82372,"geocoding":{},"distantMaxMiles":5},"Chust":{"countryName":"Uzbekistan","stateName":"Namangan Region","name":"Chust","lat":41.00329,"lon":71.23791,"geocoding":{},"distantMaxMiles":5},"Haqqulobod":{"countryName":"Uzbekistan","stateName":"Namangan Region","name":"Haqqulobod","lat":40.91667,"lon":72.11667,"geocoding":{},"distantMaxMiles":5},"Kosonsoy":{"countryName":"Uzbekistan","stateName":"Namangan Region","name":"Kosonsoy","lat":41.24944,"lon":71.54738,"geocoding":{},"distantMaxMiles":5},"Namangan":{"countryName":"Uzbekistan","stateName":"Namangan Region","name":"Namangan","lat":40.9983,"lon":71.67257,"geocoding":{},"distantMaxMiles":5},"Pop":{"countryName":"Uzbekistan","stateName":"Namangan Region","name":"Pop","lat":40.87361,"lon":71.10889,"geocoding":{},"distantMaxMiles":5},"Toshbuloq":{"countryName":"Uzbekistan","stateName":"Namangan Region","name":"Toshbuloq","lat":40.91617,"lon":71.57819,"geocoding":{},"distantMaxMiles":5},"To‘rqao‘rg‘on":{"countryName":"Uzbekistan","stateName":"Namangan Region","name":"To‘rqao‘rg‘on","lat":40.99984,"lon":71.51162,"geocoding":{},"distantMaxMiles":5},"Uchqŭrghon Shahri":{"countryName":"Uzbekistan","stateName":"Namangan Region","name":"Uchqŭrghon Shahri","lat":41.11371,"lon":72.07915,"geocoding":{},"distantMaxMiles":5},"Uychi":{"countryName":"Uzbekistan","stateName":"Namangan Region","name":"Uychi","lat":41.08073,"lon":71.92331,"geocoding":{},"distantMaxMiles":5},"Yangiqo‘rg‘on":{"countryName":"Uzbekistan","stateName":"Namangan Region","name":"Yangiqo‘rg‘on","lat":41.19474,"lon":71.72385,"geocoding":{},"distantMaxMiles":5}}},"Navoiy Region":{"countryName":"Uzbekistan","name":"Navoiy Region","isoCode":"NW","lat":42.6988575,"lon":64.6337685,"geocoding":{},"distantMaxMiles":5,"cities":{"Navoiy":{"countryName":"Uzbekistan","stateName":"Navoiy Region","name":"Navoiy","lat":40.08444,"lon":65.37917,"geocoding":{},"distantMaxMiles":5},"Nurota":{"countryName":"Uzbekistan","stateName":"Navoiy Region","name":"Nurota","lat":40.56139,"lon":65.68861,"geocoding":{},"distantMaxMiles":5},"Qiziltepa":{"countryName":"Uzbekistan","stateName":"Navoiy Region","name":"Qiziltepa","lat":40.03306,"lon":64.85,"geocoding":{},"distantMaxMiles":5},"Yangirabot":{"countryName":"Uzbekistan","stateName":"Navoiy Region","name":"Yangirabot","lat":40.02539,"lon":65.96095,"geocoding":{},"distantMaxMiles":5}}},"Qashqadaryo Region":{"countryName":"Uzbekistan","name":"Qashqadaryo Region","isoCode":"QA","lat":38.8986231,"lon":66.0463534,"geocoding":{},"distantMaxMiles":5,"cities":{"Beshkent":{"countryName":"Uzbekistan","stateName":"Qashqadaryo Region","name":"Beshkent","lat":38.82139,"lon":65.65306,"geocoding":{},"distantMaxMiles":5},"Chiroqchi":{"countryName":"Uzbekistan","stateName":"Qashqadaryo Region","name":"Chiroqchi","lat":39.03361,"lon":66.57222,"geocoding":{},"distantMaxMiles":5},"G‘uzor":{"countryName":"Uzbekistan","stateName":"Qashqadaryo Region","name":"G‘uzor","lat":38.62083,"lon":66.24806,"geocoding":{},"distantMaxMiles":5},"Kitob":{"countryName":"Uzbekistan","stateName":"Qashqadaryo Region","name":"Kitob","lat":39.08425,"lon":66.83318,"geocoding":{},"distantMaxMiles":5},"Koson":{"countryName":"Uzbekistan","stateName":"Qashqadaryo Region","name":"Koson","lat":39.0375,"lon":65.585,"geocoding":{},"distantMaxMiles":5},"Muborak":{"countryName":"Uzbekistan","stateName":"Qashqadaryo Region","name":"Muborak","lat":39.25528,"lon":65.15278,"geocoding":{},"distantMaxMiles":5},"Nishon Tumani":{"countryName":"Uzbekistan","stateName":"Qashqadaryo Region","name":"Nishon Tumani","lat":38.69395,"lon":65.67512,"geocoding":{},"distantMaxMiles":5},"Qarshi":{"countryName":"Uzbekistan","stateName":"Qashqadaryo Region","name":"Qarshi","lat":38.86056,"lon":65.78905,"geocoding":{},"distantMaxMiles":5},"Shahrisabz":{"countryName":"Uzbekistan","stateName":"Qashqadaryo Region","name":"Shahrisabz","lat":39.05778,"lon":66.83417,"geocoding":{},"distantMaxMiles":5}}},"Samarqand Region":{"countryName":"Uzbekistan","name":"Samarqand Region","isoCode":"SA","lat":39.627012,"lon":66.9749731,"geocoding":{},"distantMaxMiles":5,"cities":{"Bulung’ur":{"countryName":"Uzbekistan","stateName":"Samarqand Region","name":"Bulung’ur","lat":39.76472,"lon":67.27139,"geocoding":{},"distantMaxMiles":5},"Charxin":{"countryName":"Uzbekistan","stateName":"Samarqand Region","name":"Charxin","lat":39.69667,"lon":66.76861,"geocoding":{},"distantMaxMiles":5},"Chelak":{"countryName":"Uzbekistan","stateName":"Samarqand Region","name":"Chelak","lat":39.92028,"lon":66.86111,"geocoding":{},"distantMaxMiles":5},"Daxbet":{"countryName":"Uzbekistan","stateName":"Samarqand Region","name":"Daxbet","lat":39.76389,"lon":66.9125,"geocoding":{},"distantMaxMiles":5},"Ishtixon":{"countryName":"Uzbekistan","stateName":"Samarqand Region","name":"Ishtixon","lat":39.96639,"lon":66.48611,"geocoding":{},"distantMaxMiles":5},"Jomboy":{"countryName":"Uzbekistan","stateName":"Samarqand Region","name":"Jomboy","lat":39.69889,"lon":67.09333,"geocoding":{},"distantMaxMiles":5},"Juma":{"countryName":"Uzbekistan","stateName":"Samarqand Region","name":"Juma","lat":39.71611,"lon":66.66417,"geocoding":{},"distantMaxMiles":5},"Kattaqo‘rg‘on":{"countryName":"Uzbekistan","stateName":"Samarqand Region","name":"Kattaqo‘rg‘on","lat":39.89889,"lon":66.25611,"geocoding":{},"distantMaxMiles":5},"Oqtosh":{"countryName":"Uzbekistan","stateName":"Samarqand Region","name":"Oqtosh","lat":39.92139,"lon":65.92528,"geocoding":{},"distantMaxMiles":5},"Payshanba":{"countryName":"Uzbekistan","stateName":"Samarqand Region","name":"Payshanba","lat":40.00778,"lon":66.23694,"geocoding":{},"distantMaxMiles":5},"Samarkand":{"countryName":"Uzbekistan","stateName":"Samarqand Region","name":"Samarkand","lat":39.65417,"lon":66.95972,"geocoding":{},"distantMaxMiles":5},"Urgut":{"countryName":"Uzbekistan","stateName":"Samarqand Region","name":"Urgut","lat":39.40222,"lon":67.24306,"geocoding":{},"distantMaxMiles":5}}},"Sirdaryo Region":{"countryName":"Uzbekistan","name":"Sirdaryo Region","isoCode":"SI","lat":40.3863808,"lon":68.7154975,"geocoding":{},"distantMaxMiles":5,"cities":{"Guliston":{"countryName":"Uzbekistan","stateName":"Sirdaryo Region","name":"Guliston","lat":40.48972,"lon":68.78417,"geocoding":{},"distantMaxMiles":5},"Sirdaryo":{"countryName":"Uzbekistan","stateName":"Sirdaryo Region","name":"Sirdaryo","lat":40.84361,"lon":68.66167,"geocoding":{},"distantMaxMiles":5},"Yangiyer":{"countryName":"Uzbekistan","stateName":"Sirdaryo Region","name":"Yangiyer","lat":40.275,"lon":68.8225,"geocoding":{},"distantMaxMiles":5}}},"Surxondaryo Region":{"countryName":"Uzbekistan","name":"Surxondaryo Region","isoCode":"SU","lat":37.9409005,"lon":67.5708536,"geocoding":{},"distantMaxMiles":5,"cities":{"Boysun":{"countryName":"Uzbekistan","stateName":"Surxondaryo Region","name":"Boysun","lat":38.20835,"lon":67.20664,"geocoding":{},"distantMaxMiles":5},"Denov":{"countryName":"Uzbekistan","stateName":"Surxondaryo Region","name":"Denov","lat":38.26746,"lon":67.89886,"geocoding":{},"distantMaxMiles":5},"Sho‘rchi":{"countryName":"Uzbekistan","stateName":"Surxondaryo Region","name":"Sho‘rchi","lat":37.99944,"lon":67.7875,"geocoding":{},"distantMaxMiles":5},"Tirmiz":{"countryName":"Uzbekistan","stateName":"Surxondaryo Region","name":"Tirmiz","lat":37.22417,"lon":67.27833,"geocoding":{},"distantMaxMiles":5}}},"Tashkent":{"countryName":"Uzbekistan","name":"Tashkent","isoCode":"TK","lat":41.2994958,"lon":69.2400734,"geocoding":{},"distantMaxMiles":5,"cities":{"Bektemir":{"countryName":"Uzbekistan","stateName":"Tashkent","name":"Bektemir","lat":41.20972,"lon":69.33417,"geocoding":{},"distantMaxMiles":5},"Tashkent":{"countryName":"Uzbekistan","stateName":"Tashkent","name":"Tashkent","lat":41.26465,"lon":69.21627,"geocoding":{},"distantMaxMiles":5}}},"Tashkent Region":{"countryName":"Uzbekistan","name":"Tashkent Region","isoCode":"TO","lat":41.2213234,"lon":69.8597406,"geocoding":{},"distantMaxMiles":5,"cities":{"Angren":{"countryName":"Uzbekistan","stateName":"Tashkent Region","name":"Angren","lat":41.01667,"lon":70.14361,"geocoding":{},"distantMaxMiles":5},"Bekobod":{"countryName":"Uzbekistan","stateName":"Tashkent Region","name":"Bekobod","lat":40.22083,"lon":69.26972,"geocoding":{},"distantMaxMiles":5},"Bo‘ka":{"countryName":"Uzbekistan","stateName":"Tashkent Region","name":"Bo‘ka","lat":40.81108,"lon":69.19417,"geocoding":{},"distantMaxMiles":5},"Chinoz":{"countryName":"Uzbekistan","stateName":"Tashkent Region","name":"Chinoz","lat":40.93633,"lon":68.76128,"geocoding":{},"distantMaxMiles":5},"Chirchiq":{"countryName":"Uzbekistan","stateName":"Tashkent Region","name":"Chirchiq","lat":41.46889,"lon":69.58222,"geocoding":{},"distantMaxMiles":5},"G‘azalkent":{"countryName":"Uzbekistan","stateName":"Tashkent Region","name":"G‘azalkent","lat":41.55806,"lon":69.77083,"geocoding":{},"distantMaxMiles":5},"Iskandar":{"countryName":"Uzbekistan","stateName":"Tashkent Region","name":"Iskandar","lat":41.55389,"lon":69.70083,"geocoding":{},"distantMaxMiles":5},"Kyzyldzhar":{"countryName":"Uzbekistan","stateName":"Tashkent Region","name":"Kyzyldzhar","lat":41.56667,"lon":70.01667,"geocoding":{},"distantMaxMiles":5},"Ohangaron":{"countryName":"Uzbekistan","stateName":"Tashkent Region","name":"Ohangaron","lat":40.90639,"lon":69.63833,"geocoding":{},"distantMaxMiles":5},"Olmaliq":{"countryName":"Uzbekistan","stateName":"Tashkent Region","name":"Olmaliq","lat":40.84472,"lon":69.59833,"geocoding":{},"distantMaxMiles":5},"Parkent":{"countryName":"Uzbekistan","stateName":"Tashkent Region","name":"Parkent","lat":41.29444,"lon":69.67639,"geocoding":{},"distantMaxMiles":5},"Piskent":{"countryName":"Uzbekistan","stateName":"Tashkent Region","name":"Piskent","lat":40.89722,"lon":69.35056,"geocoding":{},"distantMaxMiles":5},"Qibray":{"countryName":"Uzbekistan","stateName":"Tashkent Region","name":"Qibray","lat":41.38972,"lon":69.465,"geocoding":{},"distantMaxMiles":5},"Salor":{"countryName":"Uzbekistan","stateName":"Tashkent Region","name":"Salor","lat":41.37222,"lon":69.38167,"geocoding":{},"distantMaxMiles":5},"Tŭytepa":{"countryName":"Uzbekistan","stateName":"Tashkent Region","name":"Tŭytepa","lat":41.0321,"lon":69.36253,"geocoding":{},"distantMaxMiles":5},"Yangiobod":{"countryName":"Uzbekistan","stateName":"Tashkent Region","name":"Yangiobod","lat":41.11919,"lon":70.09406,"geocoding":{},"distantMaxMiles":5},"Yangiyŭl":{"countryName":"Uzbekistan","stateName":"Tashkent Region","name":"Yangiyŭl","lat":41.11202,"lon":69.0471,"geocoding":{},"distantMaxMiles":5},"Zafar":{"countryName":"Uzbekistan","stateName":"Tashkent Region","name":"Zafar","lat":40.98333,"lon":68.9,"geocoding":{},"distantMaxMiles":5},"Ŭrtaowul":{"countryName":"Uzbekistan","stateName":"Tashkent Region","name":"Ŭrtaowul","lat":41.18667,"lon":69.14528,"geocoding":{},"distantMaxMiles":5}}},"Xorazm Region":{"countryName":"Uzbekistan","name":"Xorazm Region","isoCode":"XO","lat":41.3565336,"lon":60.8566686,"geocoding":{},"distantMaxMiles":5,"cities":{"Boghot Tumani":{"countryName":"Uzbekistan","stateName":"Xorazm Region","name":"Boghot Tumani","lat":41.31495,"lon":60.85327,"geocoding":{},"distantMaxMiles":5},"Gurlan":{"countryName":"Uzbekistan","stateName":"Xorazm Region","name":"Gurlan","lat":41.84472,"lon":60.39194,"geocoding":{},"distantMaxMiles":5},"Hazorasp":{"countryName":"Uzbekistan","stateName":"Xorazm Region","name":"Hazorasp","lat":41.31944,"lon":61.07417,"geocoding":{},"distantMaxMiles":5},"Khiwa":{"countryName":"Uzbekistan","stateName":"Xorazm Region","name":"Khiwa","lat":41.37833,"lon":60.36389,"geocoding":{},"distantMaxMiles":5},"Qŭshkŭpir":{"countryName":"Uzbekistan","stateName":"Xorazm Region","name":"Qŭshkŭpir","lat":41.535,"lon":60.34556,"geocoding":{},"distantMaxMiles":5},"Showot":{"countryName":"Uzbekistan","stateName":"Xorazm Region","name":"Showot","lat":41.65583,"lon":60.3025,"geocoding":{},"distantMaxMiles":5},"Urganch":{"countryName":"Uzbekistan","stateName":"Xorazm Region","name":"Urganch","lat":41.55,"lon":60.63333,"geocoding":{},"distantMaxMiles":5}}}}}