{"name":"Sao Tome and Principe","isoCode":"ST","lat":1,"lon":7,"geocoding":{},"distantMaxMiles":5,"states":{"Príncipe Province":{"countryName":"Sao Tome and Principe","name":"Príncipe Province","isoCode":"P","lat":1.6139381,"lon":7.4056928,"geocoding":{},"distantMaxMiles":5,"cities":{"Santo António":{"countryName":"Sao Tome and Principe","stateName":"Príncipe Province","name":"Santo António","lat":1.63943,"lon":7.41951,"geocoding":{},"distantMaxMiles":5}}},"São Tomé Province":{"countryName":"Sao Tome and Principe","name":"São Tomé Province","isoCode":"S","lat":0.3301924,"lon":6.733343,"geocoding":{},"distantMaxMiles":5,"cities":{"Cantagalo District":{"countryName":"Sao Tome and Principe","stateName":"São Tomé Province","name":"Cantagalo District","lat":0.21667,"lon":6.7,"geocoding":{},"distantMaxMiles":5},"Caué District":{"countryName":"Sao Tome and Principe","stateName":"São Tomé Province","name":"Caué District","lat":0.13415,"lon":6.63825,"geocoding":{},"distantMaxMiles":5},"São Tomé":{"countryName":"Sao Tome and Principe","stateName":"São Tomé Province","name":"São Tomé","lat":0.33654,"lon":6.72732,"geocoding":{},"distantMaxMiles":5},"Trindade":{"countryName":"Sao Tome and Principe","stateName":"São Tomé Province","name":"Trindade","lat":0.29667,"lon":6.68139,"geocoding":{},"distantMaxMiles":5}}}}}