{"name":"India","isoCode":"IN","lat":20,"lon":77,"geocoding":{},"distantMaxMiles":5,"states":{"Andaman and Nicobar Islands":{"countryName":"India","name":"Andaman and Nicobar Islands","isoCode":"AN","lat":11.7400867,"lon":92.6586401,"geocoding":{},"distantMaxMiles":5,"cities":{"Bamboo Flat":{"countryName":"India","stateName":"Andaman and Nicobar Islands","name":"Bamboo Flat","lat":11.7,"lon":92.71667,"geocoding":{},"distantMaxMiles":5},"Nicobar":{"countryName":"India","stateName":"Andaman and Nicobar Islands","name":"Nicobar","lat":7.03002,"lon":93.79028,"geocoding":{},"distantMaxMiles":5},"Port Blair":{"countryName":"India","stateName":"Andaman and Nicobar Islands","name":"Port Blair","lat":11.66613,"lon":92.74635,"geocoding":{},"distantMaxMiles":5},"South Andaman":{"countryName":"India","stateName":"Andaman and Nicobar Islands","name":"South Andaman","lat":10.75776,"lon":92.52136,"geocoding":{},"distantMaxMiles":5}}},"Andhra Pradesh":{"countryName":"India","name":"Andhra Pradesh","isoCode":"AP","lat":15.9128998,"lon":79.7399875,"geocoding":{},"distantMaxMiles":5,"cities":{"Addanki":{"countryName":"India","stateName":"Andhra Pradesh","name":"Addanki","lat":15.81061,"lon":79.97338,"geocoding":{},"distantMaxMiles":5},"Adoni":{"countryName":"India","stateName":"Andhra Pradesh","name":"Adoni","lat":15.62788,"lon":77.27495,"geocoding":{},"distantMaxMiles":5},"Akasahebpet":{"countryName":"India","stateName":"Andhra Pradesh","name":"Akasahebpet","lat":17.50455,"lon":82.56597,"geocoding":{},"distantMaxMiles":5},"Akividu":{"countryName":"India","stateName":"Andhra Pradesh","name":"Akividu","lat":16.58225,"lon":81.38112,"geocoding":{},"distantMaxMiles":5},"Akkarampalle":{"countryName":"India","stateName":"Andhra Pradesh","name":"Akkarampalle","lat":13.65,"lon":79.42,"geocoding":{},"distantMaxMiles":5},"Amalapuram":{"countryName":"India","stateName":"Andhra Pradesh","name":"Amalapuram","lat":16.57868,"lon":82.00609,"geocoding":{},"distantMaxMiles":5},"Amudalavalasa":{"countryName":"India","stateName":"Andhra Pradesh","name":"Amudalavalasa","lat":18.41025,"lon":83.90295,"geocoding":{},"distantMaxMiles":5},"Anakapalle":{"countryName":"India","stateName":"Andhra Pradesh","name":"Anakapalle","lat":17.69134,"lon":83.00395,"geocoding":{},"distantMaxMiles":5},"Anantapur":{"countryName":"India","stateName":"Andhra Pradesh","name":"Anantapur","lat":14.55,"lon":77.41667,"geocoding":{},"distantMaxMiles":5},"Atmakur":{"countryName":"India","stateName":"Andhra Pradesh","name":"Atmakur","lat":15.88109,"lon":78.58704,"geocoding":{},"distantMaxMiles":5},"Attili":{"countryName":"India","stateName":"Andhra Pradesh","name":"Attili","lat":16.7,"lon":81.6,"geocoding":{},"distantMaxMiles":5},"Avanigadda":{"countryName":"India","stateName":"Andhra Pradesh","name":"Avanigadda","lat":16.02148,"lon":80.91808,"geocoding":{},"distantMaxMiles":5},"Badvel":{"countryName":"India","stateName":"Andhra Pradesh","name":"Badvel","lat":14.7451,"lon":79.06288,"geocoding":{},"distantMaxMiles":5},"Banganapalle":{"countryName":"India","stateName":"Andhra Pradesh","name":"Banganapalle","lat":15.31771,"lon":78.22669,"geocoding":{},"distantMaxMiles":5},"Bapatla":{"countryName":"India","stateName":"Andhra Pradesh","name":"Bapatla","lat":15.90422,"lon":80.46743,"geocoding":{},"distantMaxMiles":5},"Betamcherla":{"countryName":"India","stateName":"Andhra Pradesh","name":"Betamcherla","lat":15.45144,"lon":78.14797,"geocoding":{},"distantMaxMiles":5},"Bhattiprolu":{"countryName":"India","stateName":"Andhra Pradesh","name":"Bhattiprolu","lat":16.1026,"lon":80.78074,"geocoding":{},"distantMaxMiles":5},"Bhimavaram":{"countryName":"India","stateName":"Andhra Pradesh","name":"Bhimavaram","lat":16.54078,"lon":81.52322,"geocoding":{},"distantMaxMiles":5},"Bhimunipatnam":{"countryName":"India","stateName":"Andhra Pradesh","name":"Bhimunipatnam","lat":17.89017,"lon":83.45203,"geocoding":{},"distantMaxMiles":5},"Bobbili":{"countryName":"India","stateName":"Andhra Pradesh","name":"Bobbili","lat":18.57366,"lon":83.35925,"geocoding":{},"distantMaxMiles":5},"Challapalle":{"countryName":"India","stateName":"Andhra Pradesh","name":"Challapalle","lat":16.11756,"lon":80.93139,"geocoding":{},"distantMaxMiles":5},"Chemmumiahpet":{"countryName":"India","stateName":"Andhra Pradesh","name":"Chemmumiahpet","lat":15.89794,"lon":79.32129,"geocoding":{},"distantMaxMiles":5},"Chilakalurupet":{"countryName":"India","stateName":"Andhra Pradesh","name":"Chilakalurupet","lat":16.08987,"lon":80.16705,"geocoding":{},"distantMaxMiles":5},"Chinnachowk":{"countryName":"India","stateName":"Andhra Pradesh","name":"Chinnachowk","lat":14.47516,"lon":78.8354,"geocoding":{},"distantMaxMiles":5},"Chipurupalle":{"countryName":"India","stateName":"Andhra Pradesh","name":"Chipurupalle","lat":18.31142,"lon":83.56846,"geocoding":{},"distantMaxMiles":5},"Chirala":{"countryName":"India","stateName":"Andhra Pradesh","name":"Chirala","lat":15.82385,"lon":80.35219,"geocoding":{},"distantMaxMiles":5},"Chittoor":{"countryName":"India","stateName":"Andhra Pradesh","name":"Chittoor","lat":13.41667,"lon":79,"geocoding":{},"distantMaxMiles":5},"Chodavaram":{"countryName":"India","stateName":"Andhra Pradesh","name":"Chodavaram","lat":17.82884,"lon":82.93526,"geocoding":{},"distantMaxMiles":5},"Cuddapah":{"countryName":"India","stateName":"Andhra Pradesh","name":"Cuddapah","lat":14.41667,"lon":78.75,"geocoding":{},"distantMaxMiles":5},"Cumbum":{"countryName":"India","stateName":"Andhra Pradesh","name":"Cumbum","lat":15.58171,"lon":79.11059,"geocoding":{},"distantMaxMiles":5},"Darsi":{"countryName":"India","stateName":"Andhra Pradesh","name":"Darsi","lat":15.76978,"lon":79.67939,"geocoding":{},"distantMaxMiles":5},"Dharmavaram":{"countryName":"India","stateName":"Andhra Pradesh","name":"Dharmavaram","lat":14.41435,"lon":77.72035,"geocoding":{},"distantMaxMiles":5},"Dhone":{"countryName":"India","stateName":"Andhra Pradesh","name":"Dhone","lat":15.3952,"lon":77.8715,"geocoding":{},"distantMaxMiles":5},"Diguvametta":{"countryName":"India","stateName":"Andhra Pradesh","name":"Diguvametta","lat":15.39507,"lon":78.8293,"geocoding":{},"distantMaxMiles":5},"East Godavari":{"countryName":"India","stateName":"Andhra Pradesh","name":"East Godavari","lat":17.83333,"lon":81.83333,"geocoding":{},"distantMaxMiles":5},"Elamanchili":{"countryName":"India","stateName":"Andhra Pradesh","name":"Elamanchili","lat":17.54907,"lon":82.85749,"geocoding":{},"distantMaxMiles":5},"Ellore":{"countryName":"India","stateName":"Andhra Pradesh","name":"Ellore","lat":16.71311,"lon":81.10437,"geocoding":{},"distantMaxMiles":5},"Emmiganur":{"countryName":"India","stateName":"Andhra Pradesh","name":"Emmiganur","lat":15.77203,"lon":77.48345,"geocoding":{},"distantMaxMiles":5},"Erraguntla":{"countryName":"India","stateName":"Andhra Pradesh","name":"Erraguntla","lat":14.63853,"lon":78.53974,"geocoding":{},"distantMaxMiles":5},"Etikoppaka":{"countryName":"India","stateName":"Andhra Pradesh","name":"Etikoppaka","lat":17.5,"lon":82.73333,"geocoding":{},"distantMaxMiles":5},"Gajuwaka":{"countryName":"India","stateName":"Andhra Pradesh","name":"Gajuwaka","lat":17.7,"lon":83.21667,"geocoding":{},"distantMaxMiles":5},"Ganguvada":{"countryName":"India","stateName":"Andhra Pradesh","name":"Ganguvada","lat":18.66667,"lon":84.11667,"geocoding":{},"distantMaxMiles":5},"Gannavaram":{"countryName":"India","stateName":"Andhra Pradesh","name":"Gannavaram","lat":16.54092,"lon":80.80213,"geocoding":{},"distantMaxMiles":5},"Giddalur":{"countryName":"India","stateName":"Andhra Pradesh","name":"Giddalur","lat":15.37439,"lon":78.92609,"geocoding":{},"distantMaxMiles":5},"Gokavaram":{"countryName":"India","stateName":"Andhra Pradesh","name":"Gokavaram","lat":17.25823,"lon":81.84985,"geocoding":{},"distantMaxMiles":5},"Gorantla":{"countryName":"India","stateName":"Andhra Pradesh","name":"Gorantla","lat":13.98411,"lon":77.77224,"geocoding":{},"distantMaxMiles":5},"Govindapuram,Chilakaluripet,Guntur":{"countryName":"India","stateName":"Andhra Pradesh","name":"Govindapuram,Chilakaluripet,Guntur","lat":16.15477,"lon":80.10279,"geocoding":{},"distantMaxMiles":5},"Gudivada":{"countryName":"India","stateName":"Andhra Pradesh","name":"Gudivada","lat":16.43547,"lon":80.99555,"geocoding":{},"distantMaxMiles":5},"Gudlavalleru":{"countryName":"India","stateName":"Andhra Pradesh","name":"Gudlavalleru","lat":16.35,"lon":81.05,"geocoding":{},"distantMaxMiles":5},"Gudur":{"countryName":"India","stateName":"Andhra Pradesh","name":"Gudur","lat":14.15093,"lon":79.8521,"geocoding":{},"distantMaxMiles":5},"Guntakal Junction":{"countryName":"India","stateName":"Andhra Pradesh","name":"Guntakal Junction","lat":15.17112,"lon":77.36244,"geocoding":{},"distantMaxMiles":5},"Guntur":{"countryName":"India","stateName":"Andhra Pradesh","name":"Guntur","lat":16.29974,"lon":80.45729,"geocoding":{},"distantMaxMiles":5},"Hindupur":{"countryName":"India","stateName":"Andhra Pradesh","name":"Hindupur","lat":13.82807,"lon":77.49143,"geocoding":{},"distantMaxMiles":5},"Ichchapuram":{"countryName":"India","stateName":"Andhra Pradesh","name":"Ichchapuram","lat":19.11393,"lon":84.68721,"geocoding":{},"distantMaxMiles":5},"Jaggayyapeta":{"countryName":"India","stateName":"Andhra Pradesh","name":"Jaggayyapeta","lat":16.8938,"lon":80.09807,"geocoding":{},"distantMaxMiles":5},"Jammalamadugu":{"countryName":"India","stateName":"Andhra Pradesh","name":"Jammalamadugu","lat":14.84677,"lon":78.38314,"geocoding":{},"distantMaxMiles":5},"Kadiri":{"countryName":"India","stateName":"Andhra Pradesh","name":"Kadiri","lat":14.11168,"lon":78.15982,"geocoding":{},"distantMaxMiles":5},"Kaikalur":{"countryName":"India","stateName":"Andhra Pradesh","name":"Kaikalur","lat":16.55154,"lon":81.214,"geocoding":{},"distantMaxMiles":5},"Kakinada":{"countryName":"India","stateName":"Andhra Pradesh","name":"Kakinada","lat":16.96036,"lon":82.23809,"geocoding":{},"distantMaxMiles":5},"Kalyandurg":{"countryName":"India","stateName":"Andhra Pradesh","name":"Kalyandurg","lat":14.54519,"lon":77.10552,"geocoding":{},"distantMaxMiles":5},"Kamalapuram":{"countryName":"India","stateName":"Andhra Pradesh","name":"Kamalapuram","lat":14.5983,"lon":78.66948,"geocoding":{},"distantMaxMiles":5},"Kandukur":{"countryName":"India","stateName":"Andhra Pradesh","name":"Kandukur","lat":15.21542,"lon":79.9039,"geocoding":{},"distantMaxMiles":5},"Kanigiri":{"countryName":"India","stateName":"Andhra Pradesh","name":"Kanigiri","lat":15.40555,"lon":79.50694,"geocoding":{},"distantMaxMiles":5},"Kankipadu":{"countryName":"India","stateName":"Andhra Pradesh","name":"Kankipadu","lat":16.4353,"lon":80.76715,"geocoding":{},"distantMaxMiles":5},"Kanuru":{"countryName":"India","stateName":"Andhra Pradesh","name":"Kanuru","lat":16.28584,"lon":81.25464,"geocoding":{},"distantMaxMiles":5},"Kavali":{"countryName":"India","stateName":"Andhra Pradesh","name":"Kavali","lat":14.9163,"lon":79.99449,"geocoding":{},"distantMaxMiles":5},"Kolanukonda":{"countryName":"India","stateName":"Andhra Pradesh","name":"Kolanukonda","lat":16.45392,"lon":80.61046,"geocoding":{},"distantMaxMiles":5},"Kondapalle":{"countryName":"India","stateName":"Andhra Pradesh","name":"Kondapalle","lat":16.61989,"lon":80.54244,"geocoding":{},"distantMaxMiles":5},"Korukollu":{"countryName":"India","stateName":"Andhra Pradesh","name":"Korukollu","lat":16.5,"lon":81.25,"geocoding":{},"distantMaxMiles":5},"Kosigi":{"countryName":"India","stateName":"Andhra Pradesh","name":"Kosigi","lat":15.8551,"lon":77.24463,"geocoding":{},"distantMaxMiles":5},"Kovvur":{"countryName":"India","stateName":"Andhra Pradesh","name":"Kovvur","lat":17.0162,"lon":81.72934,"geocoding":{},"distantMaxMiles":5},"Krishna":{"countryName":"India","stateName":"Andhra Pradesh","name":"Krishna","lat":16.66667,"lon":81,"geocoding":{},"distantMaxMiles":5},"Kuppam":{"countryName":"India","stateName":"Andhra Pradesh","name":"Kuppam","lat":12.74931,"lon":78.34189,"geocoding":{},"distantMaxMiles":5},"Kurnool":{"countryName":"India","stateName":"Andhra Pradesh","name":"Kurnool","lat":15.58333,"lon":78.33333,"geocoding":{},"distantMaxMiles":5},"Macherla":{"countryName":"India","stateName":"Andhra Pradesh","name":"Macherla","lat":16.47635,"lon":79.43533,"geocoding":{},"distantMaxMiles":5},"Machilipatnam":{"countryName":"India","stateName":"Andhra Pradesh","name":"Machilipatnam","lat":16.18747,"lon":81.13888,"geocoding":{},"distantMaxMiles":5},"Madanapalle":{"countryName":"India","stateName":"Andhra Pradesh","name":"Madanapalle","lat":13.5503,"lon":78.50288,"geocoding":{},"distantMaxMiles":5},"Madugula":{"countryName":"India","stateName":"Andhra Pradesh","name":"Madugula","lat":17.91589,"lon":82.81578,"geocoding":{},"distantMaxMiles":5},"Mandapeta":{"countryName":"India","stateName":"Andhra Pradesh","name":"Mandapeta","lat":16.86254,"lon":81.92921,"geocoding":{},"distantMaxMiles":5},"Mandasa":{"countryName":"India","stateName":"Andhra Pradesh","name":"Mandasa","lat":18.8683,"lon":84.46296,"geocoding":{},"distantMaxMiles":5},"Mangalagiri":{"countryName":"India","stateName":"Andhra Pradesh","name":"Mangalagiri","lat":16.43083,"lon":80.56815,"geocoding":{},"distantMaxMiles":5},"Markapur":{"countryName":"India","stateName":"Andhra Pradesh","name":"Markapur","lat":15.73534,"lon":79.26848,"geocoding":{},"distantMaxMiles":5},"Nagari":{"countryName":"India","stateName":"Andhra Pradesh","name":"Nagari","lat":13.32139,"lon":79.58557,"geocoding":{},"distantMaxMiles":5},"Nagireddipalli":{"countryName":"India","stateName":"Andhra Pradesh","name":"Nagireddipalli","lat":14.27005,"lon":79.10131,"geocoding":{},"distantMaxMiles":5},"Nandigama":{"countryName":"India","stateName":"Andhra Pradesh","name":"Nandigama","lat":16.7717,"lon":80.28596,"geocoding":{},"distantMaxMiles":5},"Nandikotkur":{"countryName":"India","stateName":"Andhra Pradesh","name":"Nandikotkur","lat":15.85668,"lon":78.26569,"geocoding":{},"distantMaxMiles":5},"Nandyal":{"countryName":"India","stateName":"Andhra Pradesh","name":"Nandyal","lat":15.47799,"lon":78.4836,"geocoding":{},"distantMaxMiles":5},"Narasannapeta":{"countryName":"India","stateName":"Andhra Pradesh","name":"Narasannapeta","lat":18.41428,"lon":84.04463,"geocoding":{},"distantMaxMiles":5},"Narasapur":{"countryName":"India","stateName":"Andhra Pradesh","name":"Narasapur","lat":16.43425,"lon":81.69845,"geocoding":{},"distantMaxMiles":5},"Narasaraopet":{"countryName":"India","stateName":"Andhra Pradesh","name":"Narasaraopet","lat":16.23488,"lon":80.04927,"geocoding":{},"distantMaxMiles":5},"Narasingapuram":{"countryName":"India","stateName":"Andhra Pradesh","name":"Narasingapuram","lat":13.60759,"lon":79.31652,"geocoding":{},"distantMaxMiles":5},"Narayanavanam":{"countryName":"India","stateName":"Andhra Pradesh","name":"Narayanavanam","lat":13.42565,"lon":79.58881,"geocoding":{},"distantMaxMiles":5},"Narsipatnam":{"countryName":"India","stateName":"Andhra Pradesh","name":"Narsipatnam","lat":17.66709,"lon":82.61245,"geocoding":{},"distantMaxMiles":5},"Nayudupet":{"countryName":"India","stateName":"Andhra Pradesh","name":"Nayudupet","lat":13.90742,"lon":79.89465,"geocoding":{},"distantMaxMiles":5},"Nellore":{"countryName":"India","stateName":"Andhra Pradesh","name":"Nellore","lat":14.08333,"lon":79.58333,"geocoding":{},"distantMaxMiles":5},"Nidadavole":{"countryName":"India","stateName":"Andhra Pradesh","name":"Nidadavole","lat":16.90572,"lon":81.67222,"geocoding":{},"distantMaxMiles":5},"Nuzvid":{"countryName":"India","stateName":"Andhra Pradesh","name":"Nuzvid","lat":16.78854,"lon":80.84593,"geocoding":{},"distantMaxMiles":5},"Ongole":{"countryName":"India","stateName":"Andhra Pradesh","name":"Ongole","lat":15.50357,"lon":80.04454,"geocoding":{},"distantMaxMiles":5},"Pakala":{"countryName":"India","stateName":"Andhra Pradesh","name":"Pakala","lat":13.44903,"lon":79.11493,"geocoding":{},"distantMaxMiles":5},"Palakollu":{"countryName":"India","stateName":"Andhra Pradesh","name":"Palakollu","lat":16.5167,"lon":81.73,"geocoding":{},"distantMaxMiles":5},"Palasa":{"countryName":"India","stateName":"Andhra Pradesh","name":"Palasa","lat":18.77257,"lon":84.41012,"geocoding":{},"distantMaxMiles":5},"Palkonda":{"countryName":"India","stateName":"Andhra Pradesh","name":"Palkonda","lat":18.60374,"lon":83.75568,"geocoding":{},"distantMaxMiles":5},"Pallevada":{"countryName":"India","stateName":"Andhra Pradesh","name":"Pallevada","lat":16.5779,"lon":81.29463,"geocoding":{},"distantMaxMiles":5},"Palmaner":{"countryName":"India","stateName":"Andhra Pradesh","name":"Palmaner","lat":13.2,"lon":78.74725,"geocoding":{},"distantMaxMiles":5},"Parlakimidi":{"countryName":"India","stateName":"Andhra Pradesh","name":"Parlakimidi","lat":18.78113,"lon":84.08836,"geocoding":{},"distantMaxMiles":5},"Parvatipuram":{"countryName":"India","stateName":"Andhra Pradesh","name":"Parvatipuram","lat":18.78392,"lon":83.42569,"geocoding":{},"distantMaxMiles":5},"Pavuluru":{"countryName":"India","stateName":"Andhra Pradesh","name":"Pavuluru","lat":15.85292,"lon":80.16468,"geocoding":{},"distantMaxMiles":5},"Pedana":{"countryName":"India","stateName":"Andhra Pradesh","name":"Pedana","lat":16.25582,"lon":81.14378,"geocoding":{},"distantMaxMiles":5},"Peddapuram":{"countryName":"India","stateName":"Andhra Pradesh","name":"Peddapuram","lat":17.07701,"lon":82.13836,"geocoding":{},"distantMaxMiles":5},"Penugonda":{"countryName":"India","stateName":"Andhra Pradesh","name":"Penugonda","lat":16.65363,"lon":81.7455,"geocoding":{},"distantMaxMiles":5},"Penukonda":{"countryName":"India","stateName":"Andhra Pradesh","name":"Penukonda","lat":14.08286,"lon":77.59473,"geocoding":{},"distantMaxMiles":5},"Phirangipuram":{"countryName":"India","stateName":"Andhra Pradesh","name":"Phirangipuram","lat":16.29078,"lon":80.26233,"geocoding":{},"distantMaxMiles":5},"Pippara":{"countryName":"India","stateName":"Andhra Pradesh","name":"Pippara","lat":16.71667,"lon":81.55,"geocoding":{},"distantMaxMiles":5},"Pithapuram":{"countryName":"India","stateName":"Andhra Pradesh","name":"Pithapuram","lat":17.1168,"lon":82.25284,"geocoding":{},"distantMaxMiles":5},"Polavaram":{"countryName":"India","stateName":"Andhra Pradesh","name":"Polavaram","lat":17.24754,"lon":81.64372,"geocoding":{},"distantMaxMiles":5},"Ponnur":{"countryName":"India","stateName":"Andhra Pradesh","name":"Ponnur","lat":16.07114,"lon":80.54944,"geocoding":{},"distantMaxMiles":5},"Ponnuru":{"countryName":"India","stateName":"Andhra Pradesh","name":"Ponnuru","lat":16.06547,"lon":80.55203,"geocoding":{},"distantMaxMiles":5},"Prakasam":{"countryName":"India","stateName":"Andhra Pradesh","name":"Prakasam","lat":15.5,"lon":79.5,"geocoding":{},"distantMaxMiles":5},"Proddatur":{"countryName":"India","stateName":"Andhra Pradesh","name":"Proddatur","lat":14.7502,"lon":78.54813,"geocoding":{},"distantMaxMiles":5},"Pulivendla":{"countryName":"India","stateName":"Andhra Pradesh","name":"Pulivendla","lat":14.42139,"lon":78.22502,"geocoding":{},"distantMaxMiles":5},"Punganuru":{"countryName":"India","stateName":"Andhra Pradesh","name":"Punganuru","lat":13.36672,"lon":78.57186,"geocoding":{},"distantMaxMiles":5},"Puttaparthi":{"countryName":"India","stateName":"Andhra Pradesh","name":"Puttaparthi","lat":14.1652,"lon":77.8117,"geocoding":{},"distantMaxMiles":5},"Puttur":{"countryName":"India","stateName":"Andhra Pradesh","name":"Puttur","lat":13.44189,"lon":79.55314,"geocoding":{},"distantMaxMiles":5},"Rajahmundry":{"countryName":"India","stateName":"Andhra Pradesh","name":"Rajahmundry","lat":17.00517,"lon":81.77784,"geocoding":{},"distantMaxMiles":5},"Ramachandrapuram":{"countryName":"India","stateName":"Andhra Pradesh","name":"Ramachandrapuram","lat":16.83636,"lon":82.02871,"geocoding":{},"distantMaxMiles":5},"Ramanayyapeta":{"countryName":"India","stateName":"Andhra Pradesh","name":"Ramanayyapeta","lat":16.94516,"lon":82.2385,"geocoding":{},"distantMaxMiles":5},"Ramapuram":{"countryName":"India","stateName":"Andhra Pradesh","name":"Ramapuram","lat":15.28749,"lon":77.86722,"geocoding":{},"distantMaxMiles":5},"Rampachodavaram":{"countryName":"India","stateName":"Andhra Pradesh","name":"Rampachodavaram","lat":17.44088,"lon":81.77558,"geocoding":{},"distantMaxMiles":5},"Rayachoti":{"countryName":"India","stateName":"Andhra Pradesh","name":"Rayachoti","lat":14.05723,"lon":78.75056,"geocoding":{},"distantMaxMiles":5},"Rayadrug":{"countryName":"India","stateName":"Andhra Pradesh","name":"Rayadrug","lat":14.69971,"lon":76.85241,"geocoding":{},"distantMaxMiles":5},"Razam":{"countryName":"India","stateName":"Andhra Pradesh","name":"Razam","lat":18.44909,"lon":83.65957,"geocoding":{},"distantMaxMiles":5},"Razampeta":{"countryName":"India","stateName":"Andhra Pradesh","name":"Razampeta","lat":14.19544,"lon":79.15896,"geocoding":{},"distantMaxMiles":5},"Razole":{"countryName":"India","stateName":"Andhra Pradesh","name":"Razole","lat":16.47608,"lon":81.83912,"geocoding":{},"distantMaxMiles":5},"Renigunta":{"countryName":"India","stateName":"Andhra Pradesh","name":"Renigunta","lat":13.65143,"lon":79.51256,"geocoding":{},"distantMaxMiles":5},"Repalle":{"countryName":"India","stateName":"Andhra Pradesh","name":"Repalle","lat":16.0184,"lon":80.82958,"geocoding":{},"distantMaxMiles":5},"Salur":{"countryName":"India","stateName":"Andhra Pradesh","name":"Salur","lat":18.51716,"lon":83.20548,"geocoding":{},"distantMaxMiles":5},"Samalkot":{"countryName":"India","stateName":"Andhra Pradesh","name":"Samalkot","lat":17.05675,"lon":82.17639,"geocoding":{},"distantMaxMiles":5},"Sattenapalle":{"countryName":"India","stateName":"Andhra Pradesh","name":"Sattenapalle","lat":16.39381,"lon":80.15221,"geocoding":{},"distantMaxMiles":5},"Singarayakonda":{"countryName":"India","stateName":"Andhra Pradesh","name":"Singarayakonda","lat":15.23046,"lon":80.02794,"geocoding":{},"distantMaxMiles":5},"Sompeta":{"countryName":"India","stateName":"Andhra Pradesh","name":"Sompeta","lat":18.94419,"lon":84.58449,"geocoding":{},"distantMaxMiles":5},"Srikakulam":{"countryName":"India","stateName":"Andhra Pradesh","name":"Srikakulam","lat":18.2989,"lon":83.89751,"geocoding":{},"distantMaxMiles":5},"Srisailain":{"countryName":"India","stateName":"Andhra Pradesh","name":"Srisailain","lat":16.07217,"lon":78.86816,"geocoding":{},"distantMaxMiles":5},"Suluru":{"countryName":"India","stateName":"Andhra Pradesh","name":"Suluru","lat":13.7,"lon":80.01667,"geocoding":{},"distantMaxMiles":5},"Tadepalle":{"countryName":"India","stateName":"Andhra Pradesh","name":"Tadepalle","lat":16.48333,"lon":80.6,"geocoding":{},"distantMaxMiles":5},"Tadepallegudem":{"countryName":"India","stateName":"Andhra Pradesh","name":"Tadepallegudem","lat":16.81467,"lon":81.52717,"geocoding":{},"distantMaxMiles":5},"Tadpatri":{"countryName":"India","stateName":"Andhra Pradesh","name":"Tadpatri","lat":14.90832,"lon":78.01031,"geocoding":{},"distantMaxMiles":5},"Tanuku":{"countryName":"India","stateName":"Andhra Pradesh","name":"Tanuku","lat":16.75438,"lon":81.68143,"geocoding":{},"distantMaxMiles":5},"Tekkali":{"countryName":"India","stateName":"Andhra Pradesh","name":"Tekkali","lat":18.6057,"lon":84.23546,"geocoding":{},"distantMaxMiles":5},"Tirumala":{"countryName":"India","stateName":"Andhra Pradesh","name":"Tirumala","lat":13.68333,"lon":79.35,"geocoding":{},"distantMaxMiles":5},"Tirupati":{"countryName":"India","stateName":"Andhra Pradesh","name":"Tirupati","lat":13.63551,"lon":79.41989,"geocoding":{},"distantMaxMiles":5},"Tuni":{"countryName":"India","stateName":"Andhra Pradesh","name":"Tuni","lat":17.35905,"lon":82.54607,"geocoding":{},"distantMaxMiles":5},"Uravakonda":{"countryName":"India","stateName":"Andhra Pradesh","name":"Uravakonda","lat":14.94348,"lon":77.25494,"geocoding":{},"distantMaxMiles":5},"Vadlapudi":{"countryName":"India","stateName":"Andhra Pradesh","name":"Vadlapudi","lat":14.31119,"lon":79.8043,"geocoding":{},"distantMaxMiles":5},"Venkatagiri":{"countryName":"India","stateName":"Andhra Pradesh","name":"Venkatagiri","lat":13.96005,"lon":79.58032,"geocoding":{},"distantMaxMiles":5},"Vepagunta":{"countryName":"India","stateName":"Andhra Pradesh","name":"Vepagunta","lat":17.77844,"lon":83.21577,"geocoding":{},"distantMaxMiles":5},"Vetapalem":{"countryName":"India","stateName":"Andhra Pradesh","name":"Vetapalem","lat":15.78502,"lon":80.30663,"geocoding":{},"distantMaxMiles":5},"Vijayawada":{"countryName":"India","stateName":"Andhra Pradesh","name":"Vijayawada","lat":16.50745,"lon":80.6466,"geocoding":{},"distantMaxMiles":5},"Vinukonda":{"countryName":"India","stateName":"Andhra Pradesh","name":"Vinukonda","lat":16.0531,"lon":79.73964,"geocoding":{},"distantMaxMiles":5},"Visakhapatnam":{"countryName":"India","stateName":"Andhra Pradesh","name":"Visakhapatnam","lat":17.68009,"lon":83.20161,"geocoding":{},"distantMaxMiles":5},"Vizianagaram":{"countryName":"India","stateName":"Andhra Pradesh","name":"Vizianagaram","lat":18.11692,"lon":83.41148,"geocoding":{},"distantMaxMiles":5},"Vizianagaram District":{"countryName":"India","stateName":"Andhra Pradesh","name":"Vizianagaram District","lat":18.41102,"lon":83.37677,"geocoding":{},"distantMaxMiles":5},"Vuyyuru":{"countryName":"India","stateName":"Andhra Pradesh","name":"Vuyyuru","lat":16.36307,"lon":80.84406,"geocoding":{},"distantMaxMiles":5},"West Godavari":{"countryName":"India","stateName":"Andhra Pradesh","name":"West Godavari","lat":17,"lon":81.16667,"geocoding":{},"distantMaxMiles":5},"Yanam":{"countryName":"India","stateName":"Andhra Pradesh","name":"Yanam","lat":16.73308,"lon":82.21364,"geocoding":{},"distantMaxMiles":5},"Yanamalakuduru":{"countryName":"India","stateName":"Andhra Pradesh","name":"Yanamalakuduru","lat":16.48531,"lon":80.66746,"geocoding":{},"distantMaxMiles":5},"Yarada":{"countryName":"India","stateName":"Andhra Pradesh","name":"Yarada","lat":17.65872,"lon":83.27419,"geocoding":{},"distantMaxMiles":5},"pedda nakkalapalem":{"countryName":"India","stateName":"Andhra Pradesh","name":"pedda nakkalapalem","lat":15.8668,"lon":80.16202,"geocoding":{},"distantMaxMiles":5},"vadlamuru":{"countryName":"India","stateName":"Andhra Pradesh","name":"vadlamuru","lat":17.09545,"lon":82.16565,"geocoding":{},"distantMaxMiles":5}}},"Arunachal Pradesh":{"countryName":"India","name":"Arunachal Pradesh","isoCode":"AR","lat":28.2179994,"lon":94.7277528,"geocoding":{},"distantMaxMiles":5,"cities":{"Along":{"countryName":"India","stateName":"Arunachal Pradesh","name":"Along","lat":28.16951,"lon":94.8006,"geocoding":{},"distantMaxMiles":5},"Anjaw":{"countryName":"India","stateName":"Arunachal Pradesh","name":"Anjaw","lat":28.06549,"lon":96.82878,"geocoding":{},"distantMaxMiles":5},"Basar":{"countryName":"India","stateName":"Arunachal Pradesh","name":"Basar","lat":27.99008,"lon":94.69451,"geocoding":{},"distantMaxMiles":5},"Bomdila":{"countryName":"India","stateName":"Arunachal Pradesh","name":"Bomdila","lat":27.26475,"lon":92.42472,"geocoding":{},"distantMaxMiles":5},"Changlang":{"countryName":"India","stateName":"Arunachal Pradesh","name":"Changlang","lat":27.36265,"lon":96.34518,"geocoding":{},"distantMaxMiles":5},"Dibang Valley":{"countryName":"India","stateName":"Arunachal Pradesh","name":"Dibang Valley","lat":28.7,"lon":95.7,"geocoding":{},"distantMaxMiles":5},"East Kameng":{"countryName":"India","stateName":"Arunachal Pradesh","name":"East Kameng","lat":27.3,"lon":93.05,"geocoding":{},"distantMaxMiles":5},"East Siang":{"countryName":"India","stateName":"Arunachal Pradesh","name":"East Siang","lat":28.12379,"lon":95.16339,"geocoding":{},"distantMaxMiles":5},"Hayuliang":{"countryName":"India","stateName":"Arunachal Pradesh","name":"Hayuliang","lat":28.07301,"lon":96.54305,"geocoding":{},"distantMaxMiles":5},"Itanagar":{"countryName":"India","stateName":"Arunachal Pradesh","name":"Itanagar","lat":27.08694,"lon":93.60987,"geocoding":{},"distantMaxMiles":5},"Khonsa":{"countryName":"India","stateName":"Arunachal Pradesh","name":"Khonsa","lat":27.01667,"lon":95.56667,"geocoding":{},"distantMaxMiles":5},"Kurung Kumey":{"countryName":"India","stateName":"Arunachal Pradesh","name":"Kurung Kumey","lat":27.99983,"lon":93.3924,"geocoding":{},"distantMaxMiles":5},"Lohit District":{"countryName":"India","stateName":"Arunachal Pradesh","name":"Lohit District","lat":27.84012,"lon":96.19521,"geocoding":{},"distantMaxMiles":5},"Lower Dibang Valley":{"countryName":"India","stateName":"Arunachal Pradesh","name":"Lower Dibang Valley","lat":28.37258,"lon":95.8804,"geocoding":{},"distantMaxMiles":5},"Lower Subansiri":{"countryName":"India","stateName":"Arunachal Pradesh","name":"Lower Subansiri","lat":27.62554,"lon":93.93908,"geocoding":{},"distantMaxMiles":5},"Margherita":{"countryName":"India","stateName":"Arunachal Pradesh","name":"Margherita","lat":27.28482,"lon":95.66796,"geocoding":{},"distantMaxMiles":5},"Naharlagun":{"countryName":"India","stateName":"Arunachal Pradesh","name":"Naharlagun","lat":27.10467,"lon":93.69518,"geocoding":{},"distantMaxMiles":5},"Pasighat":{"countryName":"India","stateName":"Arunachal Pradesh","name":"Pasighat","lat":28.06631,"lon":95.32678,"geocoding":{},"distantMaxMiles":5},"Tawang":{"countryName":"India","stateName":"Arunachal Pradesh","name":"Tawang","lat":27.57417,"lon":91.92437,"geocoding":{},"distantMaxMiles":5},"Tezu":{"countryName":"India","stateName":"Arunachal Pradesh","name":"Tezu","lat":27.91256,"lon":96.12882,"geocoding":{},"distantMaxMiles":5},"Tirap":{"countryName":"India","stateName":"Arunachal Pradesh","name":"Tirap","lat":27.01917,"lon":95.51788,"geocoding":{},"distantMaxMiles":5},"Upper Siang":{"countryName":"India","stateName":"Arunachal Pradesh","name":"Upper Siang","lat":28.83355,"lon":94.91806,"geocoding":{},"distantMaxMiles":5},"Upper Subansiri":{"countryName":"India","stateName":"Arunachal Pradesh","name":"Upper Subansiri","lat":28.3,"lon":94,"geocoding":{},"distantMaxMiles":5},"West Kameng":{"countryName":"India","stateName":"Arunachal Pradesh","name":"West Kameng","lat":27.4,"lon":92.35,"geocoding":{},"distantMaxMiles":5},"West Siang":{"countryName":"India","stateName":"Arunachal Pradesh","name":"West Siang","lat":28.4,"lon":94.55,"geocoding":{},"distantMaxMiles":5},"Ziro":{"countryName":"India","stateName":"Arunachal Pradesh","name":"Ziro","lat":27.59497,"lon":93.83854,"geocoding":{},"distantMaxMiles":5}}},"Assam":{"countryName":"India","name":"Assam","isoCode":"AS","lat":26.2006043,"lon":92.9375739,"geocoding":{},"distantMaxMiles":5,"cities":{"Abhayapuri":{"countryName":"India","stateName":"Assam","name":"Abhayapuri","lat":26.32255,"lon":90.68526,"geocoding":{},"distantMaxMiles":5},"Amguri":{"countryName":"India","stateName":"Assam","name":"Amguri","lat":26.81482,"lon":94.52614,"geocoding":{},"distantMaxMiles":5},"Badarpur":{"countryName":"India","stateName":"Assam","name":"Badarpur","lat":24.86852,"lon":92.59606,"geocoding":{},"distantMaxMiles":5},"Baksa":{"countryName":"India","stateName":"Assam","name":"Baksa","lat":26.69804,"lon":91.15142,"geocoding":{},"distantMaxMiles":5},"Barpathar":{"countryName":"India","stateName":"Assam","name":"Barpathar","lat":26.28709,"lon":93.88844,"geocoding":{},"distantMaxMiles":5},"Barpeta":{"countryName":"India","stateName":"Assam","name":"Barpeta","lat":26.47104,"lon":91.0308,"geocoding":{},"distantMaxMiles":5},"Barpeta Road":{"countryName":"India","stateName":"Assam","name":"Barpeta Road","lat":26.50284,"lon":90.96937,"geocoding":{},"distantMaxMiles":5},"Basugaon":{"countryName":"India","stateName":"Assam","name":"Basugaon","lat":26.46742,"lon":90.41951,"geocoding":{},"distantMaxMiles":5},"Bihpuriagaon":{"countryName":"India","stateName":"Assam","name":"Bihpuriagaon","lat":27.01718,"lon":93.91673,"geocoding":{},"distantMaxMiles":5},"Bijni":{"countryName":"India","stateName":"Assam","name":"Bijni","lat":26.49588,"lon":90.70298,"geocoding":{},"distantMaxMiles":5},"Bilasipara":{"countryName":"India","stateName":"Assam","name":"Bilasipara","lat":26.23285,"lon":90.2341,"geocoding":{},"distantMaxMiles":5},"Bokajan":{"countryName":"India","stateName":"Assam","name":"Bokajan","lat":26.02131,"lon":93.77945,"geocoding":{},"distantMaxMiles":5},"Bokakhat":{"countryName":"India","stateName":"Assam","name":"Bokakhat","lat":26.64018,"lon":93.60052,"geocoding":{},"distantMaxMiles":5},"Bongaigaon":{"countryName":"India","stateName":"Assam","name":"Bongaigaon","lat":26.4603,"lon":90.6464,"geocoding":{},"distantMaxMiles":5},"Cachar":{"countryName":"India","stateName":"Assam","name":"Cachar","lat":24.78213,"lon":92.85771,"geocoding":{},"distantMaxMiles":5},"Chabua":{"countryName":"India","stateName":"Assam","name":"Chabua","lat":27.48253,"lon":95.17451,"geocoding":{},"distantMaxMiles":5},"Chapar":{"countryName":"India","stateName":"Assam","name":"Chapar","lat":26.27266,"lon":90.44556,"geocoding":{},"distantMaxMiles":5},"Chirang":{"countryName":"India","stateName":"Assam","name":"Chirang","lat":26.52527,"lon":90.49066,"geocoding":{},"distantMaxMiles":5},"Darrang":{"countryName":"India","stateName":"Assam","name":"Darrang","lat":26.51195,"lon":92.16843,"geocoding":{},"distantMaxMiles":5},"Dergaon":{"countryName":"India","stateName":"Assam","name":"Dergaon","lat":26.7,"lon":93.96667,"geocoding":{},"distantMaxMiles":5},"Dhekiajuli":{"countryName":"India","stateName":"Assam","name":"Dhekiajuli","lat":26.70367,"lon":92.47808,"geocoding":{},"distantMaxMiles":5},"Dhemaji":{"countryName":"India","stateName":"Assam","name":"Dhemaji","lat":27.6091,"lon":94.7942,"geocoding":{},"distantMaxMiles":5},"Dhing":{"countryName":"India","stateName":"Assam","name":"Dhing","lat":26.46793,"lon":92.47336,"geocoding":{},"distantMaxMiles":5},"Dhubri":{"countryName":"India","stateName":"Assam","name":"Dhubri","lat":26.06749,"lon":90.02238,"geocoding":{},"distantMaxMiles":5},"Dibrugarh":{"countryName":"India","stateName":"Assam","name":"Dibrugarh","lat":27.5,"lon":95,"geocoding":{},"distantMaxMiles":5},"Digboi":{"countryName":"India","stateName":"Assam","name":"Digboi","lat":27.39321,"lon":95.61839,"geocoding":{},"distantMaxMiles":5},"Dima Hasao District":{"countryName":"India","stateName":"Assam","name":"Dima Hasao District","lat":25.5,"lon":93,"geocoding":{},"distantMaxMiles":5},"Diphu":{"countryName":"India","stateName":"Assam","name":"Diphu","lat":25.84341,"lon":93.43116,"geocoding":{},"distantMaxMiles":5},"Dispur":{"countryName":"India","stateName":"Assam","name":"Dispur","lat":26.13564,"lon":91.80069,"geocoding":{},"distantMaxMiles":5},"Duliagaon":{"countryName":"India","stateName":"Assam","name":"Duliagaon","lat":27.37227,"lon":95.30754,"geocoding":{},"distantMaxMiles":5},"Dum Duma":{"countryName":"India","stateName":"Assam","name":"Dum Duma","lat":27.56884,"lon":95.55664,"geocoding":{},"distantMaxMiles":5},"Gauripur":{"countryName":"India","stateName":"Assam","name":"Gauripur","lat":26.08334,"lon":89.96118,"geocoding":{},"distantMaxMiles":5},"Goalpara":{"countryName":"India","stateName":"Assam","name":"Goalpara","lat":26.12791,"lon":90.60974,"geocoding":{},"distantMaxMiles":5},"Gohpur":{"countryName":"India","stateName":"Assam","name":"Gohpur","lat":26.88184,"lon":93.6156,"geocoding":{},"distantMaxMiles":5},"Golaghat":{"countryName":"India","stateName":"Assam","name":"Golaghat","lat":26.4092,"lon":93.91193,"geocoding":{},"distantMaxMiles":5},"Golakganj":{"countryName":"India","stateName":"Assam","name":"Golakganj","lat":26.10216,"lon":89.82275,"geocoding":{},"distantMaxMiles":5},"Goshaingaon":{"countryName":"India","stateName":"Assam","name":"Goshaingaon","lat":26.43946,"lon":89.96307,"geocoding":{},"distantMaxMiles":5},"Guwahati":{"countryName":"India","stateName":"Assam","name":"Guwahati","lat":26.1844,"lon":91.7458,"geocoding":{},"distantMaxMiles":5},"Haflong":{"countryName":"India","stateName":"Assam","name":"Haflong","lat":25.16478,"lon":93.01744,"geocoding":{},"distantMaxMiles":5},"Hailakandi":{"countryName":"India","stateName":"Assam","name":"Hailakandi","lat":24.5017,"lon":92.60069,"geocoding":{},"distantMaxMiles":5},"Hajo":{"countryName":"India","stateName":"Assam","name":"Hajo","lat":26.2452,"lon":91.52525,"geocoding":{},"distantMaxMiles":5},"Hojai":{"countryName":"India","stateName":"Assam","name":"Hojai","lat":26.00281,"lon":92.85605,"geocoding":{},"distantMaxMiles":5},"Howli":{"countryName":"India","stateName":"Assam","name":"Howli","lat":26.42237,"lon":90.98004,"geocoding":{},"distantMaxMiles":5},"Jogighopa":{"countryName":"India","stateName":"Assam","name":"Jogighopa","lat":26.22646,"lon":90.57247,"geocoding":{},"distantMaxMiles":5},"Jorhat":{"countryName":"India","stateName":"Assam","name":"Jorhat","lat":26.8,"lon":94.26,"geocoding":{},"distantMaxMiles":5},"Kamrup":{"countryName":"India","stateName":"Assam","name":"Kamrup","lat":26.22322,"lon":91.65344,"geocoding":{},"distantMaxMiles":5},"Kamrup Metropolitan":{"countryName":"India","stateName":"Assam","name":"Kamrup Metropolitan","lat":26.05375,"lon":92.00763,"geocoding":{},"distantMaxMiles":5},"Karbi Anglong":{"countryName":"India","stateName":"Assam","name":"Karbi Anglong","lat":26,"lon":93.5,"geocoding":{},"distantMaxMiles":5},"Karimganj":{"countryName":"India","stateName":"Assam","name":"Karimganj","lat":24.6,"lon":92.4,"geocoding":{},"distantMaxMiles":5},"Kharupatia":{"countryName":"India","stateName":"Assam","name":"Kharupatia","lat":26.51839,"lon":92.14722,"geocoding":{},"distantMaxMiles":5},"Kokrajhar":{"countryName":"India","stateName":"Assam","name":"Kokrajhar","lat":26.6,"lon":90.2,"geocoding":{},"distantMaxMiles":5},"Lakhimpur":{"countryName":"India","stateName":"Assam","name":"Lakhimpur","lat":27.35,"lon":94.25,"geocoding":{},"distantMaxMiles":5},"Lakhipur":{"countryName":"India","stateName":"Assam","name":"Lakhipur","lat":24.79281,"lon":93.0091,"geocoding":{},"distantMaxMiles":5},"Lala":{"countryName":"India","stateName":"Assam","name":"Lala","lat":24.55418,"lon":92.61592,"geocoding":{},"distantMaxMiles":5},"Lumding Railway Colony":{"countryName":"India","stateName":"Assam","name":"Lumding Railway Colony","lat":25.74903,"lon":93.16998,"geocoding":{},"distantMaxMiles":5},"Mahur":{"countryName":"India","stateName":"Assam","name":"Mahur","lat":25.18305,"lon":93.11342,"geocoding":{},"distantMaxMiles":5},"Maibong":{"countryName":"India","stateName":"Assam","name":"Maibong","lat":25.30125,"lon":93.13811,"geocoding":{},"distantMaxMiles":5},"Makum":{"countryName":"India","stateName":"Assam","name":"Makum","lat":27.48652,"lon":95.43646,"geocoding":{},"distantMaxMiles":5},"Mangaldai":{"countryName":"India","stateName":"Assam","name":"Mangaldai","lat":26.44212,"lon":92.03047,"geocoding":{},"distantMaxMiles":5},"Mariani":{"countryName":"India","stateName":"Assam","name":"Mariani","lat":26.65725,"lon":94.31529,"geocoding":{},"distantMaxMiles":5},"Moranha":{"countryName":"India","stateName":"Assam","name":"Moranha","lat":27.18735,"lon":94.91557,"geocoding":{},"distantMaxMiles":5},"Morigaon":{"countryName":"India","stateName":"Assam","name":"Morigaon","lat":26.25213,"lon":92.34238,"geocoding":{},"distantMaxMiles":5},"Nagaon":{"countryName":"India","stateName":"Assam","name":"Nagaon","lat":26.35037,"lon":92.69225,"geocoding":{},"distantMaxMiles":5},"Nahorkatiya":{"countryName":"India","stateName":"Assam","name":"Nahorkatiya","lat":27.28912,"lon":95.3418,"geocoding":{},"distantMaxMiles":5},"Nalbari":{"countryName":"India","stateName":"Assam","name":"Nalbari","lat":26.5,"lon":91.4,"geocoding":{},"distantMaxMiles":5},"Namrup":{"countryName":"India","stateName":"Assam","name":"Namrup","lat":27.19395,"lon":95.31929,"geocoding":{},"distantMaxMiles":5},"Nazira":{"countryName":"India","stateName":"Assam","name":"Nazira","lat":26.91649,"lon":94.73611,"geocoding":{},"distantMaxMiles":5},"North Guwahati":{"countryName":"India","stateName":"Assam","name":"North Guwahati","lat":26.19749,"lon":91.7202,"geocoding":{},"distantMaxMiles":5},"North Lakhimpur":{"countryName":"India","stateName":"Assam","name":"North Lakhimpur","lat":27.23517,"lon":94.10357,"geocoding":{},"distantMaxMiles":5},"Numaligarh":{"countryName":"India","stateName":"Assam","name":"Numaligarh","lat":26.62249,"lon":93.72225,"geocoding":{},"distantMaxMiles":5},"Palasbari":{"countryName":"India","stateName":"Assam","name":"Palasbari","lat":26.12388,"lon":91.53974,"geocoding":{},"distantMaxMiles":5},"Raha":{"countryName":"India","stateName":"Assam","name":"Raha","lat":26.23333,"lon":92.51667,"geocoding":{},"distantMaxMiles":5},"Rangapara":{"countryName":"India","stateName":"Assam","name":"Rangapara","lat":26.83772,"lon":92.66876,"geocoding":{},"distantMaxMiles":5},"Rangia":{"countryName":"India","stateName":"Assam","name":"Rangia","lat":26.44931,"lon":91.61356,"geocoding":{},"distantMaxMiles":5},"Sapatgram":{"countryName":"India","stateName":"Assam","name":"Sapatgram","lat":26.33732,"lon":90.1236,"geocoding":{},"distantMaxMiles":5},"Sarupathar":{"countryName":"India","stateName":"Assam","name":"Sarupathar","lat":26.206,"lon":96.81,"geocoding":{},"distantMaxMiles":5},"Sibsagar":{"countryName":"India","stateName":"Assam","name":"Sibsagar","lat":26.98427,"lon":94.63784,"geocoding":{},"distantMaxMiles":5},"Silapathar":{"countryName":"India","stateName":"Assam","name":"Silapathar","lat":27.59441,"lon":94.72402,"geocoding":{},"distantMaxMiles":5},"Silchar":{"countryName":"India","stateName":"Assam","name":"Silchar","lat":24.82733,"lon":92.79787,"geocoding":{},"distantMaxMiles":5},"Soalkuchi":{"countryName":"India","stateName":"Assam","name":"Soalkuchi","lat":26.16806,"lon":91.57111,"geocoding":{},"distantMaxMiles":5},"Sonari":{"countryName":"India","stateName":"Assam","name":"Sonari","lat":27.02462,"lon":95.01629,"geocoding":{},"distantMaxMiles":5},"Sonitpur":{"countryName":"India","stateName":"Assam","name":"Sonitpur","lat":26.76748,"lon":92.96425,"geocoding":{},"distantMaxMiles":5},"Sorbhog":{"countryName":"India","stateName":"Assam","name":"Sorbhog","lat":26.48612,"lon":90.8859,"geocoding":{},"distantMaxMiles":5},"Tezpur":{"countryName":"India","stateName":"Assam","name":"Tezpur","lat":26.63333,"lon":92.8,"geocoding":{},"distantMaxMiles":5},"Tinsukia":{"countryName":"India","stateName":"Assam","name":"Tinsukia","lat":27.6,"lon":95.6,"geocoding":{},"distantMaxMiles":5},"Titabar":{"countryName":"India","stateName":"Assam","name":"Titabar","lat":26.6014,"lon":94.20386,"geocoding":{},"distantMaxMiles":5},"Udalguri":{"countryName":"India","stateName":"Assam","name":"Udalguri","lat":26.75367,"lon":92.10215,"geocoding":{},"distantMaxMiles":5}}},"Bihar":{"countryName":"India","name":"Bihar","isoCode":"BR","lat":25.0960742,"lon":85.3131194,"geocoding":{},"distantMaxMiles":5,"cities":{"Amarpur":{"countryName":"India","stateName":"Bihar","name":"Amarpur","lat":25.03967,"lon":86.90247,"geocoding":{},"distantMaxMiles":5},"Araria":{"countryName":"India","stateName":"Bihar","name":"Araria","lat":26.2,"lon":87.4,"geocoding":{},"distantMaxMiles":5},"Arrah":{"countryName":"India","stateName":"Bihar","name":"Arrah","lat":25.55629,"lon":84.66335,"geocoding":{},"distantMaxMiles":5},"Arwal":{"countryName":"India","stateName":"Bihar","name":"Arwal","lat":25.16158,"lon":84.6904,"geocoding":{},"distantMaxMiles":5},"Asarganj":{"countryName":"India","stateName":"Bihar","name":"Asarganj","lat":25.15046,"lon":86.68639,"geocoding":{},"distantMaxMiles":5},"Aurangabad":{"countryName":"India","stateName":"Bihar","name":"Aurangabad","lat":24.75204,"lon":84.3742,"geocoding":{},"distantMaxMiles":5},"Bagaha":{"countryName":"India","stateName":"Bihar","name":"Bagaha","lat":27.09918,"lon":84.09003,"geocoding":{},"distantMaxMiles":5},"Bahadurganj":{"countryName":"India","stateName":"Bihar","name":"Bahadurganj","lat":26.26172,"lon":87.82443,"geocoding":{},"distantMaxMiles":5},"Bairagnia":{"countryName":"India","stateName":"Bihar","name":"Bairagnia","lat":26.74063,"lon":85.27323,"geocoding":{},"distantMaxMiles":5},"Baisi":{"countryName":"India","stateName":"Bihar","name":"Baisi","lat":25.86302,"lon":87.74487,"geocoding":{},"distantMaxMiles":5},"Bakhtiyarpur":{"countryName":"India","stateName":"Bihar","name":"Bakhtiyarpur","lat":25.46179,"lon":85.53179,"geocoding":{},"distantMaxMiles":5},"Bangaon":{"countryName":"India","stateName":"Bihar","name":"Bangaon","lat":25.86728,"lon":86.51152,"geocoding":{},"distantMaxMiles":5},"Banka":{"countryName":"India","stateName":"Bihar","name":"Banka","lat":24.89214,"lon":86.98425,"geocoding":{},"distantMaxMiles":5},"Banmankhi":{"countryName":"India","stateName":"Bihar","name":"Banmankhi","lat":25.88857,"lon":87.19421,"geocoding":{},"distantMaxMiles":5},"Bar Bigha":{"countryName":"India","stateName":"Bihar","name":"Bar Bigha","lat":25.21855,"lon":85.7332,"geocoding":{},"distantMaxMiles":5},"Barauli":{"countryName":"India","stateName":"Bihar","name":"Barauli","lat":26.38109,"lon":84.58648,"geocoding":{},"distantMaxMiles":5},"Barh":{"countryName":"India","stateName":"Bihar","name":"Barh","lat":25.48339,"lon":85.70928,"geocoding":{},"distantMaxMiles":5},"Barhiya":{"countryName":"India","stateName":"Bihar","name":"Barhiya","lat":25.28814,"lon":86.02055,"geocoding":{},"distantMaxMiles":5},"Bariarpur":{"countryName":"India","stateName":"Bihar","name":"Bariarpur","lat":25.28791,"lon":86.57643,"geocoding":{},"distantMaxMiles":5},"Baruni":{"countryName":"India","stateName":"Bihar","name":"Baruni","lat":25.47509,"lon":85.96813,"geocoding":{},"distantMaxMiles":5},"Begusarai":{"countryName":"India","stateName":"Bihar","name":"Begusarai","lat":25.41853,"lon":86.13389,"geocoding":{},"distantMaxMiles":5},"Belsand":{"countryName":"India","stateName":"Bihar","name":"Belsand","lat":26.44365,"lon":85.40076,"geocoding":{},"distantMaxMiles":5},"Bettiah":{"countryName":"India","stateName":"Bihar","name":"Bettiah","lat":26.80229,"lon":84.50311,"geocoding":{},"distantMaxMiles":5},"Bhabhua":{"countryName":"India","stateName":"Bihar","name":"Bhabhua","lat":25.04049,"lon":83.60749,"geocoding":{},"distantMaxMiles":5},"Bhagalpur":{"countryName":"India","stateName":"Bihar","name":"Bhagalpur","lat":25.29023,"lon":87.06665,"geocoding":{},"distantMaxMiles":5},"Bhagirathpur":{"countryName":"India","stateName":"Bihar","name":"Bhagirathpur","lat":26.2695,"lon":86.06346,"geocoding":{},"distantMaxMiles":5},"Bhawanipur":{"countryName":"India","stateName":"Bihar","name":"Bhawanipur","lat":26.45352,"lon":87.02744,"geocoding":{},"distantMaxMiles":5},"Bhojpur":{"countryName":"India","stateName":"Bihar","name":"Bhojpur","lat":25.30886,"lon":84.44504,"geocoding":{},"distantMaxMiles":5},"Bihar Sharif":{"countryName":"India","stateName":"Bihar","name":"Bihar Sharif","lat":25.20084,"lon":85.52389,"geocoding":{},"distantMaxMiles":5},"Bihariganj":{"countryName":"India","stateName":"Bihar","name":"Bihariganj","lat":25.73415,"lon":86.98837,"geocoding":{},"distantMaxMiles":5},"Bikramganj":{"countryName":"India","stateName":"Bihar","name":"Bikramganj","lat":25.21073,"lon":84.25508,"geocoding":{},"distantMaxMiles":5},"Birpur":{"countryName":"India","stateName":"Bihar","name":"Birpur","lat":26.50823,"lon":87.01194,"geocoding":{},"distantMaxMiles":5},"Buddh Gaya":{"countryName":"India","stateName":"Bihar","name":"Buddh Gaya","lat":24.69808,"lon":84.9869,"geocoding":{},"distantMaxMiles":5},"Buxar":{"countryName":"India","stateName":"Bihar","name":"Buxar","lat":25.5,"lon":84.1,"geocoding":{},"distantMaxMiles":5},"Chakia":{"countryName":"India","stateName":"Bihar","name":"Chakia","lat":26.41598,"lon":85.04665,"geocoding":{},"distantMaxMiles":5},"Chapra":{"countryName":"India","stateName":"Bihar","name":"Chapra","lat":25.78031,"lon":84.74709,"geocoding":{},"distantMaxMiles":5},"Chhatapur":{"countryName":"India","stateName":"Bihar","name":"Chhatapur","lat":26.21965,"lon":87.00479,"geocoding":{},"distantMaxMiles":5},"Colgong":{"countryName":"India","stateName":"Bihar","name":"Colgong","lat":25.26328,"lon":87.23264,"geocoding":{},"distantMaxMiles":5},"Dalsingh Sarai":{"countryName":"India","stateName":"Bihar","name":"Dalsingh Sarai","lat":25.66795,"lon":85.83636,"geocoding":{},"distantMaxMiles":5},"Darbhanga":{"countryName":"India","stateName":"Bihar","name":"Darbhanga","lat":26,"lon":86,"geocoding":{},"distantMaxMiles":5},"Daudnagar":{"countryName":"India","stateName":"Bihar","name":"Daudnagar","lat":25.03473,"lon":84.40095,"geocoding":{},"distantMaxMiles":5},"Dehri":{"countryName":"India","stateName":"Bihar","name":"Dehri","lat":24.90247,"lon":84.18217,"geocoding":{},"distantMaxMiles":5},"Dhaka":{"countryName":"India","stateName":"Bihar","name":"Dhaka","lat":26.67479,"lon":85.16698,"geocoding":{},"distantMaxMiles":5},"Dighwara":{"countryName":"India","stateName":"Bihar","name":"Dighwara","lat":25.74434,"lon":85.01003,"geocoding":{},"distantMaxMiles":5},"Dinapore":{"countryName":"India","stateName":"Bihar","name":"Dinapore","lat":25.63705,"lon":85.04794,"geocoding":{},"distantMaxMiles":5},"Dumra":{"countryName":"India","stateName":"Bihar","name":"Dumra","lat":26.56708,"lon":85.5204,"geocoding":{},"distantMaxMiles":5},"Dumraon":{"countryName":"India","stateName":"Bihar","name":"Dumraon","lat":25.55265,"lon":84.15149,"geocoding":{},"distantMaxMiles":5},"Fatwa":{"countryName":"India","stateName":"Bihar","name":"Fatwa","lat":25.50958,"lon":85.30504,"geocoding":{},"distantMaxMiles":5},"Forbesganj":{"countryName":"India","stateName":"Bihar","name":"Forbesganj","lat":26.30253,"lon":87.26556,"geocoding":{},"distantMaxMiles":5},"Gaya":{"countryName":"India","stateName":"Bihar","name":"Gaya","lat":24.79686,"lon":85.00385,"geocoding":{},"distantMaxMiles":5},"Ghoga":{"countryName":"India","stateName":"Bihar","name":"Ghoga","lat":25.21738,"lon":87.1571,"geocoding":{},"distantMaxMiles":5},"Gopalganj":{"countryName":"India","stateName":"Bihar","name":"Gopalganj","lat":26.5,"lon":84.33333,"geocoding":{},"distantMaxMiles":5},"Hajipur":{"countryName":"India","stateName":"Bihar","name":"Hajipur","lat":25.68544,"lon":85.20981,"geocoding":{},"distantMaxMiles":5},"Hilsa":{"countryName":"India","stateName":"Bihar","name":"Hilsa","lat":25.31642,"lon":85.28234,"geocoding":{},"distantMaxMiles":5},"Hisua":{"countryName":"India","stateName":"Bihar","name":"Hisua","lat":24.8336,"lon":85.41729,"geocoding":{},"distantMaxMiles":5},"Islampur":{"countryName":"India","stateName":"Bihar","name":"Islampur","lat":25.14075,"lon":85.20587,"geocoding":{},"distantMaxMiles":5},"Jagdispur":{"countryName":"India","stateName":"Bihar","name":"Jagdispur","lat":25.46811,"lon":84.41939,"geocoding":{},"distantMaxMiles":5},"Jahanabad":{"countryName":"India","stateName":"Bihar","name":"Jahanabad","lat":25.21368,"lon":84.9871,"geocoding":{},"distantMaxMiles":5},"Jamalpur":{"countryName":"India","stateName":"Bihar","name":"Jamalpur","lat":25.31258,"lon":86.48888,"geocoding":{},"distantMaxMiles":5},"Jamui":{"countryName":"India","stateName":"Bihar","name":"Jamui","lat":24.92082,"lon":86.17538,"geocoding":{},"distantMaxMiles":5},"Jaynagar":{"countryName":"India","stateName":"Bihar","name":"Jaynagar","lat":26.59048,"lon":86.13791,"geocoding":{},"distantMaxMiles":5},"Jehanabad":{"countryName":"India","stateName":"Bihar","name":"Jehanabad","lat":25.20701,"lon":84.99573,"geocoding":{},"distantMaxMiles":5},"Jha-Jha":{"countryName":"India","stateName":"Bihar","name":"Jha-Jha","lat":24.77107,"lon":86.37888,"geocoding":{},"distantMaxMiles":5},"Jhanjharpur":{"countryName":"India","stateName":"Bihar","name":"Jhanjharpur","lat":26.26467,"lon":86.27993,"geocoding":{},"distantMaxMiles":5},"Jogbani":{"countryName":"India","stateName":"Bihar","name":"Jogbani","lat":26.39905,"lon":87.26525,"geocoding":{},"distantMaxMiles":5},"Kaimur District":{"countryName":"India","stateName":"Bihar","name":"Kaimur District","lat":25.05077,"lon":83.58261,"geocoding":{},"distantMaxMiles":5},"Kasba":{"countryName":"India","stateName":"Bihar","name":"Kasba","lat":25.85643,"lon":87.53836,"geocoding":{},"distantMaxMiles":5},"Katihar":{"countryName":"India","stateName":"Bihar","name":"Katihar","lat":25.5,"lon":87.6,"geocoding":{},"distantMaxMiles":5},"Khagaria":{"countryName":"India","stateName":"Bihar","name":"Khagaria","lat":25.5022,"lon":86.46708,"geocoding":{},"distantMaxMiles":5},"Khagaul":{"countryName":"India","stateName":"Bihar","name":"Khagaul","lat":25.57898,"lon":85.04564,"geocoding":{},"distantMaxMiles":5},"Kharagpur":{"countryName":"India","stateName":"Bihar","name":"Kharagpur","lat":25.12446,"lon":86.55578,"geocoding":{},"distantMaxMiles":5},"Khusropur":{"countryName":"India","stateName":"Bihar","name":"Khusropur","lat":25.48174,"lon":85.38492,"geocoding":{},"distantMaxMiles":5},"Kishanganj":{"countryName":"India","stateName":"Bihar","name":"Kishanganj","lat":26.3,"lon":88,"geocoding":{},"distantMaxMiles":5},"Koath":{"countryName":"India","stateName":"Bihar","name":"Koath","lat":25.32643,"lon":84.25983,"geocoding":{},"distantMaxMiles":5},"Koelwar":{"countryName":"India","stateName":"Bihar","name":"Koelwar","lat":25.58055,"lon":84.79751,"geocoding":{},"distantMaxMiles":5},"Lakhisarai":{"countryName":"India","stateName":"Bihar","name":"Lakhisarai","lat":25.2,"lon":86.2,"geocoding":{},"distantMaxMiles":5},"Lalganj":{"countryName":"India","stateName":"Bihar","name":"Lalganj","lat":25.86894,"lon":85.17394,"geocoding":{},"distantMaxMiles":5},"Luckeesarai":{"countryName":"India","stateName":"Bihar","name":"Luckeesarai","lat":25.1765,"lon":86.0947,"geocoding":{},"distantMaxMiles":5},"Madhepura":{"countryName":"India","stateName":"Bihar","name":"Madhepura","lat":25.8,"lon":87,"geocoding":{},"distantMaxMiles":5},"Madhipura":{"countryName":"India","stateName":"Bihar","name":"Madhipura","lat":25.92127,"lon":86.79271,"geocoding":{},"distantMaxMiles":5},"Madhubani":{"countryName":"India","stateName":"Bihar","name":"Madhubani","lat":26.35367,"lon":86.07169,"geocoding":{},"distantMaxMiles":5},"Maharajgani":{"countryName":"India","stateName":"Bihar","name":"Maharajgani","lat":26.11017,"lon":84.50365,"geocoding":{},"distantMaxMiles":5},"Mairwa":{"countryName":"India","stateName":"Bihar","name":"Mairwa","lat":26.23218,"lon":84.16349,"geocoding":{},"distantMaxMiles":5},"Maner":{"countryName":"India","stateName":"Bihar","name":"Maner","lat":25.64602,"lon":84.87291,"geocoding":{},"distantMaxMiles":5},"Manihari":{"countryName":"India","stateName":"Bihar","name":"Manihari","lat":25.33891,"lon":87.61998,"geocoding":{},"distantMaxMiles":5},"Marhaura":{"countryName":"India","stateName":"Bihar","name":"Marhaura","lat":25.97349,"lon":84.86796,"geocoding":{},"distantMaxMiles":5},"Masaurhi Buzurg":{"countryName":"India","stateName":"Bihar","name":"Masaurhi Buzurg","lat":25.35417,"lon":85.03195,"geocoding":{},"distantMaxMiles":5},"Mohiuddinnagar":{"countryName":"India","stateName":"Bihar","name":"Mohiuddinnagar","lat":25.57374,"lon":85.66944,"geocoding":{},"distantMaxMiles":5},"Mokameh":{"countryName":"India","stateName":"Bihar","name":"Mokameh","lat":25.39662,"lon":85.9219,"geocoding":{},"distantMaxMiles":5},"Monghyr":{"countryName":"India","stateName":"Bihar","name":"Monghyr","lat":25.37459,"lon":86.47455,"geocoding":{},"distantMaxMiles":5},"Mothihari":{"countryName":"India","stateName":"Bihar","name":"Mothihari","lat":26.64862,"lon":84.91656,"geocoding":{},"distantMaxMiles":5},"Munger":{"countryName":"India","stateName":"Bihar","name":"Munger","lat":25.36099,"lon":86.46515,"geocoding":{},"distantMaxMiles":5},"Murliganj":{"countryName":"India","stateName":"Bihar","name":"Murliganj","lat":25.8969,"lon":86.99577,"geocoding":{},"distantMaxMiles":5},"Muzaffarpur":{"countryName":"India","stateName":"Bihar","name":"Muzaffarpur","lat":26.16667,"lon":85.41667,"geocoding":{},"distantMaxMiles":5},"Nabinagar":{"countryName":"India","stateName":"Bihar","name":"Nabinagar","lat":24.60681,"lon":84.12624,"geocoding":{},"distantMaxMiles":5},"Nalanda":{"countryName":"India","stateName":"Bihar","name":"Nalanda","lat":25.25,"lon":85.58333,"geocoding":{},"distantMaxMiles":5},"Nasriganj":{"countryName":"India","stateName":"Bihar","name":"Nasriganj","lat":25.0514,"lon":84.32839,"geocoding":{},"distantMaxMiles":5},"Naugachhia":{"countryName":"India","stateName":"Bihar","name":"Naugachhia","lat":25.38807,"lon":87.09906,"geocoding":{},"distantMaxMiles":5},"Nawada":{"countryName":"India","stateName":"Bihar","name":"Nawada","lat":24.75,"lon":85.5,"geocoding":{},"distantMaxMiles":5},"Nirmali":{"countryName":"India","stateName":"Bihar","name":"Nirmali","lat":26.31397,"lon":86.58537,"geocoding":{},"distantMaxMiles":5},"Pashchim Champaran":{"countryName":"India","stateName":"Bihar","name":"Pashchim Champaran","lat":27,"lon":84.5,"geocoding":{},"distantMaxMiles":5},"Patna":{"countryName":"India","stateName":"Bihar","name":"Patna","lat":25.41667,"lon":85.16667,"geocoding":{},"distantMaxMiles":5},"Piro":{"countryName":"India","stateName":"Bihar","name":"Piro","lat":25.33218,"lon":84.40454,"geocoding":{},"distantMaxMiles":5},"Pupri":{"countryName":"India","stateName":"Bihar","name":"Pupri","lat":26.47079,"lon":85.70311,"geocoding":{},"distantMaxMiles":5},"Purba Champaran":{"countryName":"India","stateName":"Bihar","name":"Purba Champaran","lat":26.58333,"lon":84.83333,"geocoding":{},"distantMaxMiles":5},"Purnia":{"countryName":"India","stateName":"Bihar","name":"Purnia","lat":25.81614,"lon":87.40708,"geocoding":{},"distantMaxMiles":5},"Rafiganj":{"countryName":"India","stateName":"Bihar","name":"Rafiganj","lat":24.81757,"lon":84.63445,"geocoding":{},"distantMaxMiles":5},"Raghunathpur":{"countryName":"India","stateName":"Bihar","name":"Raghunathpur","lat":25.64492,"lon":87.91762,"geocoding":{},"distantMaxMiles":5},"Rajgir":{"countryName":"India","stateName":"Bihar","name":"Rajgir","lat":25.02828,"lon":85.42079,"geocoding":{},"distantMaxMiles":5},"Ramnagar":{"countryName":"India","stateName":"Bihar","name":"Ramnagar","lat":27.16371,"lon":84.32342,"geocoding":{},"distantMaxMiles":5},"Raxaul":{"countryName":"India","stateName":"Bihar","name":"Raxaul","lat":26.97982,"lon":84.85065,"geocoding":{},"distantMaxMiles":5},"Revelganj":{"countryName":"India","stateName":"Bihar","name":"Revelganj","lat":25.78976,"lon":84.63596,"geocoding":{},"distantMaxMiles":5},"Rohtas":{"countryName":"India","stateName":"Bihar","name":"Rohtas","lat":24.97941,"lon":84.02774,"geocoding":{},"distantMaxMiles":5},"Rusera":{"countryName":"India","stateName":"Bihar","name":"Rusera","lat":25.75355,"lon":86.02597,"geocoding":{},"distantMaxMiles":5},"Sagauli":{"countryName":"India","stateName":"Bihar","name":"Sagauli","lat":26.7639,"lon":84.74341,"geocoding":{},"distantMaxMiles":5},"Saharsa":{"countryName":"India","stateName":"Bihar","name":"Saharsa","lat":25.87498,"lon":86.59611,"geocoding":{},"distantMaxMiles":5},"Samastipur":{"countryName":"India","stateName":"Bihar","name":"Samastipur","lat":25.75,"lon":85.91667,"geocoding":{},"distantMaxMiles":5},"Saran":{"countryName":"India","stateName":"Bihar","name":"Saran","lat":25.91667,"lon":84.75,"geocoding":{},"distantMaxMiles":5},"Shahbazpur":{"countryName":"India","stateName":"Bihar","name":"Shahbazpur","lat":26.30511,"lon":87.28865,"geocoding":{},"distantMaxMiles":5},"Shahpur":{"countryName":"India","stateName":"Bihar","name":"Shahpur","lat":25.60293,"lon":84.40412,"geocoding":{},"distantMaxMiles":5},"Sheikhpura":{"countryName":"India","stateName":"Bihar","name":"Sheikhpura","lat":25.13073,"lon":85.78176,"geocoding":{},"distantMaxMiles":5},"Sheohar":{"countryName":"India","stateName":"Bihar","name":"Sheohar","lat":26.5,"lon":85.3,"geocoding":{},"distantMaxMiles":5},"Sherghati":{"countryName":"India","stateName":"Bihar","name":"Sherghati","lat":24.5595,"lon":84.79162,"geocoding":{},"distantMaxMiles":5},"Silao":{"countryName":"India","stateName":"Bihar","name":"Silao","lat":25.08358,"lon":85.42804,"geocoding":{},"distantMaxMiles":5},"Sitamarhi":{"countryName":"India","stateName":"Bihar","name":"Sitamarhi","lat":26.66667,"lon":85.5,"geocoding":{},"distantMaxMiles":5},"Siwan":{"countryName":"India","stateName":"Bihar","name":"Siwan","lat":26.22096,"lon":84.35609,"geocoding":{},"distantMaxMiles":5},"Supaul":{"countryName":"India","stateName":"Bihar","name":"Supaul","lat":26.25,"lon":86.8,"geocoding":{},"distantMaxMiles":5},"Teghra":{"countryName":"India","stateName":"Bihar","name":"Teghra","lat":25.49043,"lon":85.94001,"geocoding":{},"distantMaxMiles":5},"Tekari":{"countryName":"India","stateName":"Bihar","name":"Tekari","lat":24.94253,"lon":84.84265,"geocoding":{},"distantMaxMiles":5},"Thakurganj":{"countryName":"India","stateName":"Bihar","name":"Thakurganj","lat":26.42742,"lon":88.13112,"geocoding":{},"distantMaxMiles":5},"Vaishali":{"countryName":"India","stateName":"Bihar","name":"Vaishali","lat":25.75,"lon":85.41667,"geocoding":{},"distantMaxMiles":5},"Waris Aliganj":{"countryName":"India","stateName":"Bihar","name":"Waris Aliganj","lat":25.0172,"lon":85.64047,"geocoding":{},"distantMaxMiles":5}}},"Chandigarh":{"countryName":"India","name":"Chandigarh","isoCode":"CH","lat":30.7333148,"lon":76.7794179,"geocoding":{},"distantMaxMiles":5,"cities":{"Chandigarh":{"countryName":"India","stateName":"Chandigarh","name":"Chandigarh","lat":30.73629,"lon":76.7884,"geocoding":{},"distantMaxMiles":5}}},"Chhattisgarh":{"countryName":"India","name":"Chhattisgarh","isoCode":"CT","lat":21.2786567,"lon":81.8661442,"geocoding":{},"distantMaxMiles":5,"cities":{"Akaltara":{"countryName":"India","stateName":"Chhattisgarh","name":"Akaltara","lat":22.02463,"lon":82.42641,"geocoding":{},"distantMaxMiles":5},"Ambagarh Chauki":{"countryName":"India","stateName":"Chhattisgarh","name":"Ambagarh Chauki","lat":20.77644,"lon":80.74608,"geocoding":{},"distantMaxMiles":5},"Ambikapur":{"countryName":"India","stateName":"Chhattisgarh","name":"Ambikapur","lat":23.11892,"lon":83.19537,"geocoding":{},"distantMaxMiles":5},"Arang":{"countryName":"India","stateName":"Chhattisgarh","name":"Arang","lat":21.19639,"lon":81.96912,"geocoding":{},"distantMaxMiles":5},"Baikunthpur":{"countryName":"India","stateName":"Chhattisgarh","name":"Baikunthpur","lat":23.26206,"lon":82.56051,"geocoding":{},"distantMaxMiles":5},"Balod":{"countryName":"India","stateName":"Chhattisgarh","name":"Balod","lat":20.73081,"lon":81.20578,"geocoding":{},"distantMaxMiles":5},"Baloda":{"countryName":"India","stateName":"Chhattisgarh","name":"Baloda","lat":22.1389,"lon":82.48171,"geocoding":{},"distantMaxMiles":5},"Baloda Bazar":{"countryName":"India","stateName":"Chhattisgarh","name":"Baloda Bazar","lat":21.65678,"lon":82.16062,"geocoding":{},"distantMaxMiles":5},"Basna":{"countryName":"India","stateName":"Chhattisgarh","name":"Basna","lat":21.27885,"lon":82.8267,"geocoding":{},"distantMaxMiles":5},"Bastar":{"countryName":"India","stateName":"Chhattisgarh","name":"Bastar","lat":19.26794,"lon":81.73828,"geocoding":{},"distantMaxMiles":5},"Bemetara":{"countryName":"India","stateName":"Chhattisgarh","name":"Bemetara","lat":21.71556,"lon":81.53423,"geocoding":{},"distantMaxMiles":5},"Bhanpuri":{"countryName":"India","stateName":"Chhattisgarh","name":"Bhanpuri","lat":21.0919,"lon":80.93218,"geocoding":{},"distantMaxMiles":5},"Bhatapara":{"countryName":"India","stateName":"Chhattisgarh","name":"Bhatapara","lat":21.735,"lon":81.94711,"geocoding":{},"distantMaxMiles":5},"Bhatgaon":{"countryName":"India","stateName":"Chhattisgarh","name":"Bhatgaon","lat":21.15,"lon":81.7,"geocoding":{},"distantMaxMiles":5},"Bhilai":{"countryName":"India","stateName":"Chhattisgarh","name":"Bhilai","lat":21.20919,"lon":81.4285,"geocoding":{},"distantMaxMiles":5},"Bijapur":{"countryName":"India","stateName":"Chhattisgarh","name":"Bijapur","lat":18.84322,"lon":80.7761,"geocoding":{},"distantMaxMiles":5},"Bilaspur":{"countryName":"India","stateName":"Chhattisgarh","name":"Bilaspur","lat":22.38333,"lon":82.13333,"geocoding":{},"distantMaxMiles":5},"Champa":{"countryName":"India","stateName":"Chhattisgarh","name":"Champa","lat":22.03532,"lon":82.64234,"geocoding":{},"distantMaxMiles":5},"Chhuikhadan":{"countryName":"India","stateName":"Chhattisgarh","name":"Chhuikhadan","lat":21.52316,"lon":80.99788,"geocoding":{},"distantMaxMiles":5},"Deori":{"countryName":"India","stateName":"Chhattisgarh","name":"Deori","lat":21.45,"lon":82.61667,"geocoding":{},"distantMaxMiles":5},"Dhamtari":{"countryName":"India","stateName":"Chhattisgarh","name":"Dhamtari","lat":20.70718,"lon":81.54874,"geocoding":{},"distantMaxMiles":5},"Dongargaon":{"countryName":"India","stateName":"Chhattisgarh","name":"Dongargaon","lat":20.97172,"lon":80.85077,"geocoding":{},"distantMaxMiles":5},"Dongargarh":{"countryName":"India","stateName":"Chhattisgarh","name":"Dongargarh","lat":21.18893,"lon":80.75459,"geocoding":{},"distantMaxMiles":5},"Durg":{"countryName":"India","stateName":"Chhattisgarh","name":"Durg","lat":21.15,"lon":81.4,"geocoding":{},"distantMaxMiles":5},"Gandai":{"countryName":"India","stateName":"Chhattisgarh","name":"Gandai","lat":21.66667,"lon":81.10013,"geocoding":{},"distantMaxMiles":5},"Gariaband":{"countryName":"India","stateName":"Chhattisgarh","name":"Gariaband","lat":20.63323,"lon":82.06221,"geocoding":{},"distantMaxMiles":5},"Gaurela":{"countryName":"India","stateName":"Chhattisgarh","name":"Gaurela","lat":22.75449,"lon":81.90107,"geocoding":{},"distantMaxMiles":5},"Gharghoda":{"countryName":"India","stateName":"Chhattisgarh","name":"Gharghoda","lat":22.17427,"lon":83.3517,"geocoding":{},"distantMaxMiles":5},"Gidam":{"countryName":"India","stateName":"Chhattisgarh","name":"Gidam","lat":18.97431,"lon":81.39894,"geocoding":{},"distantMaxMiles":5},"Jagdalpur":{"countryName":"India","stateName":"Chhattisgarh","name":"Jagdalpur","lat":19.08136,"lon":82.02131,"geocoding":{},"distantMaxMiles":5},"Janjgir":{"countryName":"India","stateName":"Chhattisgarh","name":"Janjgir","lat":22.00922,"lon":82.5778,"geocoding":{},"distantMaxMiles":5},"Janjgir-Champa":{"countryName":"India","stateName":"Chhattisgarh","name":"Janjgir-Champa","lat":21.9,"lon":82.7,"geocoding":{},"distantMaxMiles":5},"Jashpur":{"countryName":"India","stateName":"Chhattisgarh","name":"Jashpur","lat":22.78495,"lon":83.84573,"geocoding":{},"distantMaxMiles":5},"Jashpurnagar":{"countryName":"India","stateName":"Chhattisgarh","name":"Jashpurnagar","lat":22.88783,"lon":84.13864,"geocoding":{},"distantMaxMiles":5},"Junagarh":{"countryName":"India","stateName":"Chhattisgarh","name":"Junagarh","lat":19.85993,"lon":82.93385,"geocoding":{},"distantMaxMiles":5},"Kabeerdham":{"countryName":"India","stateName":"Chhattisgarh","name":"Kabeerdham","lat":22.1,"lon":81.2,"geocoding":{},"distantMaxMiles":5},"Kanker":{"countryName":"India","stateName":"Chhattisgarh","name":"Kanker","lat":20.27193,"lon":81.49177,"geocoding":{},"distantMaxMiles":5},"Katghora":{"countryName":"India","stateName":"Chhattisgarh","name":"Katghora","lat":22.50247,"lon":82.54279,"geocoding":{},"distantMaxMiles":5},"Kawardha":{"countryName":"India","stateName":"Chhattisgarh","name":"Kawardha","lat":22.00853,"lon":81.23148,"geocoding":{},"distantMaxMiles":5},"Khairagarh":{"countryName":"India","stateName":"Chhattisgarh","name":"Khairagarh","lat":21.41859,"lon":80.97942,"geocoding":{},"distantMaxMiles":5},"Khamharia":{"countryName":"India","stateName":"Chhattisgarh","name":"Khamharia","lat":20.976,"lon":82.25116,"geocoding":{},"distantMaxMiles":5},"Kharod":{"countryName":"India","stateName":"Chhattisgarh","name":"Kharod","lat":21.7442,"lon":82.5788,"geocoding":{},"distantMaxMiles":5},"Kharsia":{"countryName":"India","stateName":"Chhattisgarh","name":"Kharsia","lat":21.98953,"lon":83.10476,"geocoding":{},"distantMaxMiles":5},"Kirandul":{"countryName":"India","stateName":"Chhattisgarh","name":"Kirandul","lat":18.63649,"lon":81.25827,"geocoding":{},"distantMaxMiles":5},"Kondagaon":{"countryName":"India","stateName":"Chhattisgarh","name":"Kondagaon","lat":19.59083,"lon":81.664,"geocoding":{},"distantMaxMiles":5},"Korba":{"countryName":"India","stateName":"Chhattisgarh","name":"Korba","lat":22.5,"lon":82.6,"geocoding":{},"distantMaxMiles":5},"Koriya":{"countryName":"India","stateName":"Chhattisgarh","name":"Koriya","lat":23.48326,"lon":82.15037,"geocoding":{},"distantMaxMiles":5},"Kota":{"countryName":"India","stateName":"Chhattisgarh","name":"Kota","lat":22.29507,"lon":82.02366,"geocoding":{},"distantMaxMiles":5},"Kotaparh":{"countryName":"India","stateName":"Chhattisgarh","name":"Kotaparh","lat":19.14256,"lon":82.32536,"geocoding":{},"distantMaxMiles":5},"Kumhari":{"countryName":"India","stateName":"Chhattisgarh","name":"Kumhari","lat":21.26667,"lon":81.51667,"geocoding":{},"distantMaxMiles":5},"Kurud":{"countryName":"India","stateName":"Chhattisgarh","name":"Kurud","lat":20.83073,"lon":81.72212,"geocoding":{},"distantMaxMiles":5},"Lormi":{"countryName":"India","stateName":"Chhattisgarh","name":"Lormi","lat":22.27434,"lon":81.70181,"geocoding":{},"distantMaxMiles":5},"Mahasamund":{"countryName":"India","stateName":"Chhattisgarh","name":"Mahasamund","lat":21.2,"lon":82.5,"geocoding":{},"distantMaxMiles":5},"Mungeli":{"countryName":"India","stateName":"Chhattisgarh","name":"Mungeli","lat":22.06566,"lon":81.68543,"geocoding":{},"distantMaxMiles":5},"Narayanpur":{"countryName":"India","stateName":"Chhattisgarh","name":"Narayanpur","lat":19.60426,"lon":81.08119,"geocoding":{},"distantMaxMiles":5},"Narharpur":{"countryName":"India","stateName":"Chhattisgarh","name":"Narharpur","lat":20.44892,"lon":81.62004,"geocoding":{},"distantMaxMiles":5},"Pandaria":{"countryName":"India","stateName":"Chhattisgarh","name":"Pandaria","lat":22.22495,"lon":81.40994,"geocoding":{},"distantMaxMiles":5},"Pandatarai":{"countryName":"India","stateName":"Chhattisgarh","name":"Pandatarai","lat":22.18714,"lon":81.32815,"geocoding":{},"distantMaxMiles":5},"Pasan":{"countryName":"India","stateName":"Chhattisgarh","name":"Pasan","lat":22.84412,"lon":82.19823,"geocoding":{},"distantMaxMiles":5},"Patan":{"countryName":"India","stateName":"Chhattisgarh","name":"Patan","lat":21.03333,"lon":81.53333,"geocoding":{},"distantMaxMiles":5},"Pathalgaon":{"countryName":"India","stateName":"Chhattisgarh","name":"Pathalgaon","lat":22.55656,"lon":83.46355,"geocoding":{},"distantMaxMiles":5},"Pendra":{"countryName":"India","stateName":"Chhattisgarh","name":"Pendra","lat":22.77548,"lon":81.95968,"geocoding":{},"distantMaxMiles":5},"Pithora":{"countryName":"India","stateName":"Chhattisgarh","name":"Pithora","lat":21.25021,"lon":82.51707,"geocoding":{},"distantMaxMiles":5},"Raigarh":{"countryName":"India","stateName":"Chhattisgarh","name":"Raigarh","lat":22.08582,"lon":83.30603,"geocoding":{},"distantMaxMiles":5},"Raipur":{"countryName":"India","stateName":"Chhattisgarh","name":"Raipur","lat":21.25621,"lon":81.69022,"geocoding":{},"distantMaxMiles":5},"Raj Nandgaon":{"countryName":"India","stateName":"Chhattisgarh","name":"Raj Nandgaon","lat":21.16667,"lon":81,"geocoding":{},"distantMaxMiles":5},"Raj-Nandgaon":{"countryName":"India","stateName":"Chhattisgarh","name":"Raj-Nandgaon","lat":21.09687,"lon":81.0289,"geocoding":{},"distantMaxMiles":5},"Ramanuj Ganj":{"countryName":"India","stateName":"Chhattisgarh","name":"Ramanuj Ganj","lat":23.80637,"lon":83.69981,"geocoding":{},"distantMaxMiles":5},"Ratanpur":{"countryName":"India","stateName":"Chhattisgarh","name":"Ratanpur","lat":22.2866,"lon":82.16823,"geocoding":{},"distantMaxMiles":5},"Sakti":{"countryName":"India","stateName":"Chhattisgarh","name":"Sakti","lat":22.02662,"lon":82.96091,"geocoding":{},"distantMaxMiles":5},"Saraipali":{"countryName":"India","stateName":"Chhattisgarh","name":"Saraipali","lat":21.3153,"lon":83.00629,"geocoding":{},"distantMaxMiles":5},"Sarangarh":{"countryName":"India","stateName":"Chhattisgarh","name":"Sarangarh","lat":21.58614,"lon":83.0785,"geocoding":{},"distantMaxMiles":5},"Seorinarayan":{"countryName":"India","stateName":"Chhattisgarh","name":"Seorinarayan","lat":21.72055,"lon":82.59344,"geocoding":{},"distantMaxMiles":5},"Simga":{"countryName":"India","stateName":"Chhattisgarh","name":"Simga","lat":21.6281,"lon":81.70376,"geocoding":{},"distantMaxMiles":5},"Surguja":{"countryName":"India","stateName":"Chhattisgarh","name":"Surguja","lat":22.89624,"lon":83.09631,"geocoding":{},"distantMaxMiles":5},"Takhatpur":{"countryName":"India","stateName":"Chhattisgarh","name":"Takhatpur","lat":22.12915,"lon":81.86959,"geocoding":{},"distantMaxMiles":5},"Umarkot":{"countryName":"India","stateName":"Chhattisgarh","name":"Umarkot","lat":19.66529,"lon":82.20629,"geocoding":{},"distantMaxMiles":5},"Uttar Bastar Kanker":{"countryName":"India","stateName":"Chhattisgarh","name":"Uttar Bastar Kanker","lat":20.2,"lon":81.1,"geocoding":{},"distantMaxMiles":5}}},"Dadra and Nagar Haveli and Daman and Diu":{"countryName":"India","name":"Dadra and Nagar Haveli and Daman and Diu","isoCode":"DH","lat":20.3973736,"lon":72.8327991,"geocoding":{},"distantMaxMiles":5,"cities":{"Amli":{"countryName":"India","stateName":"Dadra and Nagar Haveli and Daman and Diu","name":"Amli","lat":20.28333,"lon":73.01667,"geocoding":{},"distantMaxMiles":5},"Dadra":{"countryName":"India","stateName":"Dadra and Nagar Haveli and Daman and Diu","name":"Dadra","lat":20.32504,"lon":72.96618,"geocoding":{},"distantMaxMiles":5},"Dadra & Nagar Haveli":{"countryName":"India","stateName":"Dadra and Nagar Haveli and Daman and Diu","name":"Dadra & Nagar Haveli","lat":20.20651,"lon":73.00811,"geocoding":{},"distantMaxMiles":5},"Daman":{"countryName":"India","stateName":"Dadra and Nagar Haveli and Daman and Diu","name":"Daman","lat":20.41431,"lon":72.83236,"geocoding":{},"distantMaxMiles":5},"Daman District":{"countryName":"India","stateName":"Dadra and Nagar Haveli and Daman and Diu","name":"Daman District","lat":20.41667,"lon":72.88333,"geocoding":{},"distantMaxMiles":5},"Diu":{"countryName":"India","stateName":"Dadra and Nagar Haveli and Daman and Diu","name":"Diu","lat":20.72081,"lon":70.93989,"geocoding":{},"distantMaxMiles":5},"Silvassa":{"countryName":"India","stateName":"Dadra and Nagar Haveli and Daman and Diu","name":"Silvassa","lat":20.27386,"lon":72.99673,"geocoding":{},"distantMaxMiles":5}}},"Delhi":{"countryName":"India","name":"Delhi","isoCode":"DL","lat":28.7040592,"lon":77.1024902,"geocoding":{},"distantMaxMiles":5,"cities":{"Alipur":{"countryName":"India","stateName":"Delhi","name":"Alipur","lat":28.79862,"lon":77.13314,"geocoding":{},"distantMaxMiles":5},"Bawana":{"countryName":"India","stateName":"Delhi","name":"Bawana","lat":28.7982,"lon":77.03431,"geocoding":{},"distantMaxMiles":5},"Central Delhi":{"countryName":"India","stateName":"Delhi","name":"Central Delhi","lat":28.64857,"lon":77.21895,"geocoding":{},"distantMaxMiles":5},"Delhi":{"countryName":"India","stateName":"Delhi","name":"Delhi","lat":28.65195,"lon":77.23149,"geocoding":{},"distantMaxMiles":5},"Deoli":{"countryName":"India","stateName":"Delhi","name":"Deoli","lat":28.50254,"lon":77.23117,"geocoding":{},"distantMaxMiles":5},"East Delhi":{"countryName":"India","stateName":"Delhi","name":"East Delhi","lat":28.66242,"lon":77.29122,"geocoding":{},"distantMaxMiles":5},"Karol Bagh":{"countryName":"India","stateName":"Delhi","name":"Karol Bagh","lat":28.65136,"lon":77.19072,"geocoding":{},"distantMaxMiles":5},"Najafgarh":{"countryName":"India","stateName":"Delhi","name":"Najafgarh","lat":28.60922,"lon":76.97982,"geocoding":{},"distantMaxMiles":5},"Nangloi Jat":{"countryName":"India","stateName":"Delhi","name":"Nangloi Jat","lat":28.67957,"lon":77.06799,"geocoding":{},"distantMaxMiles":5},"Narela":{"countryName":"India","stateName":"Delhi","name":"Narela","lat":28.85267,"lon":77.09288,"geocoding":{},"distantMaxMiles":5},"New Delhi":{"countryName":"India","stateName":"Delhi","name":"New Delhi","lat":28.63576,"lon":77.22445,"geocoding":{},"distantMaxMiles":5},"North Delhi":{"countryName":"India","stateName":"Delhi","name":"North Delhi","lat":28.6692,"lon":77.22273,"geocoding":{},"distantMaxMiles":5},"North East Delhi":{"countryName":"India","stateName":"Delhi","name":"North East Delhi","lat":28.6869,"lon":77.30195,"geocoding":{},"distantMaxMiles":5},"North West Delhi":{"countryName":"India","stateName":"Delhi","name":"North West Delhi","lat":28.70113,"lon":77.10154,"geocoding":{},"distantMaxMiles":5},"Pitampura":{"countryName":"India","stateName":"Delhi","name":"Pitampura","lat":28.68964,"lon":77.13126,"geocoding":{},"distantMaxMiles":5},"Rohini":{"countryName":"India","stateName":"Delhi","name":"Rohini","lat":28.74322,"lon":77.06778,"geocoding":{},"distantMaxMiles":5},"South Delhi":{"countryName":"India","stateName":"Delhi","name":"South Delhi","lat":28.53009,"lon":77.25174,"geocoding":{},"distantMaxMiles":5},"South West Delhi":{"countryName":"India","stateName":"Delhi","name":"South West Delhi","lat":28.5806,"lon":77.0672,"geocoding":{},"distantMaxMiles":5},"West Delhi":{"countryName":"India","stateName":"Delhi","name":"West Delhi","lat":28.65655,"lon":77.10068,"geocoding":{},"distantMaxMiles":5}}},"Goa":{"countryName":"India","name":"Goa","isoCode":"GA","lat":15.2993265,"lon":74.123996,"geocoding":{},"distantMaxMiles":5,"cities":{"Aldona":{"countryName":"India","stateName":"Goa","name":"Aldona","lat":15.59337,"lon":73.87482,"geocoding":{},"distantMaxMiles":5},"Arambol":{"countryName":"India","stateName":"Goa","name":"Arambol","lat":15.68681,"lon":73.70449,"geocoding":{},"distantMaxMiles":5},"Baga":{"countryName":"India","stateName":"Goa","name":"Baga","lat":15.56517,"lon":73.75517,"geocoding":{},"distantMaxMiles":5},"Bambolim":{"countryName":"India","stateName":"Goa","name":"Bambolim","lat":15.46361,"lon":73.8531,"geocoding":{},"distantMaxMiles":5},"Bandora":{"countryName":"India","stateName":"Goa","name":"Bandora","lat":15.40823,"lon":73.98129,"geocoding":{},"distantMaxMiles":5},"Benaulim":{"countryName":"India","stateName":"Goa","name":"Benaulim","lat":15.26435,"lon":73.92812,"geocoding":{},"distantMaxMiles":5},"Calangute":{"countryName":"India","stateName":"Goa","name":"Calangute","lat":15.5439,"lon":73.7553,"geocoding":{},"distantMaxMiles":5},"Candolim":{"countryName":"India","stateName":"Goa","name":"Candolim","lat":15.51807,"lon":73.76259,"geocoding":{},"distantMaxMiles":5},"Carapur":{"countryName":"India","stateName":"Goa","name":"Carapur","lat":15.56588,"lon":73.98713,"geocoding":{},"distantMaxMiles":5},"Cavelossim":{"countryName":"India","stateName":"Goa","name":"Cavelossim","lat":15.17255,"lon":73.94194,"geocoding":{},"distantMaxMiles":5},"Chicalim":{"countryName":"India","stateName":"Goa","name":"Chicalim","lat":15.39835,"lon":73.84216,"geocoding":{},"distantMaxMiles":5},"Chinchinim":{"countryName":"India","stateName":"Goa","name":"Chinchinim","lat":15.21447,"lon":73.97555,"geocoding":{},"distantMaxMiles":5},"Colovale":{"countryName":"India","stateName":"Goa","name":"Colovale","lat":15.63522,"lon":73.82426,"geocoding":{},"distantMaxMiles":5},"Colva":{"countryName":"India","stateName":"Goa","name":"Colva","lat":15.27976,"lon":73.92285,"geocoding":{},"distantMaxMiles":5},"Cortalim":{"countryName":"India","stateName":"Goa","name":"Cortalim","lat":15.40247,"lon":73.90881,"geocoding":{},"distantMaxMiles":5},"Cuncolim":{"countryName":"India","stateName":"Goa","name":"Cuncolim","lat":15.1773,"lon":73.99392,"geocoding":{},"distantMaxMiles":5},"Curchorem":{"countryName":"India","stateName":"Goa","name":"Curchorem","lat":15.26349,"lon":74.10875,"geocoding":{},"distantMaxMiles":5},"Curti":{"countryName":"India","stateName":"Goa","name":"Curti","lat":15.41667,"lon":74.01667,"geocoding":{},"distantMaxMiles":5},"Davorlim":{"countryName":"India","stateName":"Goa","name":"Davorlim","lat":15.27221,"lon":73.99242,"geocoding":{},"distantMaxMiles":5},"Dicholi":{"countryName":"India","stateName":"Goa","name":"Dicholi","lat":15.59319,"lon":73.94571,"geocoding":{},"distantMaxMiles":5},"Goa Velha":{"countryName":"India","stateName":"Goa","name":"Goa Velha","lat":15.44384,"lon":73.88572,"geocoding":{},"distantMaxMiles":5},"Guirim":{"countryName":"India","stateName":"Goa","name":"Guirim","lat":15.57552,"lon":73.80722,"geocoding":{},"distantMaxMiles":5},"Jua":{"countryName":"India","stateName":"Goa","name":"Jua","lat":15.5307,"lon":73.95047,"geocoding":{},"distantMaxMiles":5},"Kankon":{"countryName":"India","stateName":"Goa","name":"Kankon","lat":15.02698,"lon":74.04617,"geocoding":{},"distantMaxMiles":5},"Madgaon":{"countryName":"India","stateName":"Goa","name":"Madgaon","lat":15.27501,"lon":73.95786,"geocoding":{},"distantMaxMiles":5},"Mapuca":{"countryName":"India","stateName":"Goa","name":"Mapuca","lat":15.59154,"lon":73.80898,"geocoding":{},"distantMaxMiles":5},"Morjim":{"countryName":"India","stateName":"Goa","name":"Morjim","lat":15.63097,"lon":73.73903,"geocoding":{},"distantMaxMiles":5},"Mormugao":{"countryName":"India","stateName":"Goa","name":"Mormugao","lat":15.38914,"lon":73.81491,"geocoding":{},"distantMaxMiles":5},"Navelim":{"countryName":"India","stateName":"Goa","name":"Navelim","lat":15.53333,"lon":73.98333,"geocoding":{},"distantMaxMiles":5},"North Goa":{"countryName":"India","stateName":"Goa","name":"North Goa","lat":15.53397,"lon":73.96408,"geocoding":{},"distantMaxMiles":5},"Palle":{"countryName":"India","stateName":"Goa","name":"Palle","lat":15.46667,"lon":74.08333,"geocoding":{},"distantMaxMiles":5},"Panaji":{"countryName":"India","stateName":"Goa","name":"Panaji","lat":15.49574,"lon":73.82624,"geocoding":{},"distantMaxMiles":5},"Pernem":{"countryName":"India","stateName":"Goa","name":"Pernem","lat":15.723,"lon":73.79511,"geocoding":{},"distantMaxMiles":5},"Ponda":{"countryName":"India","stateName":"Goa","name":"Ponda","lat":15.40341,"lon":74.01519,"geocoding":{},"distantMaxMiles":5},"Quepem":{"countryName":"India","stateName":"Goa","name":"Quepem","lat":15.2128,"lon":74.0772,"geocoding":{},"distantMaxMiles":5},"Queula":{"countryName":"India","stateName":"Goa","name":"Queula","lat":15.39011,"lon":73.98557,"geocoding":{},"distantMaxMiles":5},"Raia":{"countryName":"India","stateName":"Goa","name":"Raia","lat":15.30499,"lon":73.97096,"geocoding":{},"distantMaxMiles":5},"Saligao":{"countryName":"India","stateName":"Goa","name":"Saligao","lat":15.55359,"lon":73.79036,"geocoding":{},"distantMaxMiles":5},"Sancoale":{"countryName":"India","stateName":"Goa","name":"Sancoale","lat":15.37794,"lon":73.90352,"geocoding":{},"distantMaxMiles":5},"Sanguem":{"countryName":"India","stateName":"Goa","name":"Sanguem","lat":15.22901,"lon":74.15149,"geocoding":{},"distantMaxMiles":5},"Sanquelim":{"countryName":"India","stateName":"Goa","name":"Sanquelim","lat":15.56422,"lon":74.00799,"geocoding":{},"distantMaxMiles":5},"Sanvordem":{"countryName":"India","stateName":"Goa","name":"Sanvordem","lat":15.26269,"lon":74.11965,"geocoding":{},"distantMaxMiles":5},"Serula":{"countryName":"India","stateName":"Goa","name":"Serula","lat":15.54774,"lon":73.84329,"geocoding":{},"distantMaxMiles":5},"Solim":{"countryName":"India","stateName":"Goa","name":"Solim","lat":15.61521,"lon":73.7674,"geocoding":{},"distantMaxMiles":5},"South Goa":{"countryName":"India","stateName":"Goa","name":"South Goa","lat":15.20425,"lon":74.16733,"geocoding":{},"distantMaxMiles":5},"Taleigao":{"countryName":"India","stateName":"Goa","name":"Taleigao","lat":15.46915,"lon":73.83285,"geocoding":{},"distantMaxMiles":5},"Vagator":{"countryName":"India","stateName":"Goa","name":"Vagator","lat":15.59766,"lon":73.74496,"geocoding":{},"distantMaxMiles":5},"Valpoy":{"countryName":"India","stateName":"Goa","name":"Valpoy","lat":15.53239,"lon":74.13671,"geocoding":{},"distantMaxMiles":5},"Varca":{"countryName":"India","stateName":"Goa","name":"Varca","lat":15.23237,"lon":73.94311,"geocoding":{},"distantMaxMiles":5},"Vasco da Gama":{"countryName":"India","stateName":"Goa","name":"Vasco da Gama","lat":15.39585,"lon":73.81568,"geocoding":{},"distantMaxMiles":5}}},"Gujarat":{"countryName":"India","name":"Gujarat","isoCode":"GJ","lat":22.258652,"lon":71.1923805,"geocoding":{},"distantMaxMiles":5,"cities":{"Abrama":{"countryName":"India","stateName":"Gujarat","name":"Abrama","lat":20.85865,"lon":72.90648,"geocoding":{},"distantMaxMiles":5},"Adalaj":{"countryName":"India","stateName":"Gujarat","name":"Adalaj","lat":23.16453,"lon":72.58107,"geocoding":{},"distantMaxMiles":5},"Agol":{"countryName":"India","stateName":"Gujarat","name":"Agol","lat":23.15,"lon":72.26666667,"geocoding":{},"distantMaxMiles":5},"Ahmedabad":{"countryName":"India","stateName":"Gujarat","name":"Ahmedabad","lat":23.02579,"lon":72.58727,"geocoding":{},"distantMaxMiles":5},"Ahwa":{"countryName":"India","stateName":"Gujarat","name":"Ahwa","lat":20.75718,"lon":73.68626,"geocoding":{},"distantMaxMiles":5},"Akrund":{"countryName":"India","stateName":"Gujarat","name":"Akrund","lat":23.28333333,"lon":73.11666667,"geocoding":{},"distantMaxMiles":5},"Amod":{"countryName":"India","stateName":"Gujarat","name":"Amod","lat":21.99317,"lon":72.87047,"geocoding":{},"distantMaxMiles":5},"Amod,":{"countryName":"India","stateName":"Gujarat","name":"Amod,","lat":21.991,"lon":72.871,"geocoding":{},"distantMaxMiles":5},"Amreli":{"countryName":"India","stateName":"Gujarat","name":"Amreli","lat":21.50789,"lon":71.18323,"geocoding":{},"distantMaxMiles":5},"Amroli":{"countryName":"India","stateName":"Gujarat","name":"Amroli","lat":21.25084,"lon":72.83878,"geocoding":{},"distantMaxMiles":5},"Anand":{"countryName":"India","stateName":"Gujarat","name":"Anand","lat":22.4,"lon":72.75,"geocoding":{},"distantMaxMiles":5},"Anjar":{"countryName":"India","stateName":"Gujarat","name":"Anjar","lat":23.11316,"lon":70.02671,"geocoding":{},"distantMaxMiles":5},"Ankleshwar":{"countryName":"India","stateName":"Gujarat","name":"Ankleshwar","lat":21.63236,"lon":72.99001,"geocoding":{},"distantMaxMiles":5},"Babra":{"countryName":"India","stateName":"Gujarat","name":"Babra","lat":21.84577,"lon":71.30544,"geocoding":{},"distantMaxMiles":5},"Bagasara":{"countryName":"India","stateName":"Gujarat","name":"Bagasara","lat":21.48333333,"lon":70.95,"geocoding":{},"distantMaxMiles":5},"Bagasra":{"countryName":"India","stateName":"Gujarat","name":"Bagasra","lat":21.48719,"lon":70.95516,"geocoding":{},"distantMaxMiles":5},"Bakharla":{"countryName":"India","stateName":"Gujarat","name":"Bakharla","lat":21.731517,"lon":69.635296,"geocoding":{},"distantMaxMiles":5},"Balagam":{"countryName":"India","stateName":"Gujarat","name":"Balagam","lat":21.36666667,"lon":70.1,"geocoding":{},"distantMaxMiles":5},"Balasinor":{"countryName":"India","stateName":"Gujarat","name":"Balasinor","lat":22.955891,"lon":73.336499,"geocoding":{},"distantMaxMiles":5},"Balisana":{"countryName":"India","stateName":"Gujarat","name":"Balisana","lat":23.816436,"lon":72.257536,"geocoding":{},"distantMaxMiles":5},"Bamanbore":{"countryName":"India","stateName":"Gujarat","name":"Bamanbore","lat":22.41666667,"lon":71.01666667,"geocoding":{},"distantMaxMiles":5},"Banas Kantha":{"countryName":"India","stateName":"Gujarat","name":"Banas Kantha","lat":24.25,"lon":72.5,"geocoding":{},"distantMaxMiles":5},"Bandia":{"countryName":"India","stateName":"Gujarat","name":"Bandia","lat":23.39604,"lon":69.01155,"geocoding":{},"distantMaxMiles":5},"Bantva":{"countryName":"India","stateName":"Gujarat","name":"Bantva","lat":21.48815,"lon":70.07576,"geocoding":{},"distantMaxMiles":5},"Bardoli":{"countryName":"India","stateName":"Gujarat","name":"Bardoli","lat":21.12297,"lon":73.11151,"geocoding":{},"distantMaxMiles":5},"Bedi":{"countryName":"India","stateName":"Gujarat","name":"Bedi","lat":22.50143,"lon":70.04363,"geocoding":{},"distantMaxMiles":5},"Bhachau":{"countryName":"India","stateName":"Gujarat","name":"Bhachau","lat":23.29858,"lon":70.34279,"geocoding":{},"distantMaxMiles":5},"Bhadran":{"countryName":"India","stateName":"Gujarat","name":"Bhadran","lat":22.3593,"lon":72.9005,"geocoding":{},"distantMaxMiles":5},"Bhandu":{"countryName":"India","stateName":"Gujarat","name":"Bhandu","lat":23.7,"lon":72.36666667,"geocoding":{},"distantMaxMiles":5},"Bhanvad":{"countryName":"India","stateName":"Gujarat","name":"Bhanvad","lat":21.93053,"lon":69.78081,"geocoding":{},"distantMaxMiles":5},"Bharuch":{"countryName":"India","stateName":"Gujarat","name":"Bharuch","lat":21.69482,"lon":72.9805,"geocoding":{},"distantMaxMiles":5},"Bhatha":{"countryName":"India","stateName":"Gujarat","name":"Bhatha","lat":21.18333333,"lon":72.76666667,"geocoding":{},"distantMaxMiles":5},"Bhavnagar":{"countryName":"India","stateName":"Gujarat","name":"Bhavnagar","lat":21.76287,"lon":72.15331,"geocoding":{},"distantMaxMiles":5},"Bhayavadar":{"countryName":"India","stateName":"Gujarat","name":"Bhayavadar","lat":21.85523,"lon":70.24791,"geocoding":{},"distantMaxMiles":5},"Bhildi":{"countryName":"India","stateName":"Gujarat","name":"Bhildi","lat":24.18333333,"lon":72.03333333,"geocoding":{},"distantMaxMiles":5},"Bhojpur Dharampur":{"countryName":"India","stateName":"Gujarat","name":"Bhojpur Dharampur","lat":23.25,"lon":69.67,"geocoding":{},"distantMaxMiles":5},"Bhuj":{"countryName":"India","stateName":"Gujarat","name":"Bhuj","lat":23.25397,"lon":69.66928,"geocoding":{},"distantMaxMiles":5},"Bilimora":{"countryName":"India","stateName":"Gujarat","name":"Bilimora","lat":20.76957,"lon":72.96134,"geocoding":{},"distantMaxMiles":5},"Bilkha":{"countryName":"India","stateName":"Gujarat","name":"Bilkha","lat":21.4415,"lon":70.60063,"geocoding":{},"distantMaxMiles":5},"Borsad":{"countryName":"India","stateName":"Gujarat","name":"Borsad","lat":22.40788,"lon":72.89817,"geocoding":{},"distantMaxMiles":5},"Botad":{"countryName":"India","stateName":"Gujarat","name":"Botad","lat":22.16917,"lon":71.66671,"geocoding":{},"distantMaxMiles":5},"Chaklasi":{"countryName":"India","stateName":"Gujarat","name":"Chaklasi","lat":22.6532,"lon":72.94497,"geocoding":{},"distantMaxMiles":5},"Chalala":{"countryName":"India","stateName":"Gujarat","name":"Chalala","lat":21.41073,"lon":71.16621,"geocoding":{},"distantMaxMiles":5},"Chaloda":{"countryName":"India","stateName":"Gujarat","name":"Chaloda","lat":22.8,"lon":72.45,"geocoding":{},"distantMaxMiles":5},"Champaner":{"countryName":"India","stateName":"Gujarat","name":"Champaner","lat":22.4859,"lon":73.5371,"geocoding":{},"distantMaxMiles":5},"Chanasma":{"countryName":"India","stateName":"Gujarat","name":"Chanasma","lat":23.71472,"lon":72.11279,"geocoding":{},"distantMaxMiles":5},"Chhala":{"countryName":"India","stateName":"Gujarat","name":"Chhala","lat":23.30779,"lon":72.77404,"geocoding":{},"distantMaxMiles":5},"Chhota Udepur":{"countryName":"India","stateName":"Gujarat","name":"Chhota Udepur","lat":22.30401,"lon":74.0158,"geocoding":{},"distantMaxMiles":5},"Chikhli":{"countryName":"India","stateName":"Gujarat","name":"Chikhli","lat":20.75751,"lon":73.06268,"geocoding":{},"distantMaxMiles":5},"Chotila":{"countryName":"India","stateName":"Gujarat","name":"Chotila","lat":22.42347,"lon":71.19641,"geocoding":{},"distantMaxMiles":5},"Chuda":{"countryName":"India","stateName":"Gujarat","name":"Chuda","lat":22.48333333,"lon":71.68333333,"geocoding":{},"distantMaxMiles":5},"Dabhoda":{"countryName":"India","stateName":"Gujarat","name":"Dabhoda","lat":23.16666667,"lon":72.73333333,"geocoding":{},"distantMaxMiles":5},"Dabhoi":{"countryName":"India","stateName":"Gujarat","name":"Dabhoi","lat":22.18333,"lon":73.43333,"geocoding":{},"distantMaxMiles":5},"Dahegam":{"countryName":"India","stateName":"Gujarat","name":"Dahegam","lat":23.16903,"lon":72.82161,"geocoding":{},"distantMaxMiles":5},"Dahod":{"countryName":"India","stateName":"Gujarat","name":"Dahod","lat":22.52,"lon":74.15,"geocoding":{},"distantMaxMiles":5},"Dakor":{"countryName":"India","stateName":"Gujarat","name":"Dakor","lat":22.75268,"lon":73.14967,"geocoding":{},"distantMaxMiles":5},"Damnagar":{"countryName":"India","stateName":"Gujarat","name":"Damnagar","lat":21.69232,"lon":71.51747,"geocoding":{},"distantMaxMiles":5},"Dandi":{"countryName":"India","stateName":"Gujarat","name":"Dandi","lat":21.32988,"lon":72.62484,"geocoding":{},"distantMaxMiles":5},"Dangs (India)":{"countryName":"India","stateName":"Gujarat","name":"Dangs (India)","lat":20.75,"lon":73.75,"geocoding":{},"distantMaxMiles":5},"Danta":{"countryName":"India","stateName":"Gujarat","name":"Danta","lat":24.18861111,"lon":72.76583333,"geocoding":{},"distantMaxMiles":5},"Dayapar":{"countryName":"India","stateName":"Gujarat","name":"Dayapar","lat":23.63371,"lon":68.90192,"geocoding":{},"distantMaxMiles":5},"Delvada":{"countryName":"India","stateName":"Gujarat","name":"Delvada","lat":20.77544,"lon":71.04646,"geocoding":{},"distantMaxMiles":5},"Delwada":{"countryName":"India","stateName":"Gujarat","name":"Delwada","lat":20.7833,"lon":71.05,"geocoding":{},"distantMaxMiles":5},"Detroj":{"countryName":"India","stateName":"Gujarat","name":"Detroj","lat":23.33333333,"lon":72.18333333,"geocoding":{},"distantMaxMiles":5},"Devbhumi Dwarka":{"countryName":"India","stateName":"Gujarat","name":"Devbhumi Dwarka","lat":22.20253,"lon":69.65498,"geocoding":{},"distantMaxMiles":5},"Devgadh Bariya":{"countryName":"India","stateName":"Gujarat","name":"Devgadh Bariya","lat":22.70517,"lon":73.90882,"geocoding":{},"distantMaxMiles":5},"Dhandhuka":{"countryName":"India","stateName":"Gujarat","name":"Dhandhuka","lat":22.38185,"lon":71.98664,"geocoding":{},"distantMaxMiles":5},"Dhanera":{"countryName":"India","stateName":"Gujarat","name":"Dhanera","lat":24.50967,"lon":72.02343,"geocoding":{},"distantMaxMiles":5},"Dhansura":{"countryName":"India","stateName":"Gujarat","name":"Dhansura","lat":23.35,"lon":73.2,"geocoding":{},"distantMaxMiles":5},"Dharampur":{"countryName":"India","stateName":"Gujarat","name":"Dharampur","lat":20.53693,"lon":73.17368,"geocoding":{},"distantMaxMiles":5},"Dharasana":{"countryName":"India","stateName":"Gujarat","name":"Dharasana","lat":20.68333333,"lon":72.91666667,"geocoding":{},"distantMaxMiles":5},"Dhari":{"countryName":"India","stateName":"Gujarat","name":"Dhari","lat":21.32855,"lon":71.02645,"geocoding":{},"distantMaxMiles":5},"Dhasa":{"countryName":"India","stateName":"Gujarat","name":"Dhasa","lat":21.8,"lon":71.51666667,"geocoding":{},"distantMaxMiles":5},"Dhola":{"countryName":"India","stateName":"Gujarat","name":"Dhola","lat":21.88129,"lon":71.77269,"geocoding":{},"distantMaxMiles":5},"Dholera":{"countryName":"India","stateName":"Gujarat","name":"Dholera","lat":22.248,"lon":72.195,"geocoding":{},"distantMaxMiles":5},"Dholka":{"countryName":"India","stateName":"Gujarat","name":"Dholka","lat":22.72732,"lon":72.44128,"geocoding":{},"distantMaxMiles":5},"Dhoraji":{"countryName":"India","stateName":"Gujarat","name":"Dhoraji","lat":21.73359,"lon":70.45004,"geocoding":{},"distantMaxMiles":5},"Dhrangadhra":{"countryName":"India","stateName":"Gujarat","name":"Dhrangadhra","lat":22.99167,"lon":71.46793,"geocoding":{},"distantMaxMiles":5},"Dhrol":{"countryName":"India","stateName":"Gujarat","name":"Dhrol","lat":22.567,"lon":70.41769,"geocoding":{},"distantMaxMiles":5},"Dhuwaran":{"countryName":"India","stateName":"Gujarat","name":"Dhuwaran","lat":22.23779,"lon":72.7591,"geocoding":{},"distantMaxMiles":5},"Disa":{"countryName":"India","stateName":"Gujarat","name":"Disa","lat":24.25612,"lon":72.17928,"geocoding":{},"distantMaxMiles":5},"Dohad":{"countryName":"India","stateName":"Gujarat","name":"Dohad","lat":22.9,"lon":74,"geocoding":{},"distantMaxMiles":5},"Dumkhal":{"countryName":"India","stateName":"Gujarat","name":"Dumkhal","lat":21.7396,"lon":73.8449,"geocoding":{},"distantMaxMiles":5},"Dungarpur":{"countryName":"India","stateName":"Gujarat","name":"Dungarpur","lat":21.28777,"lon":71.7556,"geocoding":{},"distantMaxMiles":5},"Dwarka":{"countryName":"India","stateName":"Gujarat","name":"Dwarka","lat":22.23944,"lon":68.96778,"geocoding":{},"distantMaxMiles":5},"Gadhada":{"countryName":"India","stateName":"Gujarat","name":"Gadhada","lat":21.96957,"lon":71.57828,"geocoding":{},"distantMaxMiles":5},"Gandevi":{"countryName":"India","stateName":"Gujarat","name":"Gandevi","lat":20.81214,"lon":72.99811,"geocoding":{},"distantMaxMiles":5},"Gandhidham":{"countryName":"India","stateName":"Gujarat","name":"Gandhidham","lat":23.08333,"lon":70.13333,"geocoding":{},"distantMaxMiles":5},"Gandhinagar":{"countryName":"India","stateName":"Gujarat","name":"Gandhinagar","lat":23.21667,"lon":72.68333,"geocoding":{},"distantMaxMiles":5},"Gariadhar":{"countryName":"India","stateName":"Gujarat","name":"Gariadhar","lat":21.53889,"lon":71.57737,"geocoding":{},"distantMaxMiles":5},"Ghodasar":{"countryName":"India","stateName":"Gujarat","name":"Ghodasar","lat":24.45,"lon":71.85,"geocoding":{},"distantMaxMiles":5},"Ghogha":{"countryName":"India","stateName":"Gujarat","name":"Ghogha","lat":21.68813,"lon":72.2763,"geocoding":{},"distantMaxMiles":5},"Gir Somnath":{"countryName":"India","stateName":"Gujarat","name":"Gir Somnath","lat":20.91287,"lon":70.3671,"geocoding":{},"distantMaxMiles":5},"Godhra":{"countryName":"India","stateName":"Gujarat","name":"Godhra","lat":22.77547,"lon":73.61488,"geocoding":{},"distantMaxMiles":5},"Gondal":{"countryName":"India","stateName":"Gujarat","name":"Gondal","lat":21.96074,"lon":70.80255,"geocoding":{},"distantMaxMiles":5},"Gorwa":{"countryName":"India","stateName":"Gujarat","name":"Gorwa","lat":22.3301,"lon":73.1611,"geocoding":{},"distantMaxMiles":5},"Halenda":{"countryName":"India","stateName":"Gujarat","name":"Halenda","lat":22.088185,"lon":71.05171,"geocoding":{},"distantMaxMiles":5},"Halol":{"countryName":"India","stateName":"Gujarat","name":"Halol","lat":22.50321,"lon":73.47242,"geocoding":{},"distantMaxMiles":5},"Halvad":{"countryName":"India","stateName":"Gujarat","name":"Halvad","lat":23.01516,"lon":71.18029,"geocoding":{},"distantMaxMiles":5},"Hansot":{"countryName":"India","stateName":"Gujarat","name":"Hansot","lat":21.58496,"lon":72.80764,"geocoding":{},"distantMaxMiles":5},"Harij":{"countryName":"India","stateName":"Gujarat","name":"Harij","lat":23.69356,"lon":71.907,"geocoding":{},"distantMaxMiles":5},"Harsol":{"countryName":"India","stateName":"Gujarat","name":"Harsol","lat":23.36,"lon":73.02,"geocoding":{},"distantMaxMiles":5},"Hathuran":{"countryName":"India","stateName":"Gujarat","name":"Hathuran","lat":21.5,"lon":72.97,"geocoding":{},"distantMaxMiles":5},"Himatnagar":{"countryName":"India","stateName":"Gujarat","name":"Himatnagar","lat":23.59893,"lon":72.96602,"geocoding":{},"distantMaxMiles":5},"Idar":{"countryName":"India","stateName":"Gujarat","name":"Idar","lat":23.83,"lon":73,"geocoding":{},"distantMaxMiles":5},"Jakhau":{"countryName":"India","stateName":"Gujarat","name":"Jakhau","lat":23.21861111,"lon":68.71694444,"geocoding":{},"distantMaxMiles":5},"Jalalpore":{"countryName":"India","stateName":"Gujarat","name":"Jalalpore","lat":20.9491,"lon":72.9136,"geocoding":{},"distantMaxMiles":5},"Jalalpur":{"countryName":"India","stateName":"Gujarat","name":"Jalalpur","lat":20.94896,"lon":72.89829,"geocoding":{},"distantMaxMiles":5},"Jalia":{"countryName":"India","stateName":"Gujarat","name":"Jalia","lat":21.8,"lon":70.25,"geocoding":{},"distantMaxMiles":5},"Jambuda":{"countryName":"India","stateName":"Gujarat","name":"Jambuda","lat":22.51666667,"lon":70.21666667,"geocoding":{},"distantMaxMiles":5},"Jambusar":{"countryName":"India","stateName":"Gujarat","name":"Jambusar","lat":22.05236,"lon":72.80074,"geocoding":{},"distantMaxMiles":5},"Jamnagar":{"countryName":"India","stateName":"Gujarat","name":"Jamnagar","lat":22.47292,"lon":70.06673,"geocoding":{},"distantMaxMiles":5},"Jarod,":{"countryName":"India","stateName":"Gujarat","name":"Jarod,","lat":22.433,"lon":73.333,"geocoding":{},"distantMaxMiles":5},"Jasdan":{"countryName":"India","stateName":"Gujarat","name":"Jasdan","lat":22.03709,"lon":71.20794,"geocoding":{},"distantMaxMiles":5},"Jetalpur":{"countryName":"India","stateName":"Gujarat","name":"Jetalpur","lat":22.88333333,"lon":72.6,"geocoding":{},"distantMaxMiles":5},"Jetalsar":{"countryName":"India","stateName":"Gujarat","name":"Jetalsar","lat":21.70891,"lon":70.57695,"geocoding":{},"distantMaxMiles":5},"Jetpur":{"countryName":"India","stateName":"Gujarat","name":"Jetpur","lat":21.75482,"lon":70.62347,"geocoding":{},"distantMaxMiles":5},"Jetpur (Navagadh)":{"countryName":"India","stateName":"Gujarat","name":"Jetpur (Navagadh)","lat":21.75482,"lon":70.62347,"geocoding":{},"distantMaxMiles":5},"Jhalod":{"countryName":"India","stateName":"Gujarat","name":"Jhalod","lat":23.10027778,"lon":74.15611111,"geocoding":{},"distantMaxMiles":5},"Jhulasan":{"countryName":"India","stateName":"Gujarat","name":"Jhulasan","lat":23.3286,"lon":72.47314,"geocoding":{},