{"name":"Equatorial Guinea","isoCode":"GQ","lat":2,"lon":10,"geocoding":{},"distantMaxMiles":5,"states":{"Annobón Province":{"countryName":"Equatorial Guinea","name":"Annobón Province","isoCode":"AN","lat":-1.4268782,"lon":5.6352801,"geocoding":{},"distantMaxMiles":5,"cities":{"San Antonio de Palé":{"countryName":"Equatorial Guinea","stateName":"Annobón Province","name":"San Antonio de Palé","lat":-1.4068,"lon":5.63178,"geocoding":{},"distantMaxMiles":5}}},"Bioko Norte Province":{"countryName":"Equatorial Guinea","name":"Bioko Norte Province","isoCode":"BN","lat":3.6595072,"lon":8.7921836,"geocoding":{},"distantMaxMiles":5,"cities":{"Malabo":{"countryName":"Equatorial Guinea","stateName":"Bioko Norte Province","name":"Malabo","lat":3.75578,"lon":8.78166,"geocoding":{},"distantMaxMiles":5},"Rebola":{"countryName":"Equatorial Guinea","stateName":"Bioko Norte Province","name":"Rebola","lat":3.71667,"lon":8.83333,"geocoding":{},"distantMaxMiles":5},"Santiago de Baney":{"countryName":"Equatorial Guinea","stateName":"Bioko Norte Province","name":"Santiago de Baney","lat":3.6992,"lon":8.9084,"geocoding":{},"distantMaxMiles":5}}},"Bioko Sur Province":{"countryName":"Equatorial Guinea","name":"Bioko Sur Province","isoCode":"BS","lat":3.4209785,"lon":8.6160674,"geocoding":{},"distantMaxMiles":5,"cities":{"Luba":{"countryName":"Equatorial Guinea","stateName":"Bioko Sur Province","name":"Luba","lat":3.45683,"lon":8.55465,"geocoding":{},"distantMaxMiles":5}}},"Centro Sur Province":{"countryName":"Equatorial Guinea","name":"Centro Sur Province","isoCode":"CS","lat":1.3436084,"lon":10.439656,"geocoding":{},"distantMaxMiles":5,"cities":{"Acurenam":{"countryName":"Equatorial Guinea","stateName":"Centro Sur Province","name":"Acurenam","lat":1.03225,"lon":10.64882,"geocoding":{},"distantMaxMiles":5},"Bicurga":{"countryName":"Equatorial Guinea","stateName":"Centro Sur Province","name":"Bicurga","lat":1.58113,"lon":10.46716,"geocoding":{},"distantMaxMiles":5},"Evinayong":{"countryName":"Equatorial Guinea","stateName":"Centro Sur Province","name":"Evinayong","lat":1.43677,"lon":10.55124,"geocoding":{},"distantMaxMiles":5}}},"Insular Region":{"countryName":"Equatorial Guinea","name":"Insular Region","isoCode":"I","lat":37.09024,"lon":-95.712891,"geocoding":{},"distantMaxMiles":5,"cities":{}},"Kié-Ntem Province":{"countryName":"Equatorial Guinea","name":"Kié-Ntem Province","isoCode":"KN","lat":2.028093,"lon":11.0711758,"geocoding":{},"distantMaxMiles":5,"cities":{"Ebebiyin":{"countryName":"Equatorial Guinea","stateName":"Kié-Ntem Province","name":"Ebebiyin","lat":2.15106,"lon":11.33528,"geocoding":{},"distantMaxMiles":5},"Mikomeseng":{"countryName":"Equatorial Guinea","stateName":"Kié-Ntem Province","name":"Mikomeseng","lat":2.13609,"lon":10.61322,"geocoding":{},"distantMaxMiles":5},"Ncue":{"countryName":"Equatorial Guinea","stateName":"Kié-Ntem Province","name":"Ncue","lat":2.01643,"lon":10.47066,"geocoding":{},"distantMaxMiles":5},"Nsang":{"countryName":"Equatorial Guinea","stateName":"Kié-Ntem Province","name":"Nsang","lat":2.02475,"lon":10.94599,"geocoding":{},"distantMaxMiles":5}}},"Litoral Province":{"countryName":"Equatorial Guinea","name":"Litoral Province","isoCode":"LI","lat":1.5750244,"lon":9.8124935,"geocoding":{},"distantMaxMiles":5,"cities":{"Bata":{"countryName":"Equatorial Guinea","stateName":"Litoral Province","name":"Bata","lat":1.86391,"lon":9.76582,"geocoding":{},"distantMaxMiles":5},"Bitica":{"countryName":"Equatorial Guinea","stateName":"Litoral Province","name":"Bitica","lat":1.4261,"lon":9.62316,"geocoding":{},"distantMaxMiles":5},"Cogo":{"countryName":"Equatorial Guinea","stateName":"Litoral Province","name":"Cogo","lat":1.08425,"lon":9.693,"geocoding":{},"distantMaxMiles":5},"Machinda":{"countryName":"Equatorial Guinea","stateName":"Litoral Province","name":"Machinda","lat":1.88262,"lon":9.95133,"geocoding":{},"distantMaxMiles":5},"Mbini":{"countryName":"Equatorial Guinea","stateName":"Litoral Province","name":"Mbini","lat":1.58267,"lon":9.61478,"geocoding":{},"distantMaxMiles":5},"Río Campo":{"countryName":"Equatorial Guinea","stateName":"Litoral Province","name":"Río Campo","lat":2.33812,"lon":9.82212,"geocoding":{},"distantMaxMiles":5}}},"Río Muni":{"countryName":"Equatorial Guinea","name":"Río Muni","isoCode":"C","lat":1.4610606,"lon":9.6786894,"geocoding":{},"distantMaxMiles":5,"cities":{}},"Wele-Nzas Province":{"countryName":"Equatorial Guinea","name":"Wele-Nzas Province","isoCode":"WN","lat":1.4166162,"lon":11.0711758,"geocoding":{},"distantMaxMiles":5,"cities":{"Aconibe":{"countryName":"Equatorial Guinea","stateName":"Wele-Nzas Province","name":"Aconibe","lat":1.29683,"lon":10.93691,"geocoding":{},"distantMaxMiles":5},"Ayene":{"countryName":"Equatorial Guinea","stateName":"Wele-Nzas Province","name":"Ayene","lat":1.85592,"lon":10.68994,"geocoding":{},"distantMaxMiles":5},"Añisoc":{"countryName":"Equatorial Guinea","stateName":"Wele-Nzas Province","name":"Añisoc","lat":1.8658,"lon":10.76892,"geocoding":{},"distantMaxMiles":5},"Mengomeyén":{"countryName":"Equatorial Guinea","stateName":"Wele-Nzas Province","name":"Mengomeyén","lat":1.69439,"lon":11.03422,"geocoding":{},"distantMaxMiles":5},"Mongomo":{"countryName":"Equatorial Guinea","stateName":"Wele-Nzas Province","name":"Mongomo","lat":1.62742,"lon":11.31346,"geocoding":{},"distantMaxMiles":5},"Nsok":{"countryName":"Equatorial Guinea","stateName":"Wele-Nzas Province","name":"Nsok","lat":1.12985,"lon":11.26603,"geocoding":{},"distantMaxMiles":5}}}}}