{"name":"Algeria","isoCode":"DZ","lat":28,"lon":3,"geocoding":{},"distantMaxMiles":5,"states":{"Adrar":{"countryName":"Algeria","name":"Adrar","isoCode":"01","lat":26.418131,"lon":-0.6014717,"geocoding":{},"distantMaxMiles":5,"cities":{"Adrar":{"countryName":"Algeria","stateName":"Adrar","name":"Adrar","lat":27.87429,"lon":-0.29388,"geocoding":{},"distantMaxMiles":5},"Aoulef":{"countryName":"Algeria","stateName":"Adrar","name":"Aoulef","lat":26.96667,"lon":1.08333,"geocoding":{},"distantMaxMiles":5},"Reggane":{"countryName":"Algeria","stateName":"Adrar","name":"Reggane","lat":26.71576,"lon":0.1714,"geocoding":{},"distantMaxMiles":5},"Timimoun":{"countryName":"Algeria","stateName":"Adrar","name":"Timimoun","lat":29.26388,"lon":0.23098,"geocoding":{},"distantMaxMiles":5}}},"Algiers":{"countryName":"Algeria","name":"Algiers","isoCode":"16","lat":36.6997294,"lon":3.0576199,"geocoding":{},"distantMaxMiles":5,"cities":{"Algiers":{"countryName":"Algeria","stateName":"Algiers","name":"Algiers","lat":36.73225,"lon":3.08746,"geocoding":{},"distantMaxMiles":5},"Aïn Taya":{"countryName":"Algeria","stateName":"Algiers","name":"Aïn Taya","lat":36.79333,"lon":3.28694,"geocoding":{},"distantMaxMiles":5},"Bab Ezzouar":{"countryName":"Algeria","stateName":"Algiers","name":"Bab Ezzouar","lat":36.72615,"lon":3.18291,"geocoding":{},"distantMaxMiles":5},"Birkhadem":{"countryName":"Algeria","stateName":"Algiers","name":"Birkhadem","lat":36.71499,"lon":3.05002,"geocoding":{},"distantMaxMiles":5},"Bordj el Kiffan":{"countryName":"Algeria","stateName":"Algiers","name":"Bordj el Kiffan","lat":36.74871,"lon":3.19249,"geocoding":{},"distantMaxMiles":5},"Dar el Beïda":{"countryName":"Algeria","stateName":"Algiers","name":"Dar el Beïda","lat":36.71333,"lon":3.2125,"geocoding":{},"distantMaxMiles":5},"Rouiba":{"countryName":"Algeria","stateName":"Algiers","name":"Rouiba","lat":36.73829,"lon":3.28079,"geocoding":{},"distantMaxMiles":5}}},"Annaba":{"countryName":"Algeria","name":"Annaba","isoCode":"23","lat":36.8020508,"lon":7.5247243,"geocoding":{},"distantMaxMiles":5,"cities":{"Annaba":{"countryName":"Algeria","stateName":"Annaba","name":"Annaba","lat":36.9,"lon":7.76667,"geocoding":{},"distantMaxMiles":5},"Berrahal":{"countryName":"Algeria","stateName":"Annaba","name":"Berrahal","lat":36.83528,"lon":7.45333,"geocoding":{},"distantMaxMiles":5},"Drean":{"countryName":"Algeria","stateName":"Annaba","name":"Drean","lat":36.68482,"lon":7.75111,"geocoding":{},"distantMaxMiles":5},"El Hadjar":{"countryName":"Algeria","stateName":"Annaba","name":"El Hadjar","lat":36.80377,"lon":7.73684,"geocoding":{},"distantMaxMiles":5}}},"Aïn Defla":{"countryName":"Algeria","name":"Aïn Defla","isoCode":"44","lat":36.2509429,"lon":1.9393815,"geocoding":{},"distantMaxMiles":5,"cities":{"Aïn Defla":{"countryName":"Algeria","stateName":"Aïn Defla","name":"Aïn Defla","lat":36.26405,"lon":1.9679,"geocoding":{},"distantMaxMiles":5},"El Abadia":{"countryName":"Algeria","stateName":"Aïn Defla","name":"El Abadia","lat":36.26951,"lon":1.68609,"geocoding":{},"distantMaxMiles":5},"El Attaf":{"countryName":"Algeria","stateName":"Aïn Defla","name":"El Attaf","lat":36.22393,"lon":1.67187,"geocoding":{},"distantMaxMiles":5},"Khemis Miliana":{"countryName":"Algeria","stateName":"Aïn Defla","name":"Khemis Miliana","lat":36.26104,"lon":2.22015,"geocoding":{},"distantMaxMiles":5},"Theniet el Had":{"countryName":"Algeria","stateName":"Aïn Defla","name":"Theniet el Had","lat":35.87111,"lon":2.02806,"geocoding":{},"distantMaxMiles":5}}},"Aïn Témouchent":{"countryName":"Algeria","name":"Aïn Témouchent","isoCode":"46","lat":35.2992698,"lon":-1.1392792,"geocoding":{},"distantMaxMiles":5,"cities":{"Aïn Temouchent":{"countryName":"Algeria","stateName":"Aïn Témouchent","name":"Aïn Temouchent","lat":35.29749,"lon":-1.14037,"geocoding":{},"distantMaxMiles":5},"Beni Saf":{"countryName":"Algeria","stateName":"Aïn Témouchent","name":"Beni Saf","lat":35.30099,"lon":-1.38226,"geocoding":{},"distantMaxMiles":5},"El Amria":{"countryName":"Algeria","stateName":"Aïn Témouchent","name":"El Amria","lat":35.52439,"lon":-1.01577,"geocoding":{},"distantMaxMiles":5},"El Malah":{"countryName":"Algeria","stateName":"Aïn Témouchent","name":"El Malah","lat":35.39137,"lon":-1.09238,"geocoding":{},"distantMaxMiles":5},"Hammam Bou Hadjar":{"countryName":"Algeria","stateName":"Aïn Témouchent","name":"Hammam Bou Hadjar","lat":35.37889,"lon":-0.96778,"geocoding":{},"distantMaxMiles":5}}},"Batna":{"countryName":"Algeria","name":"Batna","isoCode":"05","lat":35.5965954,"lon":5.8987139,"geocoding":{},"distantMaxMiles":5,"cities":{"Arris":{"countryName":"Algeria","stateName":"Batna","name":"Arris","lat":35.25881,"lon":6.34706,"geocoding":{},"distantMaxMiles":5},"Aïn Touta":{"countryName":"Algeria","stateName":"Batna","name":"Aïn Touta","lat":35.37675,"lon":5.90001,"geocoding":{},"distantMaxMiles":5},"Barika":{"countryName":"Algeria","stateName":"Batna","name":"Barika","lat":35.38901,"lon":5.36584,"geocoding":{},"distantMaxMiles":5},"Batna":{"countryName":"Algeria","stateName":"Batna","name":"Batna","lat":35.55597,"lon":6.17414,"geocoding":{},"distantMaxMiles":5},"Boumagueur":{"countryName":"Algeria","stateName":"Batna","name":"Boumagueur","lat":35.5052,"lon":5.5525,"geocoding":{},"distantMaxMiles":5},"Merouana":{"countryName":"Algeria","stateName":"Batna","name":"Merouana","lat":35.63106,"lon":5.91186,"geocoding":{},"distantMaxMiles":5},"Râs el Aïoun":{"countryName":"Algeria","stateName":"Batna","name":"Râs el Aïoun","lat":35.67384,"lon":5.6453,"geocoding":{},"distantMaxMiles":5},"Tazoult-Lambese":{"countryName":"Algeria","stateName":"Batna","name":"Tazoult-Lambese","lat":35.48171,"lon":6.26074,"geocoding":{},"distantMaxMiles":5}}},"Biskra":{"countryName":"Algeria","name":"Biskra","isoCode":"07","lat":34.8449437,"lon":5.7248567,"geocoding":{},"distantMaxMiles":5,"cities":{"Biskra":{"countryName":"Algeria","stateName":"Biskra","name":"Biskra","lat":34.85038,"lon":5.72805,"geocoding":{},"distantMaxMiles":5},"Oumache":{"countryName":"Algeria","stateName":"Biskra","name":"Oumache","lat":34.69292,"lon":5.68092,"geocoding":{},"distantMaxMiles":5},"Sidi Khaled":{"countryName":"Algeria","stateName":"Biskra","name":"Sidi Khaled","lat":34.387,"lon":4.98785,"geocoding":{},"distantMaxMiles":5},"Sidi Okba":{"countryName":"Algeria","stateName":"Biskra","name":"Sidi Okba","lat":34.74512,"lon":5.89833,"geocoding":{},"distantMaxMiles":5},"Tolga":{"countryName":"Algeria","stateName":"Biskra","name":"Tolga","lat":34.72224,"lon":5.37845,"geocoding":{},"distantMaxMiles":5},"Zeribet el Oued":{"countryName":"Algeria","stateName":"Biskra","name":"Zeribet el Oued","lat":34.68284,"lon":6.51109,"geocoding":{},"distantMaxMiles":5}}},"Blida":{"countryName":"Algeria","name":"Blida","isoCode":"09","lat":36.531123,"lon":2.8976254,"geocoding":{},"distantMaxMiles":5,"cities":{"Beni Mered":{"countryName":"Algeria","stateName":"Blida","name":"Beni Mered","lat":36.52389,"lon":2.86131,"geocoding":{},"distantMaxMiles":5},"Blida":{"countryName":"Algeria","stateName":"Blida","name":"Blida","lat":36.47004,"lon":2.8277,"geocoding":{},"distantMaxMiles":5},"Boufarik":{"countryName":"Algeria","stateName":"Blida","name":"Boufarik","lat":36.57413,"lon":2.91214,"geocoding":{},"distantMaxMiles":5},"Bougara":{"countryName":"Algeria","stateName":"Blida","name":"Bougara","lat":36.54178,"lon":3.081,"geocoding":{},"distantMaxMiles":5},"Bouinan":{"countryName":"Algeria","stateName":"Blida","name":"Bouinan","lat":36.53167,"lon":2.99194,"geocoding":{},"distantMaxMiles":5},"Boû Arfa":{"countryName":"Algeria","stateName":"Blida","name":"Boû Arfa","lat":36.46298,"lon":2.81464,"geocoding":{},"distantMaxMiles":5},"Chebli":{"countryName":"Algeria","stateName":"Blida","name":"Chebli","lat":36.57722,"lon":3.00917,"geocoding":{},"distantMaxMiles":5},"Chiffa":{"countryName":"Algeria","stateName":"Blida","name":"Chiffa","lat":36.46293,"lon":2.73873,"geocoding":{},"distantMaxMiles":5},"Larbaâ":{"countryName":"Algeria","stateName":"Blida","name":"Larbaâ","lat":36.56471,"lon":3.15434,"geocoding":{},"distantMaxMiles":5},"Meftah":{"countryName":"Algeria","stateName":"Blida","name":"Meftah","lat":36.6204,"lon":3.22248,"geocoding":{},"distantMaxMiles":5},"Sidi Moussa":{"countryName":"Algeria","stateName":"Blida","name":"Sidi Moussa","lat":36.60637,"lon":3.08783,"geocoding":{},"distantMaxMiles":5},"Souma":{"countryName":"Algeria","stateName":"Blida","name":"Souma","lat":36.51833,"lon":2.90528,"geocoding":{},"distantMaxMiles":5}}},"Bordj Baji Mokhtar":{"countryName":"Algeria","name":"Bordj Baji Mokhtar","isoCode":"52","lat":22.966335,"lon":-3.9472732,"geocoding":{},"distantMaxMiles":5,"cities":{}},"Bordj Bou Arréridj":{"countryName":"Algeria","name":"Bordj Bou Arréridj","isoCode":"34","lat":36.0739925,"lon":4.7630271,"geocoding":{},"distantMaxMiles":5,"cities":{"Bordj Bou Arreridj":{"countryName":"Algeria","stateName":"Bordj Bou Arréridj","name":"Bordj Bou Arreridj","lat":36.07321,"lon":4.76108,"geocoding":{},"distantMaxMiles":5},"Bordj Ghdir":{"countryName":"Algeria","stateName":"Bordj Bou Arréridj","name":"Bordj Ghdir","lat":35.90111,"lon":4.89806,"geocoding":{},"distantMaxMiles":5},"Bordj Zemoura":{"countryName":"Algeria","stateName":"Bordj Bou Arréridj","name":"Bordj Zemoura","lat":36.27462,"lon":4.85668,"geocoding":{},"distantMaxMiles":5},"El Achir":{"countryName":"Algeria","stateName":"Bordj Bou Arréridj","name":"El Achir","lat":36.06386,"lon":4.62744,"geocoding":{},"distantMaxMiles":5},"Mansourah":{"countryName":"Algeria","stateName":"Bordj Bou Arréridj","name":"Mansourah","lat":36.08725,"lon":4.45192,"geocoding":{},"distantMaxMiles":5},"Melouza":{"countryName":"Algeria","stateName":"Bordj Bou Arréridj","name":"Melouza","lat":35.97999,"lon":4.18665,"geocoding":{},"distantMaxMiles":5},"Râs el Oued":{"countryName":"Algeria","stateName":"Bordj Bou Arréridj","name":"Râs el Oued","lat":35.9441,"lon":5.03107,"geocoding":{},"distantMaxMiles":5}}},"Boumerdès":{"countryName":"Algeria","name":"Boumerdès","isoCode":"35","lat":36.6839559,"lon":3.6217802,"geocoding":{},"distantMaxMiles":5,"cities":{"Arbatache":{"countryName":"Algeria","stateName":"Boumerdès","name":"Arbatache","lat":36.63773,"lon":3.37127,"geocoding":{},"distantMaxMiles":5},"Beni Amrane":{"countryName":"Algeria","stateName":"Boumerdès","name":"Beni Amrane","lat":36.66774,"lon":3.59115,"geocoding":{},"distantMaxMiles":5},"Boudouaou":{"countryName":"Algeria","stateName":"Boumerdès","name":"Boudouaou","lat":36.72735,"lon":3.40995,"geocoding":{},"distantMaxMiles":5},"Boumerdas":{"countryName":"Algeria","stateName":"Boumerdès","name":"Boumerdas","lat":36.76639,"lon":3.47717,"geocoding":{},"distantMaxMiles":5},"Chabet el Ameur":{"countryName":"Algeria","stateName":"Boumerdès","name":"Chabet el Ameur","lat":36.63709,"lon":3.69474,"geocoding":{},"distantMaxMiles":5},"Dellys":{"countryName":"Algeria","stateName":"Boumerdès","name":"Dellys","lat":36.91716,"lon":3.91311,"geocoding":{},"distantMaxMiles":5},"Khemis el Khechna":{"countryName":"Algeria","stateName":"Boumerdès","name":"Khemis el Khechna","lat":36.64997,"lon":3.3308,"geocoding":{},"distantMaxMiles":5},"Makouda":{"countryName":"Algeria","stateName":"Boumerdès","name":"Makouda","lat":36.78567,"lon":4.06273,"geocoding":{},"distantMaxMiles":5},"Naciria":{"countryName":"Algeria","stateName":"Boumerdès","name":"Naciria","lat":36.74625,"lon":3.83163,"geocoding":{},"distantMaxMiles":5},"Ouled Moussa":{"countryName":"Algeria","stateName":"Boumerdès","name":"Ouled Moussa","lat":36.68394,"lon":3.36661,"geocoding":{},"distantMaxMiles":5},"Reghaïa":{"countryName":"Algeria","stateName":"Boumerdès","name":"Reghaïa","lat":36.73587,"lon":3.34018,"geocoding":{},"distantMaxMiles":5},"Tadmaït":{"countryName":"Algeria","stateName":"Boumerdès","name":"Tadmaït","lat":36.74413,"lon":3.90045,"geocoding":{},"distantMaxMiles":5},"Thenia":{"countryName":"Algeria","stateName":"Boumerdès","name":"Thenia","lat":36.72544,"lon":3.55665,"geocoding":{},"distantMaxMiles":5},"Tizi Gheniff":{"countryName":"Algeria","stateName":"Boumerdès","name":"Tizi Gheniff","lat":36.58839,"lon":3.77445,"geocoding":{},"distantMaxMiles":5}}},"Bouïra":{"countryName":"Algeria","name":"Bouïra","isoCode":"10","lat":36.3691846,"lon":3.9006194,"geocoding":{},"distantMaxMiles":5,"cities":{"Aïn Bessem":{"countryName":"Algeria","stateName":"Bouïra","name":"Aïn Bessem","lat":36.29333,"lon":3.67319,"geocoding":{},"distantMaxMiles":5},"Bouïra":{"countryName":"Algeria","stateName":"Bouïra","name":"Bouïra","lat":36.37489,"lon":3.902,"geocoding":{},"distantMaxMiles":5},"Chorfa":{"countryName":"Algeria","stateName":"Bouïra","name":"Chorfa","lat":36.36505,"lon":4.32636,"geocoding":{},"distantMaxMiles":5},"Draa el Mizan":{"countryName":"Algeria","stateName":"Bouïra","name":"Draa el Mizan","lat":36.53628,"lon":3.8334,"geocoding":{},"distantMaxMiles":5},"Lakhdaria":{"countryName":"Algeria","stateName":"Bouïra","name":"Lakhdaria","lat":36.56463,"lon":3.5933,"geocoding":{},"distantMaxMiles":5},"Sour el Ghozlane":{"countryName":"Algeria","stateName":"Bouïra","name":"Sour el Ghozlane","lat":36.14766,"lon":3.69123,"geocoding":{},"distantMaxMiles":5}}},"Béchar":{"countryName":"Algeria","name":"Béchar","isoCode":"08","lat":31.6238098,"lon":-2.2162443,"geocoding":{},"distantMaxMiles":5,"cities":{"Béchar":{"countryName":"Algeria","stateName":"Béchar","name":"Béchar","lat":31.61667,"lon":-2.21667,"geocoding":{},"distantMaxMiles":5}}},"Béjaïa":{"countryName":"Algeria","name":"Béjaïa","isoCode":"06","lat":36.7515258,"lon":5.0556837,"geocoding":{},"distantMaxMiles":5,"cities":{"Akbou":{"countryName":"Algeria","stateName":"Béjaïa","name":"Akbou","lat":36.4575,"lon":4.53494,"geocoding":{},"distantMaxMiles":5},"Amizour":{"countryName":"Algeria","stateName":"Béjaïa","name":"Amizour","lat":36.64022,"lon":4.90131,"geocoding":{},"distantMaxMiles":5},"Barbacha":{"countryName":"Algeria","stateName":"Béjaïa","name":"Barbacha","lat":36.56667,"lon":4.96667,"geocoding":{},"distantMaxMiles":5},"Bejaïa":{"countryName":"Algeria","stateName":"Béjaïa","name":"Bejaïa","lat":36.75587,"lon":5.08433,"geocoding":{},"distantMaxMiles":5},"El Kseur":{"countryName":"Algeria","stateName":"Béjaïa","name":"El Kseur","lat":36.67942,"lon":4.8555,"geocoding":{},"distantMaxMiles":5},"Feraoun":{"countryName":"Algeria","stateName":"Béjaïa","name":"Feraoun","lat":36.56041,"lon":4.85454,"geocoding":{},"distantMaxMiles":5},"Seddouk":{"countryName":"Algeria","stateName":"Béjaïa","name":"Seddouk","lat":36.54722,"lon":4.68611,"geocoding":{},"distantMaxMiles":5},"el hed":{"countryName":"Algeria","stateName":"Béjaïa","name":"el hed","lat":36.65,"lon":4.77361,"geocoding":{},"distantMaxMiles":5}}},"Béni Abbès":{"countryName":"Algeria","name":"Béni Abbès","isoCode":"53","lat":30.0831042,"lon":-2.8345052,"geocoding":{},"distantMaxMiles":5,"cities":{}},"Chlef":{"countryName":"Algeria","name":"Chlef","isoCode":"02","lat":36.1693515,"lon":1.2891036,"geocoding":{},"distantMaxMiles":5,"cities":{"Abou el Hassan":{"countryName":"Algeria","stateName":"Chlef","name":"Abou el Hassan","lat":36.41657,"lon":1.19616,"geocoding":{},"distantMaxMiles":5},"Boukadir":{"countryName":"Algeria","stateName":"Chlef","name":"Boukadir","lat":36.06629,"lon":1.12602,"geocoding":{},"distantMaxMiles":5},"Chlef":{"countryName":"Algeria","stateName":"Chlef","name":"Chlef","lat":36.16525,"lon":1.33452,"geocoding":{},"distantMaxMiles":5},"Ech Chettia":{"countryName":"Algeria","stateName":"Chlef","name":"Ech Chettia","lat":36.19591,"lon":1.25537,"geocoding":{},"distantMaxMiles":5},"Oued Fodda":{"countryName":"Algeria","stateName":"Chlef","name":"Oued Fodda","lat":36.18503,"lon":1.53299,"geocoding":{},"distantMaxMiles":5},"Oued Sly":{"countryName":"Algeria","stateName":"Chlef","name":"Oued Sly","lat":36.10124,"lon":1.19949,"geocoding":{},"distantMaxMiles":5},"Sidi Akkacha":{"countryName":"Algeria","stateName":"Chlef","name":"Sidi Akkacha","lat":36.46472,"lon":1.30258,"geocoding":{},"distantMaxMiles":5}}},"Constantine":{"countryName":"Algeria","name":"Constantine","isoCode":"25","lat":36.3373911,"lon":6.663812,"geocoding":{},"distantMaxMiles":5,"cities":{"Aïn Smara":{"countryName":"Algeria","stateName":"Constantine","name":"Aïn Smara","lat":36.2674,"lon":6.50135,"geocoding":{},"distantMaxMiles":5},"Constantine":{"countryName":"Algeria","stateName":"Constantine","name":"Constantine","lat":36.365,"lon":6.61472,"geocoding":{},"distantMaxMiles":5},"Didouche Mourad":{"countryName":"Algeria","stateName":"Constantine","name":"Didouche Mourad","lat":36.4525,"lon":6.63639,"geocoding":{},"distantMaxMiles":5},"El Khroub":{"countryName":"Algeria","stateName":"Constantine","name":"El Khroub","lat":36.26333,"lon":6.69361,"geocoding":{},"distantMaxMiles":5},"Hamma Bouziane":{"countryName":"Algeria","stateName":"Constantine","name":"Hamma Bouziane","lat":36.41205,"lon":6.59603,"geocoding":{},"distantMaxMiles":5},"’Aïn Abid":{"countryName":"Algeria","stateName":"Constantine","name":"’Aïn Abid","lat":36.23194,"lon":6.94333,"geocoding":{},"distantMaxMiles":5}}},"Djanet":{"countryName":"Algeria","name":"Djanet","isoCode":"56","lat":23.8310872,"lon":8.7004672,"geocoding":{},"distantMaxMiles":5,"cities":{}},"Djelfa":{"countryName":"Algeria","name":"Djelfa","isoCode":"17","lat":34.6703956,"lon":3.2503761,"geocoding":{},"distantMaxMiles":5,"cities":{"Aïn Oussera":{"countryName":"Algeria","stateName":"Djelfa","name":"Aïn Oussera","lat":35.45139,"lon":2.90583,"geocoding":{},"distantMaxMiles":5},"Birine":{"countryName":"Algeria","stateName":"Djelfa","name":"Birine","lat":35.635,"lon":3.225,"geocoding":{},"distantMaxMiles":5},"Charef":{"countryName":"Algeria","stateName":"Djelfa","name":"Charef","lat":34.62098,"lon":2.79503,"geocoding":{},"distantMaxMiles":5},"Dar Chioukh":{"countryName":"Algeria","stateName":"Djelfa","name":"Dar Chioukh","lat":34.89638,"lon":3.48543,"geocoding":{},"distantMaxMiles":5},"Djelfa":{"countryName":"Algeria","stateName":"Djelfa","name":"Djelfa","lat":34.67279,"lon":3.263,"geocoding":{},"distantMaxMiles":5},"El Idrissia":{"countryName":"Algeria","stateName":"Djelfa","name":"El Idrissia","lat":34.44542,"lon":2.52749,"geocoding":{},"distantMaxMiles":5},"Messaad":{"countryName":"Algeria","stateName":"Djelfa","name":"Messaad","lat":34.15429,"lon":3.50309,"geocoding":{},"distantMaxMiles":5},"’Aïn el Bell":{"countryName":"Algeria","stateName":"Djelfa","name":"’Aïn el Bell","lat":34.34381,"lon":3.22475,"geocoding":{},"distantMaxMiles":5}}},"El Bayadh":{"countryName":"Algeria","name":"El Bayadh","isoCode":"32","lat":32.7148824,"lon":0.9056623,"geocoding":{},"distantMaxMiles":5,"cities":{"Brezina":{"countryName":"Algeria","stateName":"El Bayadh","name":"Brezina","lat":33.09892,"lon":1.26082,"geocoding":{},"distantMaxMiles":5},"El Abiodh Sidi Cheikh":{"countryName":"Algeria","stateName":"El Bayadh","name":"El Abiodh Sidi Cheikh","lat":32.893,"lon":0.54839,"geocoding":{},"distantMaxMiles":5},"El Bayadh":{"countryName":"Algeria","stateName":"El Bayadh","name":"El Bayadh","lat":33.68318,"lon":1.01927,"geocoding":{},"distantMaxMiles":5}}},"El M'ghair":{"countryName":"Algeria","name":"El M'ghair","isoCode":"49","lat":33.9540561,"lon":5.1346418,"geocoding":{},"distantMaxMiles":5,"cities":{}},"El Menia":{"countryName":"Algeria","name":"El Menia","isoCode":"50","lat":31.364225,"lon":2.5784495,"geocoding":{},"distantMaxMiles":5,"cities":{}},"El Oued":{"countryName":"Algeria","name":"El Oued","isoCode":"39","lat":33.367811,"lon":6.8516511,"geocoding":{},"distantMaxMiles":5,"cities":{"Debila":{"countryName":"Algeria","stateName":"El Oued","name":"Debila","lat":33.51667,"lon":6.95,"geocoding":{},"distantMaxMiles":5},"El Oued":{"countryName":"Algeria","stateName":"El Oued","name":"El Oued","lat":33.35608,"lon":6.86319,"geocoding":{},"distantMaxMiles":5},"Reguiba":{"countryName":"Algeria","stateName":"El Oued","name":"Reguiba","lat":33.56391,"lon":6.70326,"geocoding":{},"distantMaxMiles":5},"Robbah":{"countryName":"Algeria","stateName":"El Oued","name":"Robbah","lat":33.27967,"lon":6.90984,"geocoding":{},"distantMaxMiles":5}}},"El Tarf":{"countryName":"Algeria","name":"El Tarf","isoCode":"36","lat":36.7576678,"lon":8.3076343,"geocoding":{},"distantMaxMiles":5,"cities":{"Ben Mehidi":{"countryName":"Algeria","stateName":"El Tarf","name":"Ben Mehidi","lat":36.76967,"lon":7.90641,"geocoding":{},"distantMaxMiles":5},"Besbes":{"countryName":"Algeria","stateName":"El Tarf","name":"Besbes","lat":36.70222,"lon":7.84722,"geocoding":{},"distantMaxMiles":5},"El Kala":{"countryName":"Algeria","stateName":"El Tarf","name":"El Kala","lat":36.89556,"lon":8.44333,"geocoding":{},"distantMaxMiles":5},"El Tarf":{"countryName":"Algeria","stateName":"El Tarf","name":"El Tarf","lat":36.7672,"lon":8.31377,"geocoding":{},"distantMaxMiles":5}}},"Ghardaïa":{"countryName":"Algeria","name":"Ghardaïa","isoCode":"47","lat":32.4943741,"lon":3.64446,"geocoding":{},"distantMaxMiles":5,"cities":{"Berriane":{"countryName":"Algeria","stateName":"Ghardaïa","name":"Berriane","lat":32.82648,"lon":3.76689,"geocoding":{},"distantMaxMiles":5},"Ghardaïa":{"countryName":"Algeria","stateName":"Ghardaïa","name":"Ghardaïa","lat":32.49094,"lon":3.67347,"geocoding":{},"distantMaxMiles":5},"Metlili Chaamba":{"countryName":"Algeria","stateName":"Ghardaïa","name":"Metlili Chaamba","lat":32.26667,"lon":3.63333,"geocoding":{},"distantMaxMiles":5}}},"Guelma":{"countryName":"Algeria","name":"Guelma","isoCode":"24","lat":36.4627444,"lon":7.4330833,"geocoding":{},"distantMaxMiles":5,"cities":{"Boumahra Ahmed":{"countryName":"Algeria","stateName":"Guelma","name":"Boumahra Ahmed","lat":36.45833,"lon":7.51389,"geocoding":{},"distantMaxMiles":5},"Guelma":{"countryName":"Algeria","stateName":"Guelma","name":"Guelma","lat":36.46214,"lon":7.42608,"geocoding":{},"distantMaxMiles":5},"Héliopolis":{"countryName":"Algeria","stateName":"Guelma","name":"Héliopolis","lat":36.50361,"lon":7.44278,"geocoding":{},"distantMaxMiles":5}}},"Illizi":{"countryName":"Algeria","name":"Illizi","isoCode":"33","lat":26.1690005,"lon":8.4842465,"geocoding":{},"distantMaxMiles":5,"cities":{"Illizi":{"countryName":"Algeria","stateName":"Illizi","name":"Illizi","lat":26.48333,"lon":8.46667,"geocoding":{},"distantMaxMiles":5}}},"In Guezzam":{"countryName":"Algeria","name":"In Guezzam","isoCode":"58","lat":20.3864323,"lon":4.7789394,"geocoding":{},"distantMaxMiles":5,"cities":{}},"In Salah":{"countryName":"Algeria","name":"In Salah","isoCode":"57","lat":27.2149229,"lon":1.8484396,"geocoding":{},"distantMaxMiles":5,"cities":{}},"Jijel":{"countryName":"Algeria","name":"Jijel","isoCode":"18","lat":36.7179681,"lon":5.9832577,"geocoding":{},"distantMaxMiles":5,"cities":{"Jijel":{"countryName":"Algeria","stateName":"Jijel","name":"Jijel","lat":36.82055,"lon":5.76671,"geocoding":{},"distantMaxMiles":5}}},"Khenchela":{"countryName":"Algeria","name":"Khenchela","isoCode":"40","lat":35.4269404,"lon":7.1460155,"geocoding":{},"distantMaxMiles":5,"cities":{"Khenchela":{"countryName":"Algeria","stateName":"Khenchela","name":"Khenchela","lat":35.43583,"lon":7.14333,"geocoding":{},"distantMaxMiles":5}}},"Laghouat":{"countryName":"Algeria","name":"Laghouat","isoCode":"03","lat":33.8078341,"lon":2.8628294,"geocoding":{},"distantMaxMiles":5,"cities":{"Aflou":{"countryName":"Algeria","stateName":"Laghouat","name":"Aflou","lat":34.11279,"lon":2.10228,"geocoding":{},"distantMaxMiles":5},"Laghouat":{"countryName":"Algeria","stateName":"Laghouat","name":"Laghouat","lat":33.8,"lon":2.86514,"geocoding":{},"distantMaxMiles":5}}},"M'Sila":{"countryName":"Algeria","name":"M'Sila","isoCode":"28","lat":35.7186646,"lon":4.5233423,"geocoding":{},"distantMaxMiles":5,"cities":{"M’Sila":{"countryName":"Algeria","stateName":"M'Sila","name":"M’Sila","lat":35.70583,"lon":4.54194,"geocoding":{},"distantMaxMiles":5},"Sidi Aïssa":{"countryName":"Algeria","stateName":"M'Sila","name":"Sidi Aïssa","lat":35.88548,"lon":3.77236,"geocoding":{},"distantMaxMiles":5},"‘Aïn el Hadjel":{"countryName":"Algeria","stateName":"M'Sila","name":"‘Aïn el Hadjel","lat":35.67003,"lon":3.88153,"geocoding":{},"distantMaxMiles":5},"’Aïn el Melh":{"countryName":"Algeria","stateName":"M'Sila","name":"’Aïn el Melh","lat":34.84146,"lon":4.16383,"geocoding":{},"distantMaxMiles":5}}},"Mascara":{"countryName":"Algeria","name":"Mascara","isoCode":"29","lat":35.3904125,"lon":0.1494988,"geocoding":{},"distantMaxMiles":5,"cities":{"Bou Hanifia el Hamamat":{"countryName":"Algeria","stateName":"Mascara","name":"Bou Hanifia el Hamamat","lat":35.31473,"lon":-0.05037,"geocoding":{},"distantMaxMiles":5},"Mascara":{"countryName":"Algeria","stateName":"Mascara","name":"Mascara","lat":35.39664,"lon":0.14027,"geocoding":{},"distantMaxMiles":5},"Oued el Abtal":{"countryName":"Algeria","stateName":"Mascara","name":"Oued el Abtal","lat":35.45595,"lon":0.68778,"geocoding":{},"distantMaxMiles":5},"Sig":{"countryName":"Algeria","stateName":"Mascara","name":"Sig","lat":35.52832,"lon":-0.19369,"geocoding":{},"distantMaxMiles":5}}},"Mila":{"countryName":"Algeria","name":"Mila","isoCode":"43","lat":36.3647957,"lon":6.1526985,"geocoding":{},"distantMaxMiles":5,"cities":{"Chelghoum el Aïd":{"countryName":"Algeria","stateName":"Mila","name":"Chelghoum el Aïd","lat":36.16286,"lon":6.16651,"geocoding":{},"distantMaxMiles":5},"Mila":{"countryName":"Algeria","stateName":"Mila","name":"Mila","lat":36.45028,"lon":6.26444,"geocoding":{},"distantMaxMiles":5},"Rouached":{"countryName":"Algeria","stateName":"Mila","name":"Rouached","lat":36.45774,"lon":6.04267,"geocoding":{},"distantMaxMiles":5},"Sidi Mérouane":{"countryName":"Algeria","stateName":"Mila","name":"Sidi Mérouane","lat":36.52056,"lon":6.26111,"geocoding":{},"distantMaxMiles":5},"Telerghma":{"countryName":"Algeria","stateName":"Mila","name":"Telerghma","lat":36.11653,"lon":6.35434,"geocoding":{},"distantMaxMiles":5}}},"Mostaganem":{"countryName":"Algeria","name":"Mostaganem","isoCode":"27","lat":35.9583054,"lon":0.3371889,"geocoding":{},"distantMaxMiles":5,"cities":{"Mostaganem":{"countryName":"Algeria","stateName":"Mostaganem","name":"Mostaganem","lat":35.93115,"lon":0.08918,"geocoding":{},"distantMaxMiles":5}}},"Médéa":{"countryName":"Algeria","name":"Médéa","isoCode":"26","lat":36.2637078,"lon":2.7587857,"geocoding":{},"distantMaxMiles":5,"cities":{"Berrouaghia":{"countryName":"Algeria","stateName":"Médéa","name":"Berrouaghia","lat":36.13516,"lon":2.91085,"geocoding":{},"distantMaxMiles":5},"Ksar el Boukhari":{"countryName":"Algeria","stateName":"Médéa","name":"Ksar el Boukhari","lat":35.88889,"lon":2.74905,"geocoding":{},"distantMaxMiles":5},"Médéa":{"countryName":"Algeria","stateName":"Médéa","name":"Médéa","lat":36.26417,"lon":2.75393,"geocoding":{},"distantMaxMiles":5},"’Aïn Boucif":{"countryName":"Algeria","stateName":"Médéa","name":"’Aïn Boucif","lat":35.89123,"lon":3.1585,"geocoding":{},"distantMaxMiles":5}}},"Naama":{"countryName":"Algeria","name":"Naama","isoCode":"45","lat":33.2667317,"lon":-0.3128659,"geocoding":{},"distantMaxMiles":5,"cities":{"Aïn Sefra":{"countryName":"Algeria","stateName":"Naama","name":"Aïn Sefra","lat":32.75,"lon":-0.58333,"geocoding":{},"distantMaxMiles":5},"Naama":{"countryName":"Algeria","stateName":"Naama","name":"Naama","lat":33.26667,"lon":-0.31667,"geocoding":{},"distantMaxMiles":5}}},"Oran":{"countryName":"Algeria","name":"Oran","isoCode":"31","lat":35.6082351,"lon":-0.563609,"geocoding":{},"distantMaxMiles":5,"cities":{"Aïn el Bya":{"countryName":"Algeria","stateName":"Oran","name":"Aïn el Bya","lat":35.80389,"lon":-0.30178,"geocoding":{},"distantMaxMiles":5},"Bir el Djir":{"countryName":"Algeria","stateName":"Oran","name":"Bir el Djir","lat":35.72,"lon":-0.545,"geocoding":{},"distantMaxMiles":5},"Bou Tlelis":{"countryName":"Algeria","stateName":"Oran","name":"Bou Tlelis","lat":35.57272,"lon":-0.8996,"geocoding":{},"distantMaxMiles":5},"Es Senia":{"countryName":"Algeria","stateName":"Oran","name":"Es Senia","lat":35.64779,"lon":-0.62397,"geocoding":{},"distantMaxMiles":5},"Mers el Kebir":{"countryName":"Algeria","stateName":"Oran","name":"Mers el Kebir","lat":35.7279,"lon":-0.7081,"geocoding":{},"distantMaxMiles":5},"Oran":{"countryName":"Algeria","stateName":"Oran","name":"Oran","lat":35.69906,"lon":-0.63588,"geocoding":{},"distantMaxMiles":5},"Sidi ech Chahmi":{"countryName":"Algeria","stateName":"Oran","name":"Sidi ech Chahmi","lat":35.65903,"lon":-0.52168,"geocoding":{},"distantMaxMiles":5},"’Aïn el Turk":{"countryName":"Algeria","stateName":"Oran","name":"’Aïn el Turk","lat":35.74381,"lon":-0.7693,"geocoding":{},"distantMaxMiles":5}}},"Ouargla":{"countryName":"Algeria","name":"Ouargla","isoCode":"30","lat":32.2264863,"lon":5.7299821,"geocoding":{},"distantMaxMiles":5,"cities":{"Djamaa":{"countryName":"Algeria","stateName":"Ouargla","name":"Djamaa","lat":33.53388,"lon":5.99306,"geocoding":{},"distantMaxMiles":5},"El Hadjira":{"countryName":"Algeria","stateName":"Ouargla","name":"El Hadjira","lat":32.61336,"lon":5.51259,"geocoding":{},"distantMaxMiles":5},"Hassi Messaoud":{"countryName":"Algeria","stateName":"Ouargla","name":"Hassi Messaoud","lat":31.68041,"lon":6.07286,"geocoding":{},"distantMaxMiles":5},"Megarine":{"countryName":"Algeria","stateName":"Ouargla","name":"Megarine","lat":33.19195,"lon":6.08695,"geocoding":{},"distantMaxMiles":5},"Ouargla":{"countryName":"Algeria","stateName":"Ouargla","name":"Ouargla","lat":31.94932,"lon":5.32502,"geocoding":{},"distantMaxMiles":5},"Rouissat":{"countryName":"Algeria","stateName":"Ouargla","name":"Rouissat","lat":31.92427,"lon":5.35018,"geocoding":{},"distantMaxMiles":5},"Sidi Amrane":{"countryName":"Algeria","stateName":"Ouargla","name":"Sidi Amrane","lat":33.49885,"lon":6.00803,"geocoding":{},"distantMaxMiles":5},"Tebesbest":{"countryName":"Algeria","stateName":"Ouargla","name":"Tebesbest","lat":33.11667,"lon":6.08333,"geocoding":{},"distantMaxMiles":5},"Touggourt":{"countryName":"Algeria","stateName":"Ouargla","name":"Touggourt","lat":33.10527,"lon":6.05796,"geocoding":{},"distantMaxMiles":5}}},"Ouled Djellal":{"countryName":"Algeria","name":"Ouled Djellal","isoCode":"51","lat":34.4178221,"lon":4.9685843,"geocoding":{},"distantMaxMiles":5,"cities":{}},"Oum El Bouaghi":{"countryName":"Algeria","name":"Oum El Bouaghi","isoCode":"04","lat":35.8688789,"lon":7.1108266,"geocoding":{},"distantMaxMiles":5,"cities":{"Aïn Beïda":{"countryName":"Algeria","stateName":"Oum El Bouaghi","name":"Aïn Beïda","lat":35.79639,"lon":7.39278,"geocoding":{},"distantMaxMiles":5},"Aïn Fakroun":{"countryName":"Algeria","stateName":"Oum El Bouaghi","name":"Aïn Fakroun","lat":35.97108,"lon":6.87374,"geocoding":{},"distantMaxMiles":5},"Aïn Kercha":{"countryName":"Algeria","stateName":"Oum El Bouaghi","name":"Aïn Kercha","lat":35.92472,"lon":6.69528,"geocoding":{},"distantMaxMiles":5},"El Aouinet":{"countryName":"Algeria","stateName":"Oum El Bouaghi","name":"El Aouinet","lat":35.86691,"lon":7.88673,"geocoding":{},"distantMaxMiles":5},"Meskiana":{"countryName":"Algeria","stateName":"Oum El Bouaghi","name":"Meskiana","lat":35.63058,"lon":7.66606,"geocoding":{},"distantMaxMiles":5},"Oum el Bouaghi":{"countryName":"Algeria","stateName":"Oum El Bouaghi","name":"Oum el Bouaghi","lat":35.87541,"lon":7.11353,"geocoding":{},"distantMaxMiles":5}}},"Relizane":{"countryName":"Algeria","name":"Relizane","isoCode":"48","lat":35.7383405,"lon":0.7532809,"geocoding":{},"distantMaxMiles":5,"cities":{"Ammi Moussa":{"countryName":"Algeria","stateName":"Relizane","name":"Ammi Moussa","lat":35.86781,"lon":1.11143,"geocoding":{},"distantMaxMiles":5},"Djidiouia":{"countryName":"Algeria","stateName":"Relizane","name":"Djidiouia","lat":35.92989,"lon":0.82871,"geocoding":{},"distantMaxMiles":5},"Mazouna":{"countryName":"Algeria","stateName":"Relizane","name":"Mazouna","lat":36.12232,"lon":0.89865,"geocoding":{},"distantMaxMiles":5},"Oued Rhiou":{"countryName":"Algeria","stateName":"Relizane","name":"Oued Rhiou","lat":35.96124,"lon":0.91896,"geocoding":{},"distantMaxMiles":5},"Relizane":{"countryName":"Algeria","stateName":"Relizane","name":"Relizane","lat":35.73734,"lon":0.55599,"geocoding":{},"distantMaxMiles":5},"Smala":{"countryName":"Algeria","stateName":"Relizane","name":"Smala","lat":35.71652,"lon":0.75437,"geocoding":{},"distantMaxMiles":5},"Zemoura":{"countryName":"Algeria","stateName":"Relizane","name":"Zemoura","lat":35.72251,"lon":0.75509,"geocoding":{},"distantMaxMiles":5},"’Aïn Merane":{"countryName":"Algeria","stateName":"Relizane","name":"’Aïn Merane","lat":36.16277,"lon":0.97037,"geocoding":{},"distantMaxMiles":5}}},"Saïda":{"countryName":"Algeria","name":"Saïda","isoCode":"20","lat":34.8415207,"lon":0.1456055,"geocoding":{},"distantMaxMiles":5,"cities":{"Saïda":{"countryName":"Algeria","stateName":"Saïda","name":"Saïda","lat":34.83033,"lon":0.15171,"geocoding":{},"distantMaxMiles":5},"’Aïn el Hadjar":{"countryName":"Algeria","stateName":"Saïda","name":"’Aïn el Hadjar","lat":34.75846,"lon":0.14528,"geocoding":{},"distantMaxMiles":5}}},"Sidi Bel Abbès":{"countryName":"Algeria","name":"Sidi Bel Abbès","isoCode":"22","lat":34.6806024,"lon":-1.0999495,"geocoding":{},"distantMaxMiles":5,"cities":{"Aïn El Berd District":{"countryName":"Algeria","stateName":"Sidi Bel Abbès","name":"Aïn El Berd District","lat":35.35,"lon":-0.51667,"geocoding":{},"distantMaxMiles":5},"Balidat Ameur":{"countryName":"Algeria","stateName":"Sidi Bel Abbès","name":"Balidat Ameur","lat":32.951389,"lon":5.980556,"geocoding":{},"distantMaxMiles":5},"Belarbi":{"countryName":"Algeria","stateName":"Sidi Bel Abbès","name":"Belarbi","lat":35.1514948,"lon":-0.4567909,"geocoding":{},"distantMaxMiles":5},"Ben Badis, Sid Bel Abbés":{"countryName":"Algeria","stateName":"Sidi Bel Abbès","name":"Ben Badis, Sid Bel Abbés","lat":34.95277778,"lon":-0.91444444,"geocoding":{},"distantMaxMiles":5},"Djamaa":{"countryName":"Algeria","stateName":"Sidi Bel Abbès","name":"Djamaa","lat":33.5313787,"lon":5.9909821,"geocoding":{},"distantMaxMiles":5},"El Bour":{"countryName":"Algeria","stateName":"Sidi Bel Abbès","name":"El Bour","lat":32.16305556,"lon":5.34527778,"geocoding":{},"distantMaxMiles":5},"El Hadjira":{"countryName":"Algeria","stateName":"Sidi Bel Abbès","name":"El Hadjira","lat":32.61666667,"lon":5.51666667,"geocoding":{},"distantMaxMiles":5},"Haoud El Hamra":{"countryName":"Algeria","stateName":"Sidi Bel Abbès","name":"Haoud El Hamra","lat":31.88944444,"lon":5.97305556,"geocoding":{},"distantMaxMiles":5},"Hassi Messaoud":{"countryName":"Algeria","stateName":"Sidi Bel Abbès","name":"Hassi Messaoud","lat":31.7,"lon":6.06666667,"geocoding":{},"distantMaxMiles":5},"Lamtar":{"countryName":"Algeria","stateName":"Sidi Bel Abbès","name":"Lamtar","lat":35.070627,"lon":-0.79814,"geocoding":{},"distantMaxMiles":5},"Marhoum":{"countryName":"Algeria","stateName":"Sidi Bel Abbès","name":"Marhoum","lat":34.4460042,"lon":-0.1950244,"geocoding":{},"distantMaxMiles":5},"Megarine":{"countryName":"Algeria","stateName":"Sidi Bel Abbès","name":"Megarine","lat":33.1926232,"lon":6.0934639,"geocoding":{},"distantMaxMiles":5},"Merine":{"countryName":"Algeria","stateName":"Sidi Bel Abbès","name":"Merine","lat":34.7807472,"lon":-0.4510403,"geocoding":{},"distantMaxMiles":5},"Mezaourou":{"countryName":"Algeria","stateName":"Sidi Bel Abbès","name":"Mezaourou","lat":34.8173267,"lon":-0.6233189,"geocoding":{},"distantMaxMiles":5},"Moggar":{"countryName":"Algeria","stateName":"Sidi Bel Abbès","name":"Moggar","lat":33.26722222,"lon":6.06777778,"geocoding":{},"distantMaxMiles":5},"Moulay Slissen":{"countryName":"Algeria","stateName":"Sidi Bel Abbès","name":"Moulay Slissen","lat":34.81666667,"lon":-0.76666667,"geocoding":{},"distantMaxMiles":5},"N'Goussa":{"countryName":"Algeria","stateName":"Sidi Bel Abbès","name":"N'Goussa","lat":32.1408797,"lon":5.3082848,"geocoding":{},"distantMaxMiles":5},"Ouargla":{"countryName":"Algeria","stateName":"Sidi Bel Abbès","name":"Ouargla","lat":31.95,"lon":5.31666667,"geocoding":{},"distantMaxMiles":5},"Rouissat":{"countryName":"Algeria","stateName":"Sidi Bel Abbès","name":"Rouissat","lat":31.936576,"lon":5.3354073,"geocoding":{},"distantMaxMiles":5},"Sfissef":{"countryName":"Algeria","stateName":"Sidi Bel Abbès","name":"Sfissef","lat":35.2344028,"lon":-0.2434158,"geocoding":{},"distantMaxMiles":5},"Sidi Ali Boussidi":{"countryName":"Algeria","stateName":"Sidi Bel Abbès","name":"Sidi Ali Boussidi","lat":35.1,"lon":-0.83333333,"geocoding":{},"distantMaxMiles":5},"Sidi Amrane":{"countryName":"Algeria","stateName":"Sidi Bel Abbès","name":"Sidi Amrane","lat":33.5,"lon":6.01666667,"geocoding":{},"distantMaxMiles":5},"Sidi Bel Abbès":{"countryName":"Algeria","stateName":"Sidi Bel Abbès","name":"Sidi Bel Abbès","lat":35.2,"lon":-0.63333333,"geocoding":{},"distantMaxMiles":5},"Sidi Brahim":{"countryName":"Algeria","stateName":"Sidi Bel Abbès","name":"Sidi Brahim","lat":35.260556,"lon":-0.5675,"geocoding":{},"distantMaxMiles":5},"Sidi Hamadouche":{"countryName":"Algeria","stateName":"Sidi Bel Abbès","name":"Sidi Hamadouche","lat":35.29916667,"lon":-0.54888889,"geocoding":{},"distantMaxMiles":5},"Sidi Slimane":{"countryName":"Algeria","stateName":"Sidi Bel Abbès","name":"Sidi Slimane","lat":33.28861111,"lon":6.09472222,"geocoding":{},"distantMaxMiles":5},"Sidi Yacoub":{"countryName":"Algeria","stateName":"Sidi Bel Abbès","name":"Sidi Yacoub","lat":35.13333333,"lon":-0.78333333,"geocoding":{},"distantMaxMiles":5},"Sidi Yahia":{"countryName":"Algeria","stateName":"Sidi Bel Abbès","name":"Sidi Yahia","lat":33.52166667,"lon":5.94555556,"geocoding":{},"distantMaxMiles":5},"Tabia, Sid Bel Abbés":{"countryName":"Algeria","stateName":"Sidi Bel Abbès","name":"Tabia, Sid Bel Abbés","lat":35.0178366,"lon":-0.7338524,"geocoding":{},"distantMaxMiles":5},"Taibet":{"countryName":"Algeria","stateName":"Sidi Bel Abbès","name":"Taibet","lat":33.0839189,"lon":6.3999653,"geocoding":{},"distantMaxMiles":5},"Tamellaht":{"countryName":"Algeria","stateName":"Sidi Bel Abbès","name":"Tamellaht","lat":33.0119,"lon":6.00972,"geocoding":{},"distantMaxMiles":5},"Tamerna Djedida":{"countryName":"Algeria","stateName":"Sidi Bel Abbès","name":"Tamerna Djedida","lat":33.4464,"lon":5.95639,"geocoding":{},"distantMaxMiles":5},"Tebesbest":{"countryName":"Algeria","stateName":"Sidi Bel Abbès","name":"Tebesbest","lat":33.1200129,"lon":6.0800743,"geocoding":{},"distantMaxMiles":5},"Teghalimet":{"countryName":"Algeria","stateName":"Sidi Bel Abbès","name":"Teghalimet","lat":34.882833,"lon":-0.5600023,"geocoding":{},"distantMaxMiles":5},"Telagh":{"countryName":"Algeria","stateName":"Sidi Bel Abbès","name":"Telagh","lat":34.7849064,"lon":-0.5731773,"geocoding":{},"distantMaxMiles":5},"Tenezara":{"countryName":"Algeria","stateName":"Sidi Bel Abbès","name":"Tenezara","lat":34.9634117,"lon":-0.6144619,"geocoding":{},"distantMaxMiles":5},"Tenira":{"countryName":"Algeria","stateName":"Sidi Bel Abbès","name":"Tenira","lat":35.0196642,"lon":-0.5320644,"geocoding":{},"distantMaxMiles":5},"Tessala":{"countryName":"Algeria","stateName":"Sidi Bel Abbès","name":"Tessala","lat":35.243,"lon":-0.773163,"geocoding":{},"distantMaxMiles":5},"Touggourt":{"countryName":"Algeria","stateName":"Sidi Bel Abbès","name":"Touggourt","lat":33.1,"lon":6.06666667,"geocoding":{},"distantMaxMiles":5},"Zerouala":{"countryName":"Algeria","stateName":"Sidi Bel Abbès","name":"Zerouala","lat":35.2423245,"lon":-0.5221939,"geocoding":{},"distantMaxMiles":5}}},"Skikda":{"countryName":"Algeria","name":"Skikda","isoCode":"21","lat":36.6721198,"lon":6.8350999,"geocoding":{},"distantMaxMiles":5,"cities":{"Azzaba":{"countryName":"Algeria","stateName":"Skikda","name":"Azzaba","lat":36.73944,"lon":7.10528,"geocoding":{},"distantMaxMiles":5},"Karkira":{"countryName":"Algeria","stateName":"Skikda","name":"Karkira","lat":36.92917,"lon":6.58556,"geocoding":{},"distantMaxMiles":5},"Skikda":{"countryName":"Algeria","stateName":"Skikda","name":"Skikda","lat":36.87617,"lon":6.90921,"geocoding":{},"distantMaxMiles":5},"Tamalous":{"countryName":"Algeria","stateName":"Skikda","name":"Tamalous","lat":36.83763,"lon":6.64018,"geocoding":{},"distantMaxMiles":5}}},"Souk Ahras":{"countryName":"Algeria","name":"Souk Ahras","isoCode":"41","lat":36.2801062,"lon":7.9384033,"geocoding":{},"distantMaxMiles":5,"cities":{"Sedrata":{"countryName":"Algeria","stateName":"Souk Ahras","name":"Sedrata","lat":36.12868,"lon":7.53376,"geocoding":{},"distantMaxMiles":5},"Souk Ahras":{"countryName":"Algeria","stateName":"Souk Ahras","name":"Souk Ahras","lat":36.28639,"lon":7.95111,"geocoding":{},"distantMaxMiles":5}}},"Sétif":{"countryName":"Algeria","name":"Sétif","isoCode":"19","lat":36.3073389,"lon":5.5617279,"geocoding":{},"distantMaxMiles":5,"cities":{"Aïn Arnat":{"countryName":"Algeria","stateName":"Sétif","name":"Aïn Arnat","lat":36.18683,"lon":5.31347,"geocoding":{},"distantMaxMiles":5},"BABOR - VILLE":{"countryName":"Algeria","stateName":"Sétif","name":"BABOR - VILLE","lat":36.48994,"lon":5.5393,"geocoding":{},"distantMaxMiles":5},"Bougaa":{"countryName":"Algeria","stateName":"Sétif","name":"Bougaa","lat":36.33293,"lon":5.08843,"geocoding":{},"distantMaxMiles":5},"El Eulma":{"countryName":"Algeria","stateName":"Sétif","name":"El Eulma","lat":36.15281,"lon":5.69016,"geocoding":{},"distantMaxMiles":5},"Salah Bey":{"countryName":"Algeria","stateName":"Sétif","name":"Salah Bey","lat":35.85451,"lon":5.29053,"geocoding":{},"distantMaxMiles":5},"Sétif":{"countryName":"Algeria","stateName":"Sétif","name":"Sétif","lat":36.19112,"lon":5.41373,"geocoding":{},"distantMaxMiles":5}}},"Tamanghasset":{"countryName":"Algeria","name":"Tamanghasset","isoCode":"11","lat":22.7902972,"lon":5.5193268,"geocoding":{},"distantMaxMiles":5,"cities":{"I-n-Salah":{"countryName":"Algeria","stateName":"Tamanghasset","name":"I-n-Salah","lat":27.19351,"lon":2.46069,"geocoding":{},"distantMaxMiles":5},"Tamanrasset":{"countryName":"Algeria","stateName":"Tamanghasset","name":"Tamanrasset","lat":22.785,"lon":5.52278,"geocoding":{},"distantMaxMiles":5}}},"Tiaret":{"countryName":"Algeria","name":"Tiaret","isoCode":"14","lat":35.3708689,"lon":1.3217852,"geocoding":{},"distantMaxMiles":5,"cities":{"Djebilet Rosfa":{"countryName":"Algeria","stateName":"Tiaret","name":"Djebilet Rosfa","lat":34.86375,"lon":0.83496,"geocoding":{},"distantMaxMiles":5},"Frenda":{"countryName":"Algeria","stateName":"Tiaret","name":"Frenda","lat":35.06544,"lon":1.04945,"geocoding":{},"distantMaxMiles":5},"Ksar Chellala":{"countryName":"Algeria","stateName":"Tiaret","name":"Ksar Chellala","lat":35.21222,"lon":2.31889,"geocoding":{},"distantMaxMiles":5},"Mehdia daira de meghila":{"countryName":"Algeria","stateName":"Tiaret","name":"Mehdia daira de meghila","lat":35.43058,"lon":1.75714,"geocoding":{},"distantMaxMiles":5},"Sougueur":{"countryName":"Algeria","stateName":"Tiaret","name":"Sougueur","lat":35.18568,"lon":1.49612,"geocoding":{},"distantMaxMiles":5},"Tiaret":{"countryName":"Algeria","stateName":"Tiaret","name":"Tiaret","lat":35.37103,"lon":1.31699,"geocoding":{},"distantMaxMiles":5},"’Aïn Deheb":{"countryName":"Algeria","stateName":"Tiaret","name":"’Aïn Deheb","lat":34.84218,"lon":1.54697,"geocoding":{},"distantMaxMiles":5}}},"Timimoun":{"countryName":"Algeria","name":"Timimoun","isoCode":"54","lat":29.678906,"lon":0.5004608,"geocoding":{},"distantMaxMiles":5,"cities":{}},"Tindouf":{"countryName":"Algeria","name":"Tindouf","isoCode":"37","lat":27.8063119,"lon":-5.7299821,"geocoding":{},"distantMaxMiles":5,"cities":{"Tindouf":{"countryName":"Algeria","stateName":"Tindouf","name":"Tindouf","lat":27.67111,"lon":-8.14743,"geocoding":{},"distantMaxMiles":5}}},"Tipasa":{"countryName":"Algeria","name":"Tipasa","isoCode":"42","lat":36.546265,"lon":2.1843285,"geocoding":{},"distantMaxMiles":5,"cities":{"Baraki":{"countryName":"Algeria","stateName":"Tipasa","name":"Baraki","lat":36.66655,"lon":3.09606,"geocoding":{},"distantMaxMiles":5},"Bou Ismaïl":{"countryName":"Algeria","stateName":"Tipasa","name":"Bou Ismaïl","lat":36.64262,"lon":2.69007,"geocoding":{},"distantMaxMiles":5},"Cheraga":{"countryName":"Algeria","stateName":"Tipasa","name":"Cheraga","lat":36.76775,"lon":2.95924,"geocoding":{},"distantMaxMiles":5},"Douera":{"countryName":"Algeria","stateName":"Tipasa","name":"Douera","lat":36.67,"lon":2.94444,"geocoding":{},"distantMaxMiles":5},"El Affroun":{"countryName":"Algeria","stateName":"Tipasa","name":"El Affroun","lat":36.4701,"lon":2.62528,"geocoding":{},"distantMaxMiles":5},"Hadjout":{"countryName":"Algeria","stateName":"Tipasa","name":"Hadjout","lat":36.51257,"lon":2.41382,"geocoding":{},"distantMaxMiles":5},"Kolea":{"countryName":"Algeria","stateName":"Tipasa","name":"Kolea","lat":36.63888,"lon":2.76845,"geocoding":{},"distantMaxMiles":5},"Mouzaïa":{"countryName":"Algeria","stateName":"Tipasa","name":"Mouzaïa","lat":36.46695,"lon":2.68991,"geocoding":{},"distantMaxMiles":5},"Oued el Alleug":{"countryName":"Algeria","stateName":"Tipasa","name":"Oued el Alleug","lat":36.55528,"lon":2.79028,"geocoding":{},"distantMaxMiles":5},"Saoula":{"countryName":"Algeria","stateName":"Tipasa","name":"Saoula","lat":36.70456,"lon":3.02462,"geocoding":{},"distantMaxMiles":5},"Tipasa":{"countryName":"Algeria","stateName":"Tipasa","name":"Tipasa","lat":36.58972,"lon":2.4475,"geocoding":{},"distantMaxMiles":5},"Zeralda":{"countryName":"Algeria","stateName":"Tipasa","name":"Zeralda","lat":36.71169,"lon":2.84244,"geocoding":{},"distantMaxMiles":5},"’Aïn Benian":{"countryName":"Algeria","stateName":"Tipasa","name":"’Aïn Benian","lat":36.80277,"lon":2.92185,"geocoding":{},"distantMaxMiles":5}}},"Tissemsilt":{"countryName":"Algeria","name":"Tissemsilt","isoCode":"38","lat":35.6053781,"lon":1.813098,"geocoding":{},"distantMaxMiles":5,"cities":{"Lardjem":{"countryName":"Algeria","stateName":"Tissemsilt","name":"Lardjem","lat":35.74922,"lon":1.54778,"geocoding":{},"distantMaxMiles":5},"Tissemsilt":{"countryName":"Algeria","stateName":"Tissemsilt","name":"Tissemsilt","lat":35.60722,"lon":1.81081,"geocoding":{},"distantMaxMiles":5}}},"Tizi Ouzou":{"countryName":"Algeria","name":"Tizi Ouzou","isoCode":"15","lat":36.706911,"lon":4.2333355,"geocoding":{},"distantMaxMiles":5,"cities":{"Arhribs":{"countryName":"Algeria","stateName":"Tizi Ouzou","name":"Arhribs","lat":36.79361,"lon":4.31158,"geocoding":{},"distantMaxMiles":5},"Azazga":{"countryName":"Algeria","stateName":"Tizi Ouzou","name":"Azazga","lat":36.74472,"lon":4.37222,"geocoding":{},"distantMaxMiles":5},"Beni Douala":{"countryName":"Algeria","stateName":"Tizi Ouzou","name":"Beni Douala","lat":36.61954,"lon":4.08282,"geocoding":{},"distantMaxMiles":5},"Boghni":{"countryName":"Algeria","stateName":"Tizi Ouzou","name":"Boghni","lat":36.54222,"lon":3.95306,"geocoding":{},"distantMaxMiles":5},"Boudjima":{"countryName":"Algeria","stateName":"Tizi Ouzou","name":"Boudjima","lat":36.80218,"lon":4.15187,"geocoding":{},"distantMaxMiles":5},"Chemini":{"countryName":"Algeria","stateName":"Tizi Ouzou","name":"Chemini","lat":36.6,"lon":4.61667,"geocoding":{},"distantMaxMiles":5},"Draa Ben Khedda":{"countryName":"Algeria","stateName":"Tizi Ouzou","name":"Draa Ben Khedda","lat":36.73436,"lon":3.96223,"geocoding":{},"distantMaxMiles":5},"Freha":{"countryName":"Algeria","stateName":"Tizi Ouzou","name":"Freha","lat":36.75234,"lon":4.3155,"geocoding":{},"distantMaxMiles":5},"Ighram":{"countryName":"Algeria","stateName":"Tizi Ouzou","name":"Ighram","lat":36.46295,"lon":4.50532,"geocoding":{},"distantMaxMiles":5},"L’Arbaa Naït Irathen":{"countryName":"Algeria","stateName":"Tizi Ouzou","name":"L’Arbaa Naït Irathen","lat":36.63112,"lon":4.19864,"geocoding":{},"distantMaxMiles":5},"Mekla":{"countryName":"Algeria","stateName":"Tizi Ouzou","name":"Mekla","lat":36.68178,"lon":4.26378,"geocoding":{},"distantMaxMiles":5},"Timizart":{"countryName":"Algeria","stateName":"Tizi Ouzou","name":"Timizart","lat":36.8,"lon":4.26667,"geocoding":{},"distantMaxMiles":5},"Tirmitine":{"countryName":"Algeria","stateName":"Tizi Ouzou","name":"Tirmitine","lat":36.65393,"lon":3.98143,"geocoding":{},"distantMaxMiles":5},"Tizi Ouzou":{"countryName":"Algeria","stateName":"Tizi Ouzou","name":"Tizi Ouzou","lat":36.71182,"lon":4.04591,"geocoding":{},"distantMaxMiles":5},"Tizi Rached":{"countryName":"Algeria","stateName":"Tizi Ouzou","name":"Tizi Rached","lat":36.67176,"lon":4.19176,"geocoding":{},"distantMaxMiles":5},"Tizi-n-Tleta":{"countryName":"Algeria","stateName":"Tizi Ouzou","name":"Tizi-n-Tleta","lat":36.54569,"lon":4.05712,"geocoding":{},"distantMaxMiles":5},"’Aïn el Hammam":{"countryName":"Algeria","stateName":"Tizi Ouzou","name":"’Aïn el Hammam","lat":36.56471,"lon":4.30619,"geocoding":{},"distantMaxMiles":5}}},"Tlemcen":{"countryName":"Algeria","name":"Tlemcen","isoCode":"13","lat":34.6780284,"lon":-1.366216,"geocoding":{},"distantMaxMiles":5,"cities":{"Beni Mester":{"countryName":"Algeria","stateName":"Tlemcen","name":"Beni Mester","lat":34.87045,"lon":-1.42319,"geocoding":{},"distantMaxMiles":5},"Bensekrane":{"countryName":"Algeria","stateName":"Tlemcen","name":"Bensekrane","lat":35.07465,"lon":-1.22431,"geocoding":{},"distantMaxMiles":5},"Chetouane":{"countryName":"Algeria","stateName":"Tlemcen","name":"Chetouane","lat":34.92129,"lon":-1.29512,"geocoding":{},"distantMaxMiles":5},"Hennaya":{"countryName":"Algeria","stateName":"Tlemcen","name":"Hennaya","lat":34.95139,"lon":-1.36806,"geocoding":{},"distantMaxMiles":5},"Mansoûra":{"countryName":"Algeria","stateName":"Tlemcen","name":"Mansoûra","lat":34.86158,"lon":-1.33935,"geocoding":{},"distantMaxMiles":5},"Nedroma":{"countryName":"Algeria","stateName":"Tlemcen","name":"Nedroma","lat":35.01361,"lon":-1.74799,"geocoding":{},"distantMaxMiles":5},"Ouled Mimoun":{"countryName":"Algeria","stateName":"Tlemcen","name":"Ouled Mimoun","lat":34.90472,"lon":-1.03394,"geocoding":{},"distantMaxMiles":5},"Remchi":{"countryName":"Algeria","stateName":"Tlemcen","name":"Remchi","lat":35.06196,"lon":-1.43362,"geocoding":{},"distantMaxMiles":5},"Sebdou":{"countryName":"Algeria","stateName":"Tlemcen","name":"Sebdou","lat":34.63703,"lon":-1.33143,"geocoding":{},"distantMaxMiles":5},"Sidi Abdelli":{"countryName":"Algeria","stateName":"Tlemcen","name":"Sidi Abdelli","lat":35.06937,"lon":-1.13706,"geocoding":{},"distantMaxMiles":5},"Sidi Senoussi سيدي سنوسي":{"countryName":"Algeria","stateName":"Tlemcen","name":"Sidi Senoussi سيدي سنوسي","lat":34.99691,"lon":-1.09449,"geocoding":{},"distantMaxMiles":5},"Tlemcen":{"countryName":"Algeria","stateName":"Tlemcen","name":"Tlemcen","lat":34.87833,"lon":-1.315,"geocoding":{},"distantMaxMiles":5}}},"Touggourt":{"countryName":"Algeria","name":"Touggourt","isoCode":"55","lat":33.1248476,"lon":5.7832715,"geocoding":{},"distantMaxMiles":5,"cities":{}},"Tébessa":{"countryName":"Algeria","name":"Tébessa","isoCode":"12","lat":35.1290691,"lon":7.9592863,"geocoding":{},"distantMaxMiles":5,"cities":{"Bir el Ater":{"countryName":"Algeria","stateName":"Tébessa","name":"Bir el Ater","lat":34.74488,"lon":8.06024,"geocoding":{},"distantMaxMiles":5},"Cheria":{"countryName":"Algeria","stateName":"Tébessa","name":"Cheria","lat":35.27306,"lon":7.75194,"geocoding":{},"distantMaxMiles":5},"Hammamet":{"countryName":"Algeria","stateName":"Tébessa","name":"Hammamet","lat":35.44862,"lon":7.95184,"geocoding":{},"distantMaxMiles":5},"Tébessa":{"countryName":"Algeria","stateName":"Tébessa","name":"Tébessa","lat":35.40417,"lon":8.12417,"geocoding":{},"distantMaxMiles":5}}}}}