{"name":"South Korea","isoCode":"KR","lat":37,"lon":127.5,"geocoding":{},"distantMaxMiles":5,"states":{"Busan":{"countryName":"South Korea","name":"Busan","isoCode":"26","lat":35.1795543,"lon":129.0756416,"geocoding":{},"distantMaxMiles":5,"cities":{"Buk-gu":{"countryName":"South Korea","stateName":"Busan","name":"Buk-gu","lat":35.19724,"lon":128.99134,"geocoding":{},"distantMaxMiles":5},"Busan":{"countryName":"South Korea","stateName":"Busan","name":"Busan","lat":35.10168,"lon":129.03004,"geocoding":{},"distantMaxMiles":5},"Dongnae-gu":{"countryName":"South Korea","stateName":"Busan","name":"Dongnae-gu","lat":35.20447,"lon":129.078,"geocoding":{},"distantMaxMiles":5},"Gangseo-gu":{"countryName":"South Korea","stateName":"Busan","name":"Gangseo-gu","lat":35.1593,"lon":128.933,"geocoding":{},"distantMaxMiles":5},"Geumjeong-gu":{"countryName":"South Korea","stateName":"Busan","name":"Geumjeong-gu","lat":35.25863,"lon":129.0901,"geocoding":{},"distantMaxMiles":5},"Gijang":{"countryName":"South Korea","stateName":"Busan","name":"Gijang","lat":35.24417,"lon":129.21389,"geocoding":{},"distantMaxMiles":5},"Gijang-gun":{"countryName":"South Korea","stateName":"Busan","name":"Gijang-gun","lat":35.29721,"lon":129.20076,"geocoding":{},"distantMaxMiles":5},"Haeundae-gu":{"countryName":"South Korea","stateName":"Busan","name":"Haeundae-gu","lat":35.16665,"lon":129.16792,"geocoding":{},"distantMaxMiles":5},"Jung-gu":{"countryName":"South Korea","stateName":"Busan","name":"Jung-gu","lat":35.10594,"lon":129.03331,"geocoding":{},"distantMaxMiles":5},"Nam-gu":{"countryName":"South Korea","stateName":"Busan","name":"Nam-gu","lat":35.13648,"lon":129.08266,"geocoding":{},"distantMaxMiles":5},"Saha-gu":{"countryName":"South Korea","stateName":"Busan","name":"Saha-gu","lat":35.08552,"lon":128.98725,"geocoding":{},"distantMaxMiles":5},"Sasang-gu":{"countryName":"South Korea","stateName":"Busan","name":"Sasang-gu","lat":35.14479,"lon":128.97986,"geocoding":{},"distantMaxMiles":5},"Seo-gu":{"countryName":"South Korea","stateName":"Busan","name":"Seo-gu","lat":35.12529,"lon":129.01946,"geocoding":{},"distantMaxMiles":5},"Suyeong-gu":{"countryName":"South Korea","stateName":"Busan","name":"Suyeong-gu","lat":35.15627,"lon":129.11253,"geocoding":{},"distantMaxMiles":5},"Yeongdo-gu":{"countryName":"South Korea","stateName":"Busan","name":"Yeongdo-gu","lat":35.07849,"lon":129.06483,"geocoding":{},"distantMaxMiles":5}}},"Daegu":{"countryName":"South Korea","name":"Daegu","isoCode":"27","lat":35.8714354,"lon":128.601445,"geocoding":{},"distantMaxMiles":5,"cities":{"Daegu":{"countryName":"South Korea","stateName":"Daegu","name":"Daegu","lat":35.87028,"lon":128.59111,"geocoding":{},"distantMaxMiles":5},"Dalseo-gu":{"countryName":"South Korea","stateName":"Daegu","name":"Dalseo-gu","lat":35.82569,"lon":128.52403,"geocoding":{},"distantMaxMiles":5},"Dalseong-gun":{"countryName":"South Korea","stateName":"Daegu","name":"Dalseong-gun","lat":35.77467,"lon":128.42955,"geocoding":{},"distantMaxMiles":5},"Dong-gu":{"countryName":"South Korea","stateName":"Daegu","name":"Dong-gu","lat":35.88566,"lon":128.63296,"geocoding":{},"distantMaxMiles":5},"Hwawŏn":{"countryName":"South Korea","stateName":"Daegu","name":"Hwawŏn","lat":35.80167,"lon":128.50083,"geocoding":{},"distantMaxMiles":5},"Jung-gu":{"countryName":"South Korea","stateName":"Daegu","name":"Jung-gu","lat":35.86678,"lon":128.59538,"geocoding":{},"distantMaxMiles":5},"Seo-gu":{"countryName":"South Korea","stateName":"Daegu","name":"Seo-gu","lat":35.87465,"lon":128.55109,"geocoding":{},"distantMaxMiles":5},"Suseong-gu":{"countryName":"South Korea","stateName":"Daegu","name":"Suseong-gu","lat":35.85905,"lon":128.62625,"geocoding":{},"distantMaxMiles":5}}},"Daejeon":{"countryName":"South Korea","name":"Daejeon","isoCode":"30","lat":36.3504119,"lon":127.3845475,"geocoding":{},"distantMaxMiles":5,"cities":{"Daejeon":{"countryName":"South Korea","stateName":"Daejeon","name":"Daejeon","lat":36.34913,"lon":127.38493,"geocoding":{},"distantMaxMiles":5},"Seo-gu":{"countryName":"South Korea","stateName":"Daejeon","name":"Seo-gu","lat":36.27211,"lon":127.331,"geocoding":{},"distantMaxMiles":5},"Sintansin":{"countryName":"South Korea","stateName":"Daejeon","name":"Sintansin","lat":36.45361,"lon":127.43111,"geocoding":{},"distantMaxMiles":5},"Songgangdong":{"countryName":"South Korea","stateName":"Daejeon","name":"Songgangdong","lat":36.43387,"lon":127.37587,"geocoding":{},"distantMaxMiles":5},"Yuseong-gu":{"countryName":"South Korea","stateName":"Daejeon","name":"Yuseong-gu","lat":36.36685,"lon":127.327,"geocoding":{},"distantMaxMiles":5}}},"Gangwon Province":{"countryName":"South Korea","name":"Gangwon Province","isoCode":"42","lat":37.8228,"lon":128.1555,"geocoding":{},"distantMaxMiles":5,"cities":{"Cheorwon-gun":{"countryName":"South Korea","stateName":"Gangwon Province","name":"Cheorwon-gun","lat":38.24391,"lon":127.44522,"geocoding":{},"distantMaxMiles":5},"Chuncheon":{"countryName":"South Korea","stateName":"Gangwon Province","name":"Chuncheon","lat":37.87472,"lon":127.73417,"geocoding":{},"distantMaxMiles":5},"Chuncheon-si":{"countryName":"South Korea","stateName":"Gangwon Province","name":"Chuncheon-si","lat":37.88048,"lon":127.72776,"geocoding":{},"distantMaxMiles":5},"Donghae-si":{"countryName":"South Korea","stateName":"Gangwon Province","name":"Donghae-si","lat":37.52345,"lon":129.11357,"geocoding":{},"distantMaxMiles":5},"Gangneung":{"countryName":"South Korea","stateName":"Gangwon Province","name":"Gangneung","lat":37.75266,"lon":128.87239,"geocoding":{},"distantMaxMiles":5},"Gangneung-si":{"countryName":"South Korea","stateName":"Gangwon Province","name":"Gangneung-si","lat":37.7519,"lon":128.87825,"geocoding":{},"distantMaxMiles":5},"Goseong-gun":{"countryName":"South Korea","stateName":"Gangwon Province","name":"Goseong-gun","lat":38.37945,"lon":128.46755,"geocoding":{},"distantMaxMiles":5},"Hoengseong-gun":{"countryName":"South Korea","stateName":"Gangwon Province","name":"Hoengseong-gun","lat":37.48817,"lon":127.9857,"geocoding":{},"distantMaxMiles":5},"Hongcheon-gun":{"countryName":"South Korea","stateName":"Gangwon Province","name":"Hongcheon-gun","lat":37.76058,"lon":128.02823,"geocoding":{},"distantMaxMiles":5},"Hongch’ŏn":{"countryName":"South Korea","stateName":"Gangwon Province","name":"Hongch’ŏn","lat":37.6918,"lon":127.8857,"geocoding":{},"distantMaxMiles":5},"Hwacheon":{"countryName":"South Korea","stateName":"Gangwon Province","name":"Hwacheon","lat":38.10705,"lon":127.70632,"geocoding":{},"distantMaxMiles":5},"Hwacheon-gun":{"countryName":"South Korea","stateName":"Gangwon Province","name":"Hwacheon-gun","lat":38.14212,"lon":127.67615,"geocoding":{},"distantMaxMiles":5},"Inje-gun":{"countryName":"South Korea","stateName":"Gangwon Province","name":"Inje-gun","lat":38.04416,"lon":128.27876,"geocoding":{},"distantMaxMiles":5},"Jeongseon-gun":{"countryName":"South Korea","stateName":"Gangwon Province","name":"Jeongseon-gun","lat":37.38911,"lon":128.72995,"geocoding":{},"distantMaxMiles":5},"Kosong":{"countryName":"South Korea","stateName":"Gangwon Province","name":"Kosong","lat":38.37881,"lon":128.4676,"geocoding":{},"distantMaxMiles":5},"Neietsu":{"countryName":"South Korea","stateName":"Gangwon Province","name":"Neietsu","lat":37.18447,"lon":128.46821,"geocoding":{},"distantMaxMiles":5},"Pyeongchang":{"countryName":"South Korea","stateName":"Gangwon Province","name":"Pyeongchang","lat":37.37028,"lon":128.39306,"geocoding":{},"distantMaxMiles":5},"Pyeongchang-gun":{"countryName":"South Korea","stateName":"Gangwon Province","name":"Pyeongchang-gun","lat":37.3682,"lon":128.3955,"geocoding":{},"distantMaxMiles":5},"Samcheok-si":{"countryName":"South Korea","stateName":"Gangwon Province","name":"Samcheok-si","lat":37.45013,"lon":129.16626,"geocoding":{},"distantMaxMiles":5},"Santyoku":{"countryName":"South Korea","stateName":"Gangwon Province","name":"Santyoku","lat":37.44056,"lon":129.17083,"geocoding":{},"distantMaxMiles":5},"Sokcho":{"countryName":"South Korea","stateName":"Gangwon Province","name":"Sokcho","lat":38.20701,"lon":128.59181,"geocoding":{},"distantMaxMiles":5},"Sokcho-si":{"countryName":"South Korea","stateName":"Gangwon Province","name":"Sokcho-si","lat":38.20725,"lon":128.59275,"geocoding":{},"distantMaxMiles":5},"Taebaek-si":{"countryName":"South Korea","stateName":"Gangwon Province","name":"Taebaek-si","lat":37.1652,"lon":128.9857,"geocoding":{},"distantMaxMiles":5},"Tonghae":{"countryName":"South Korea","stateName":"Gangwon Province","name":"Tonghae","lat":37.54389,"lon":129.10694,"geocoding":{},"distantMaxMiles":5},"T’aebaek":{"countryName":"South Korea","stateName":"Gangwon Province","name":"T’aebaek","lat":37.1759,"lon":128.9889,"geocoding":{},"distantMaxMiles":5},"Wonju-si":{"countryName":"South Korea","stateName":"Gangwon Province","name":"Wonju-si","lat":37.32104,"lon":127.92132,"geocoding":{},"distantMaxMiles":5},"Wŏnju":{"countryName":"South Korea","stateName":"Gangwon Province","name":"Wŏnju","lat":37.35139,"lon":127.94528,"geocoding":{},"distantMaxMiles":5},"Yanggu":{"countryName":"South Korea","stateName":"Gangwon Province","name":"Yanggu","lat":38.10583,"lon":127.98944,"geocoding":{},"distantMaxMiles":5},"Yanggu-gun":{"countryName":"South Korea","stateName":"Gangwon Province","name":"Yanggu-gun","lat":38.1016,"lon":127.98555,"geocoding":{},"distantMaxMiles":5},"Yangyang-gun":{"countryName":"South Korea","stateName":"Gangwon Province","name":"Yangyang-gun","lat":38.06215,"lon":128.61471,"geocoding":{},"distantMaxMiles":5}}},"Gwangju":{"countryName":"South Korea","name":"Gwangju","isoCode":"29","lat":35.1595454,"lon":126.8526012,"geocoding":{},"distantMaxMiles":5,"cities":{"Gwangju":{"countryName":"South Korea","stateName":"Gwangju","name":"Gwangju","lat":35.15472,"lon":126.91556,"geocoding":{},"distantMaxMiles":5},"Gwangsan-gu":{"countryName":"South Korea","stateName":"Gwangju","name":"Gwangsan-gu","lat":35.16158,"lon":126.8081,"geocoding":{},"distantMaxMiles":5},"Masan":{"countryName":"South Korea","stateName":"Gwangju","name":"Masan","lat":35.12725,"lon":126.83149,"geocoding":{},"distantMaxMiles":5}}},"Gyeonggi Province":{"countryName":"South Korea","name":"Gyeonggi Province","isoCode":"41","lat":37.4138,"lon":127.5183,"geocoding":{},"distantMaxMiles":5,"cities":{"Ansan-si":{"countryName":"South Korea","stateName":"Gyeonggi Province","name":"Ansan-si","lat":37.32361,"lon":126.82194,"geocoding":{},"distantMaxMiles":5},"Anseong":{"countryName":"South Korea","stateName":"Gyeonggi Province","name":"Anseong","lat":37.01083,"lon":127.27028,"geocoding":{},"distantMaxMiles":5},"Anyang-si":{"countryName":"South Korea","stateName":"Gyeonggi Province","name":"Anyang-si","lat":37.3925,"lon":126.92694,"geocoding":{},"distantMaxMiles":5},"Bucheon-si":{"countryName":"South Korea","stateName":"Gyeonggi Province","name":"Bucheon-si","lat":37.5044,"lon":126.76625,"geocoding":{},"distantMaxMiles":5},"Dongducheon":{"countryName":"South Korea","stateName":"Gyeonggi Province","name":"Dongducheon","lat":37.91889,"lon":127.06897,"geocoding":{},"distantMaxMiles":5},"Gapyeong":{"countryName":"South Korea","stateName":"Gyeonggi Province","name":"Gapyeong","lat":37.83101,"lon":127.51059,"geocoding":{},"distantMaxMiles":5},"Gapyeong-gun":{"countryName":"South Korea","stateName":"Gyeonggi Province","name":"Gapyeong-gun","lat":37.8308,"lon":127.51522,"geocoding":{},"distantMaxMiles":5},"Gimpo-si":{"countryName":"South Korea","stateName":"Gyeonggi Province","name":"Gimpo-si","lat":37.63637,"lon":126.6927,"geocoding":{},"distantMaxMiles":5},"Goyang-si":{"countryName":"South Korea","stateName":"Gyeonggi Province","name":"Goyang-si","lat":37.65639,"lon":126.835,"geocoding":{},"distantMaxMiles":5},"Gunpo-si":{"countryName":"South Korea","stateName":"Gyeonggi Province","name":"Gunpo-si","lat":37.34261,"lon":126.92149,"geocoding":{},"distantMaxMiles":5},"Guri-si":{"countryName":"South Korea","stateName":"Gyeonggi Province","name":"Guri-si","lat":37.5986,"lon":127.1394,"geocoding":{},"distantMaxMiles":5},"Gwacheon-si":{"countryName":"South Korea","stateName":"Gyeonggi Province","name":"Gwacheon-si","lat":37.43407,"lon":126.99989,"geocoding":{},"distantMaxMiles":5},"Gwangju":{"countryName":"South Korea","stateName":"Gyeonggi Province","name":"Gwangju","lat":37.41,"lon":127.25722,"geocoding":{},"distantMaxMiles":5},"Gwangju-si":{"countryName":"South Korea","stateName":"Gyeonggi Province","name":"Gwangju-si","lat":37.40329,"lon":127.29855,"geocoding":{},"distantMaxMiles":5},"Gwangmyeong-si":{"countryName":"South Korea","stateName":"Gyeonggi Province","name":"Gwangmyeong-si","lat":37.44435,"lon":126.86499,"geocoding":{},"distantMaxMiles":5},"Hanam":{"countryName":"South Korea","stateName":"Gyeonggi Province","name":"Hanam","lat":37.54,"lon":127.20556,"geocoding":{},"distantMaxMiles":5},"Hanam-si":{"countryName":"South Korea","stateName":"Gyeonggi Province","name":"Hanam-si","lat":37.53895,"lon":127.2125,"geocoding":{},"distantMaxMiles":5},"Hwado":{"countryName":"South Korea","stateName":"Gyeonggi Province","name":"Hwado","lat":37.6525,"lon":127.3075,"geocoding":{},"distantMaxMiles":5},"Hwaseong-si":{"countryName":"South Korea","stateName":"Gyeonggi Province","name":"Hwaseong-si","lat":37.20682,"lon":126.8169,"geocoding":{},"distantMaxMiles":5},"Icheon-si":{"countryName":"South Korea","stateName":"Gyeonggi Province","name":"Icheon-si","lat":37.27642,"lon":127.43692,"geocoding":{},"distantMaxMiles":5},"Kwangmyŏng":{"countryName":"South Korea","stateName":"Gyeonggi Province","name":"Kwangmyŏng","lat":37.47722,"lon":126.86639,"geocoding":{},"distantMaxMiles":5},"Munsan":{"countryName":"South Korea","stateName":"Gyeonggi Province","name":"Munsan","lat":37.85944,"lon":126.785,"geocoding":{},"distantMaxMiles":5},"Namyangju":{"countryName":"South Korea","stateName":"Gyeonggi Province","name":"Namyangju","lat":37.63667,"lon":127.21417,"geocoding":{},"distantMaxMiles":5},"Namyangju-si":{"countryName":"South Korea","stateName":"Gyeonggi Province","name":"Namyangju-si","lat":37.65217,"lon":127.2401,"geocoding":{},"distantMaxMiles":5},"Osan":{"countryName":"South Korea","stateName":"Gyeonggi Province","name":"Osan","lat":37.15222,"lon":127.07056,"geocoding":{},"distantMaxMiles":5},"Osan-si":{"countryName":"South Korea","stateName":"Gyeonggi Province","name":"Osan-si","lat":37.1623,"lon":127.05246,"geocoding":{},"distantMaxMiles":5},"Paju-si":{"countryName":"South Korea","stateName":"Gyeonggi Province","name":"Paju-si","lat":37.75952,"lon":126.77772,"geocoding":{},"distantMaxMiles":5},"Pocheon-si":{"countryName":"South Korea","stateName":"Gyeonggi Province","name":"Pocheon-si","lat":37.8937,"lon":127.20028,"geocoding":{},"distantMaxMiles":5},"Pubal":{"countryName":"South Korea","stateName":"Gyeonggi Province","name":"Pubal","lat":37.29167,"lon":127.50778,"geocoding":{},"distantMaxMiles":5},"Pyeongtaek":{"countryName":"South Korea","stateName":"Gyeonggi Province","name":"Pyeongtaek","lat":37.01372,"lon":126.98748,"geocoding":{},"distantMaxMiles":5},"Seongnam-si":{"countryName":"South Korea","stateName":"Gyeonggi Province","name":"Seongnam-si","lat":37.41875,"lon":127.12877,"geocoding":{},"distantMaxMiles":5},"Siheung":{"countryName":"South Korea","stateName":"Gyeonggi Province","name":"Siheung","lat":37.39067,"lon":126.7888,"geocoding":{},"distantMaxMiles":5},"Suwon":{"countryName":"South Korea","stateName":"Gyeonggi Province","name":"Suwon","lat":37.29111,"lon":127.00889,"geocoding":{},"distantMaxMiles":5},"Uijeongbu-si":{"countryName":"South Korea","stateName":"Gyeonggi Province","name":"Uijeongbu-si","lat":37.73865,"lon":127.0477,"geocoding":{},"distantMaxMiles":5},"Uiwang-si":{"countryName":"South Korea","stateName":"Gyeonggi Province","name":"Uiwang-si","lat":37.345,"lon":126.97575,"geocoding":{},"distantMaxMiles":5},"Wabu":{"countryName":"South Korea","stateName":"Gyeonggi Province","name":"Wabu","lat":37.58972,"lon":127.22028,"geocoding":{},"distantMaxMiles":5},"Yangju":{"countryName":"South Korea","stateName":"Gyeonggi Province","name":"Yangju","lat":37.83311,"lon":127.06169,"geocoding":{},"distantMaxMiles":5},"Yangju-si":{"countryName":"South Korea","stateName":"Gyeonggi Province","name":"Yangju-si","lat":37.81732,"lon":127.046,"geocoding":{},"distantMaxMiles":5},"Yangp'yŏng":{"countryName":"South Korea","stateName":"Gyeonggi Province","name":"Yangp'yŏng","lat":37.48972,"lon":127.49056,"geocoding":{},"distantMaxMiles":5},"Yangpyeong-gun":{"countryName":"South Korea","stateName":"Gyeonggi Province","name":"Yangpyeong-gun","lat":37.4888,"lon":127.49222,"geocoding":{},"distantMaxMiles":5},"Yeoju-si":{"countryName":"South Korea","stateName":"Gyeonggi Province","name":"Yeoju-si","lat":37.29562,"lon":127.63668,"geocoding":{},"distantMaxMiles":5},"Yeoncheon-gun":{"countryName":"South Korea","stateName":"Gyeonggi Province","name":"Yeoncheon-gun","lat":38.09404,"lon":127.07577,"geocoding":{},"distantMaxMiles":5},"Yongin-si":{"countryName":"South Korea","stateName":"Gyeonggi Province","name":"Yongin-si","lat":37.23825,"lon":127.17795,"geocoding":{},"distantMaxMiles":5}}},"Incheon":{"countryName":"South Korea","name":"Incheon","isoCode":"28","lat":37.4562557,"lon":126.7052062,"geocoding":{},"distantMaxMiles":5,"cities":{"Bupyeong-gu":{"countryName":"South Korea","stateName":"Incheon","name":"Bupyeong-gu","lat":37.4972,"lon":126.71107,"geocoding":{},"distantMaxMiles":5},"Incheon":{"countryName":"South Korea","stateName":"Incheon","name":"Incheon","lat":37.45646,"lon":126.70515,"geocoding":{},"distantMaxMiles":5},"Michuhol":{"countryName":"South Korea","stateName":"Incheon","name":"Michuhol","lat":37.46362,"lon":126.65,"geocoding":{},"distantMaxMiles":5},"Yeonsu-gu":{"countryName":"South Korea","stateName":"Incheon","name":"Yeonsu-gu","lat":37.41911,"lon":126.66489,"geocoding":{},"distantMaxMiles":5}}},"Jeju":{"countryName":"South Korea","name":"Jeju","isoCode":"49","lat":33.9568278,"lon":-84.13135,"geocoding":{},"distantMaxMiles":5,"cities":{"Gaigeturi":{"countryName":"South Korea","stateName":"Jeju","name":"Gaigeturi","lat":33.46444,"lon":126.31833,"geocoding":{},"distantMaxMiles":5},"Jeju City":{"countryName":"South Korea","stateName":"Jeju","name":"Jeju City","lat":33.50972,"lon":126.52194,"geocoding":{},"distantMaxMiles":5},"Jeju-si":{"countryName":"South Korea","stateName":"Jeju","name":"Jeju-si","lat":33.45578,"lon":126.53928,"geocoding":{},"distantMaxMiles":5},"Seogwipo":{"countryName":"South Korea","stateName":"Jeju","name":"Seogwipo","lat":33.25333,"lon":126.56181,"geocoding":{},"distantMaxMiles":5}}},"North Chungcheong Province":{"countryName":"South Korea","name":"North Chungcheong Province","isoCode":"43","lat":36.8,"lon":127.7,"geocoding":{},"distantMaxMiles":5,"cities":{"Boeun-gun":{"countryName":"South Korea","stateName":"North Chungcheong Province","name":"Boeun-gun","lat":36.49489,"lon":127.72865,"geocoding":{},"distantMaxMiles":5},"Cheongju-si":{"countryName":"South Korea","stateName":"North Chungcheong Province","name":"Cheongju-si","lat":36.63722,"lon":127.48972,"geocoding":{},"distantMaxMiles":5},"Chinch'ŏn":{"countryName":"South Korea","stateName":"North Chungcheong Province","name":"Chinch'ŏn","lat":36.85667,"lon":127.44333,"geocoding":{},"distantMaxMiles":5},"Chungju-si":{"countryName":"South Korea","stateName":"North Chungcheong Province","name":"Chungju-si","lat":37.01791,"lon":127.87713,"geocoding":{},"distantMaxMiles":5},"Danyang-gun":{"countryName":"South Korea","stateName":"North Chungcheong Province","name":"Danyang-gun","lat":36.98615,"lon":128.36945,"geocoding":{},"distantMaxMiles":5},"Eumseong-gun":{"countryName":"South Korea","stateName":"North Chungcheong Province","name":"Eumseong-gun","lat":36.92602,"lon":127.6807,"geocoding":{},"distantMaxMiles":5},"Goesan-gun":{"countryName":"South Korea","stateName":"North Chungcheong Province","name":"Goesan-gun","lat":36.77179,"lon":127.81426,"geocoding":{},"distantMaxMiles":5},"Jecheon-si":{"countryName":"South Korea","stateName":"North Chungcheong Province","name":"Jecheon-si","lat":37.06206,"lon":128.14065,"geocoding":{},"distantMaxMiles":5},"Jeungpyeong-gun":{"countryName":"South Korea","stateName":"North Chungcheong Province","name":"Jeungpyeong-gun","lat":36.78377,"lon":127.59858,"geocoding":{},"distantMaxMiles":5},"Jincheon-gun":{"countryName":"South Korea","stateName":"North Chungcheong Province","name":"Jincheon-gun","lat":36.88281,"lon":127.42768,"geocoding":{},"distantMaxMiles":5},"Koesan":{"countryName":"South Korea","stateName":"North Chungcheong Province","name":"Koesan","lat":36.81083,"lon":127.79472,"geocoding":{},"distantMaxMiles":5},"Okcheon":{"countryName":"South Korea","stateName":"North Chungcheong Province","name":"Okcheon","lat":36.3012,"lon":127.568,"geocoding":{},"distantMaxMiles":5},"Okcheon-gun":{"countryName":"South Korea","stateName":"North Chungcheong Province","name":"Okcheon-gun","lat":36.26642,"lon":127.58324,"geocoding":{},"distantMaxMiles":5},"Yeongdong":{"countryName":"South Korea","stateName":"North Chungcheong Province","name":"Yeongdong","lat":36.175,"lon":127.77639,"geocoding":{},"distantMaxMiles":5},"Yeongdong-gun":{"countryName":"South Korea","stateName":"North Chungcheong Province","name":"Yeongdong-gun","lat":36.21658,"lon":127.79374,"geocoding":{},"distantMaxMiles":5}}},"North Gyeongsang Province":{"countryName":"South Korea","name":"North Gyeongsang Province","isoCode":"47","lat":36.4919,"lon":128.8889,"geocoding":{},"distantMaxMiles":5,"cities":{"Andong":{"countryName":"South Korea","stateName":"North Gyeongsang Province","name":"Andong","lat":36.56636,"lon":128.72275,"geocoding":{},"distantMaxMiles":5},"Andong-si":{"countryName":"South Korea","stateName":"North Gyeongsang Province","name":"Andong-si","lat":36.56667,"lon":128.71667,"geocoding":{},"distantMaxMiles":5},"Bonghwa-gun":{"countryName":"South Korea","stateName":"North Gyeongsang Province","name":"Bonghwa-gun","lat":36.88951,"lon":128.73573,"geocoding":{},"distantMaxMiles":5},"Cheongdo-gun":{"countryName":"South Korea","stateName":"North Gyeongsang Province","name":"Cheongdo-gun","lat":35.67166,"lon":128.78509,"geocoding":{},"distantMaxMiles":5},"Cheongsong gun":{"countryName":"South Korea","stateName":"North Gyeongsang Province","name":"Cheongsong gun","lat":36.43351,"lon":129.057,"geocoding":{},"distantMaxMiles":5},"Cheongsong-gun":{"countryName":"South Korea","stateName":"North Gyeongsang Province","name":"Cheongsong-gun","lat":36.43288,"lon":129.05159,"geocoding":{},"distantMaxMiles":5},"Chilgok-gun":{"countryName":"South Korea","stateName":"North Gyeongsang Province","name":"Chilgok-gun","lat":36.01512,"lon":128.46138,"geocoding":{},"distantMaxMiles":5},"Eisen":{"countryName":"South Korea","stateName":"North Gyeongsang Province","name":"Eisen","lat":36.82167,"lon":128.63083,"geocoding":{},"distantMaxMiles":5},"Gimcheon":{"countryName":"South Korea","stateName":"North Gyeongsang Province","name":"Gimcheon","lat":36.12176,"lon":128.11981,"geocoding":{},"distantMaxMiles":5},"Gimcheon-si":{"countryName":"South Korea","stateName":"North Gyeongsang Province","name":"Gimcheon-si","lat":36.14481,"lon":128.11157,"geocoding":{},"distantMaxMiles":5},"Goryeong-gun":{"countryName":"South Korea","stateName":"North Gyeongsang Province","name":"Goryeong-gun","lat":35.74959,"lon":128.29707,"geocoding":{},"distantMaxMiles":5},"Gumi-si":{"countryName":"South Korea","stateName":"North Gyeongsang Province","name":"Gumi-si","lat":36.21009,"lon":128.35442,"geocoding":{},"distantMaxMiles":5},"Gunwi-gun":{"countryName":"South Korea","stateName":"North Gyeongsang Province","name":"Gunwi-gun","lat":36.16995,"lon":128.64705,"geocoding":{},"distantMaxMiles":5},"Gyeongju":{"countryName":"South Korea","stateName":"North Gyeongsang Province","name":"Gyeongju","lat":35.84278,"lon":129.21167,"geocoding":{},"distantMaxMiles":5},"Gyeongsan-si":{"countryName":"South Korea","stateName":"North Gyeongsang Province","name":"Gyeongsan-si","lat":35.83333,"lon":128.8,"geocoding":{},"distantMaxMiles":5},"Hayang":{"countryName":"South Korea","stateName":"North Gyeongsang Province","name":"Hayang","lat":35.91333,"lon":128.82,"geocoding":{},"distantMaxMiles":5},"Heunghae":{"countryName":"South Korea","stateName":"North Gyeongsang Province","name":"Heunghae","lat":36.10945,"lon":129.34517,"geocoding":{},"distantMaxMiles":5},"Jenzan":{"countryName":"South Korea","stateName":"North Gyeongsang Province","name":"Jenzan","lat":36.24083,"lon":128.2975,"geocoding":{},"distantMaxMiles":5},"Kunwi":{"countryName":"South Korea","stateName":"North Gyeongsang Province","name":"Kunwi","lat":36.23472,"lon":128.57278,"geocoding":{},"distantMaxMiles":5},"Mungyeong":{"countryName":"South Korea","stateName":"North Gyeongsang Province","name":"Mungyeong","lat":36.59458,"lon":128.19946,"geocoding":{},"distantMaxMiles":5},"Mungyeong-si":{"countryName":"South Korea","stateName":"North Gyeongsang Province","name":"Mungyeong-si","lat":36.58755,"lon":128.18624,"geocoding":{},"distantMaxMiles":5},"Pohang":{"countryName":"South Korea","stateName":"North Gyeongsang Province","name":"Pohang","lat":36.02917,"lon":129.36481,"geocoding":{},"distantMaxMiles":5},"Pohang-si":{"countryName":"South Korea","stateName":"North Gyeongsang Province","name":"Pohang-si","lat":36.08333,"lon":129.36667,"geocoding":{},"distantMaxMiles":5},"Sangju":{"countryName":"South Korea","stateName":"North Gyeongsang Province","name":"Sangju","lat":36.41528,"lon":128.16056,"geocoding":{},"distantMaxMiles":5},"Seongju-gun":{"countryName":"South Korea","stateName":"North Gyeongsang Province","name":"Seongju-gun","lat":35.91888,"lon":128.28838,"geocoding":{},"distantMaxMiles":5},"Uiseong-gun":{"countryName":"South Korea","stateName":"North Gyeongsang Province","name":"Uiseong-gun","lat":36.36122,"lon":128.61517,"geocoding":{},"distantMaxMiles":5},"Uljin-gun":{"countryName":"South Korea","stateName":"North Gyeongsang Province","name":"Uljin-gun","lat":36.91968,"lon":129.31966,"geocoding":{},"distantMaxMiles":5},"Ulleung-gun":{"countryName":"South Korea","stateName":"North Gyeongsang Province","name":"Ulleung-gun","lat":37.50442,"lon":130.86084,"geocoding":{},"distantMaxMiles":5},"Waegwan":{"countryName":"South Korea","stateName":"North Gyeongsang Province","name":"Waegwan","lat":35.99251,"lon":128.39785,"geocoding":{},"distantMaxMiles":5},"Yecheon-gun":{"countryName":"South Korea","stateName":"North Gyeongsang Province","name":"Yecheon-gun","lat":36.65272,"lon":128.43007,"geocoding":{},"distantMaxMiles":5},"Yeongcheon-si":{"countryName":"South Korea","stateName":"North Gyeongsang Province","name":"Yeongcheon-si","lat":36,"lon":129,"geocoding":{},"distantMaxMiles":5},"Yeongdeok-gun":{"countryName":"South Korea","stateName":"North Gyeongsang Province","name":"Yeongdeok-gun","lat":36.48125,"lon":129.31078,"geocoding":{},"distantMaxMiles":5},"Yeongju-si":{"countryName":"South Korea","stateName":"North Gyeongsang Province","name":"Yeongju-si","lat":36.87459,"lon":128.58631,"geocoding":{},"distantMaxMiles":5},"Yeongyang-gun":{"countryName":"South Korea","stateName":"North Gyeongsang Province","name":"Yeongyang-gun","lat":36.69592,"lon":129.14196,"geocoding":{},"distantMaxMiles":5},"Yeonil":{"countryName":"South Korea","stateName":"North Gyeongsang Province","name":"Yeonil","lat":35.99526,"lon":129.35162,"geocoding":{},"distantMaxMiles":5}}},"North Jeolla Province":{"countryName":"South Korea","name":"North Jeolla Province","isoCode":"45","lat":35.7175,"lon":127.153,"geocoding":{},"distantMaxMiles":5,"cities":{"Buan-gun":{"countryName":"South Korea","stateName":"North Jeolla Province","name":"Buan-gun","lat":35.7,"lon":126.66667,"geocoding":{},"distantMaxMiles":5},"Changsu":{"countryName":"South Korea","stateName":"North Jeolla Province","name":"Changsu","lat":35.64842,"lon":127.51523,"geocoding":{},"distantMaxMiles":5},"Gimje-si":{"countryName":"South Korea","stateName":"North Jeolla Province","name":"Gimje-si","lat":35.80701,"lon":126.90755,"geocoding":{},"distantMaxMiles":5},"Gochang-gun":{"countryName":"South Korea","stateName":"North Jeolla Province","name":"Gochang-gun","lat":35.43483,"lon":126.70047,"geocoding":{},"distantMaxMiles":5},"Gunsan":{"countryName":"South Korea","stateName":"North Jeolla Province","name":"Gunsan","lat":35.97861,"lon":126.71139,"geocoding":{},"distantMaxMiles":5},"Gunsan-si":{"countryName":"South Korea","stateName":"North Jeolla Province","name":"Gunsan-si","lat":35.93583,"lon":126.68338,"geocoding":{},"distantMaxMiles":5},"Iksan":{"countryName":"South Korea","stateName":"North Jeolla Province","name":"Iksan","lat":35.94389,"lon":126.95444,"geocoding":{},"distantMaxMiles":5},"Iksan-si":{"countryName":"South Korea","stateName":"North Jeolla Province","name":"Iksan-si","lat":36.03718,"lon":126.98897,"geocoding":{},"distantMaxMiles":5},"Imsil":{"countryName":"South Korea","stateName":"North Jeolla Province","name":"Imsil","lat":35.61306,"lon":127.27944,"geocoding":{},"distantMaxMiles":5},"Imsil-gun":{"countryName":"South Korea","stateName":"North Jeolla Province","name":"Imsil-gun","lat":35.6216,"lon":127.23187,"geocoding":{},"distantMaxMiles":5},"Jangsu-gun":{"countryName":"South Korea","stateName":"North Jeolla Province","name":"Jangsu-gun","lat":35.62504,"lon":127.56358,"geocoding":{},"distantMaxMiles":5},"Jeongeup":{"countryName":"South Korea","stateName":"North Jeolla Province","name":"Jeongeup","lat":35.60004,"lon":126.91699,"geocoding":{},"distantMaxMiles":5},"Jeongeup-si":{"countryName":"South Korea","stateName":"North Jeolla Province","name":"Jeongeup-si","lat":35.6,"lon":126.91667,"geocoding":{},"distantMaxMiles":5},"Jeonju":{"countryName":"South Korea","stateName":"North Jeolla Province","name":"Jeonju","lat":35.82194,"lon":127.14889,"geocoding":{},"distantMaxMiles":5},"Jeonju-si":{"countryName":"South Korea","stateName":"North Jeolla Province","name":"Jeonju-si","lat":35.83333,"lon":127.15,"geocoding":{},"distantMaxMiles":5},"Jinan-gun":{"countryName":"South Korea","stateName":"North Jeolla Province","name":"Jinan-gun","lat":35.80472,"lon":127.47579,"geocoding":{},"distantMaxMiles":5},"Kimje":{"countryName":"South Korea","stateName":"North Jeolla Province","name":"Kimje","lat":35.80167,"lon":126.88889,"geocoding":{},"distantMaxMiles":5},"Koch'ang":{"countryName":"South Korea","stateName":"North Jeolla Province","name":"Koch'ang","lat":35.43333,"lon":126.7,"geocoding":{},"distantMaxMiles":5},"Muju-gun":{"countryName":"South Korea","stateName":"North Jeolla Province","name":"Muju-gun","lat":35.93172,"lon":127.71118,"geocoding":{},"distantMaxMiles":5},"Namwon":{"countryName":"South Korea","stateName":"North Jeolla Province","name":"Namwon","lat":35.44821,"lon":127.38007,"geocoding":{},"distantMaxMiles":5},"Nangen":{"countryName":"South Korea","stateName":"North Jeolla Province","name":"Nangen","lat":35.41,"lon":127.38583,"geocoding":{},"distantMaxMiles":5},"Puan":{"countryName":"South Korea","stateName":"North Jeolla Province","name":"Puan","lat":35.72806,"lon":126.73194,"geocoding":{},"distantMaxMiles":5},"Sunchang-gun":{"countryName":"South Korea","stateName":"North Jeolla Province","name":"Sunchang-gun","lat":35.37651,"lon":127.14967,"geocoding":{},"distantMaxMiles":5},"Wanju":{"countryName":"South Korea","stateName":"North Jeolla Province","name":"Wanju","lat":35.84509,"lon":127.14752,"geocoding":{},"distantMaxMiles":5}}},"Sejong City":{"countryName":"South Korea","name":"Sejong City","isoCode":"50","lat":34.0523323,"lon":-118.3084897,"geocoding":{},"distantMaxMiles":5,"cities":{"Sejong":{"countryName":"South Korea","stateName":"Sejong City","name":"Sejong","lat":36.59245,"lon":127.29223,"geocoding":{},"distantMaxMiles":5}}},"Seoul":{"countryName":"South Korea","name":"Seoul","isoCode":"11","lat":37.566535,"lon":126.9779692,"geocoding":{},"distantMaxMiles":5,"cities":{"Dobong-gu":{"countryName":"South Korea","stateName":"Seoul","name":"Dobong-gu","lat":37.65066,"lon":127.03011,"geocoding":{},"distantMaxMiles":5},"Dongdaemun-gu":{"countryName":"South Korea","stateName":"Seoul","name":"Dongdaemun-gu","lat":37.58189,"lon":127.05408,"geocoding":{},"distantMaxMiles":5},"Dongjak-gu":{"countryName":"South Korea","stateName":"Seoul","name":"Dongjak-gu","lat":37.50056,"lon":126.95149,"geocoding":{},"distantMaxMiles":5},"Eunpyeong-gu":{"countryName":"South Korea","stateName":"Seoul","name":"Eunpyeong-gu","lat":37.61846,"lon":126.9278,"geocoding":{},"distantMaxMiles":5},"Gangbuk-gu":{"countryName":"South Korea","stateName":"Seoul","name":"Gangbuk-gu","lat":37.6349,"lon":127.02015,"geocoding":{},"distantMaxMiles":5},"Gangdong-gu":{"countryName":"South Korea","stateName":"Seoul","name":"Gangdong-gu","lat":37.55274,"lon":127.14546,"geocoding":{},"distantMaxMiles":5},"Gangnam-gu":{"countryName":"South Korea","stateName":"Seoul","name":"Gangnam-gu","lat":37.4951,"lon":127.06278,"geocoding":{},"distantMaxMiles":5},"Gangseo-gu":{"countryName":"South Korea","stateName":"Seoul","name":"Gangseo-gu","lat":37.56227,"lon":126.81622,"geocoding":{},"distantMaxMiles":5},"Geumcheon-gu":{"countryName":"South Korea","stateName":"Seoul","name":"Geumcheon-gu","lat":37.47486,"lon":126.89106,"geocoding":{},"distantMaxMiles":5},"Guro-gu":{"countryName":"South Korea","stateName":"Seoul","name":"Guro-gu","lat":37.49447,"lon":126.8502,"geocoding":{},"distantMaxMiles":5},"Gwanak-gu":{"countryName":"South Korea","stateName":"Seoul","name":"Gwanak-gu","lat":37.47876,"lon":126.95235,"geocoding":{},"distantMaxMiles":5},"Gwangjin-gu":{"countryName":"South Korea","stateName":"Seoul","name":"Gwangjin-gu","lat":37.53913,"lon":127.08366,"geocoding":{},"distantMaxMiles":5},"Jongno-gu":{"countryName":"South Korea","stateName":"Seoul","name":"Jongno-gu","lat":37.5729,"lon":126.97928,"geocoding":{},"distantMaxMiles":5},"Jung-gu":{"countryName":"South Korea","stateName":"Seoul","name":"Jung-gu","lat":37.55986,"lon":126.99398,"geocoding":{},"distantMaxMiles":5},"Jungnang-gu":{"countryName":"South Korea","stateName":"Seoul","name":"Jungnang-gu","lat":37.60199,"lon":127.10461,"geocoding":{},"distantMaxMiles":5},"Mapo-gu":{"countryName":"South Korea","stateName":"Seoul","name":"Mapo-gu","lat":37.55438,"lon":126.90926,"geocoding":{},"distantMaxMiles":5},"Nowon-gu":{"countryName":"South Korea","stateName":"Seoul","name":"Nowon-gu","lat":37.66045,"lon":127.06718,"geocoding":{},"distantMaxMiles":5},"Seocho-gu":{"countryName":"South Korea","stateName":"Seoul","name":"Seocho-gu","lat":37.49447,"lon":127.01088,"geocoding":{},"distantMaxMiles":5},"Seodaemun-gu":{"countryName":"South Korea","stateName":"Seoul","name":"Seodaemun-gu","lat":37.57809,"lon":126.93506,"geocoding":{},"distantMaxMiles":5},"Seongbuk-gu":{"countryName":"South Korea","stateName":"Seoul","name":"Seongbuk-gu","lat":37.60267,"lon":127.01448,"geocoding":{},"distantMaxMiles":5},"Seongdong-gu":{"countryName":"South Korea","stateName":"Seoul","name":"Seongdong-gu","lat":37.54784,"lon":127.02461,"geocoding":{},"distantMaxMiles":5},"Seoul":{"countryName":"South Korea","stateName":"Seoul","name":"Seoul","lat":37.566,"lon":126.9784,"geocoding":{},"distantMaxMiles":5},"Songpa-gu":{"countryName":"South Korea","stateName":"Seoul","name":"Songpa-gu","lat":37.5021,"lon":127.11113,"geocoding":{},"distantMaxMiles":5},"Yangcheon-gu":{"countryName":"South Korea","stateName":"Seoul","name":"Yangcheon-gu","lat":37.52157,"lon":126.85827,"geocoding":{},"distantMaxMiles":5},"Yeongdeungpo-gu":{"countryName":"South Korea","stateName":"Seoul","name":"Yeongdeungpo-gu","lat":37.52606,"lon":126.90308,"geocoding":{},"distantMaxMiles":5},"Yongsan-dong":{"countryName":"South Korea","stateName":"Seoul","name":"Yongsan-dong","lat":37.5445,"lon":126.9837,"geocoding":{},"distantMaxMiles":5},"Yongsan-gu":{"countryName":"South Korea","stateName":"Seoul","name":"Yongsan-gu","lat":37.53391,"lon":126.9775,"geocoding":{},"distantMaxMiles":5}}},"South Chungcheong Province":{"countryName":"South Korea","name":"South Chungcheong Province","isoCode":"44","lat":36.5184,"lon":126.8,"geocoding":{},"distantMaxMiles":5,"cities":{"Asan":{"countryName":"South Korea","stateName":"South Chungcheong Province","name":"Asan","lat":36.78361,"lon":127.00417,"geocoding":{},"distantMaxMiles":5},"Asan-si":{"countryName":"South Korea","stateName":"South Chungcheong Province","name":"Asan-si","lat":36.80791,"lon":126.97769,"geocoding":{},"distantMaxMiles":5},"Boryeong":{"countryName":"South Korea","stateName":"South Chungcheong Province","name":"Boryeong","lat":36.34931,"lon":126.59772,"geocoding":{},"distantMaxMiles":5},"Boryeong-si":{"countryName":"South Korea","stateName":"South Chungcheong Province","name":"Boryeong-si","lat":36.35649,"lon":126.59444,"geocoding":{},"distantMaxMiles":5},"Buyeo":{"countryName":"South Korea","stateName":"South Chungcheong Province","name":"Buyeo","lat":36.27472,"lon":126.90906,"geocoding":{},"distantMaxMiles":5},"Buyeo-gun":{"countryName":"South Korea","stateName":"South Chungcheong Province","name":"Buyeo-gun","lat":36.26257,"lon":126.85802,"geocoding":{},"distantMaxMiles":5},"Cheonan":{"countryName":"South Korea","stateName":"South Chungcheong Province","name":"Cheonan","lat":36.8065,"lon":127.1522,"geocoding":{},"distantMaxMiles":5},"Cheonan-si":{"countryName":"South Korea","stateName":"South Chungcheong Province","name":"Cheonan-si","lat":36.80488,"lon":127.19431,"geocoding":{},"distantMaxMiles":5},"Cheongyang-gun":{"countryName":"South Korea","stateName":"South Chungcheong Province","name":"Cheongyang-gun","lat":36.41676,"lon":126.79419,"geocoding":{},"distantMaxMiles":5},"Geumsan-gun":{"countryName":"South Korea","stateName":"South Chungcheong Province","name":"Geumsan-gun","lat":36.13381,"lon":127.48062,"geocoding":{},"distantMaxMiles":5},"Gongju":{"countryName":"South Korea","stateName":"South Chungcheong Province","name":"Gongju","lat":36.45556,"lon":127.12472,"geocoding":{},"distantMaxMiles":5},"Gongju-si":{"countryName":"South Korea","stateName":"South Chungcheong Province","name":"Gongju-si","lat":36.5,"lon":127.08333,"geocoding":{},"distantMaxMiles":5},"Gyeryong-si":{"countryName":"South Korea","stateName":"South Chungcheong Province","name":"Gyeryong-si","lat":36.29304,"lon":127.22575,"geocoding":{},"distantMaxMiles":5},"Hongseong":{"countryName":"South Korea","stateName":"South Chungcheong Province","name":"Hongseong","lat":36.6009,"lon":126.665,"geocoding":{},"distantMaxMiles":5},"Hongseong-gun":{"countryName":"South Korea","stateName":"South Chungcheong Province","name":"Hongseong-gun","lat":36.56705,"lon":126.62626,"geocoding":{},"distantMaxMiles":5},"Kinzan":{"countryName":"South Korea","stateName":"South Chungcheong Province","name":"Kinzan","lat":36.10306,"lon":127.48889,"geocoding":{},"distantMaxMiles":5},"Nonsan":{"countryName":"South Korea","stateName":"South Chungcheong Province","name":"Nonsan","lat":36.20389,"lon":127.08472,"geocoding":{},"distantMaxMiles":5},"Nonsan-si":{"countryName":"South Korea","stateName":"South Chungcheong Province","name":"Nonsan-si","lat":36.19774,"lon":127.12143,"geocoding":{},"distantMaxMiles":5},"Seocheon-gun":{"countryName":"South Korea","stateName":"South Chungcheong Province","name":"Seocheon-gun","lat":36.106,"lon":126.69716,"geocoding":{},"distantMaxMiles":5},"Seonghwan":{"countryName":"South Korea","stateName":"South Chungcheong Province","name":"Seonghwan","lat":36.91556,"lon":127.13139,"geocoding":{},"distantMaxMiles":5},"Seosan":{"countryName":"South Korea","stateName":"South Chungcheong Province","name":"Seosan","lat":36.78167,"lon":126.45222,"geocoding":{},"distantMaxMiles":5},"Seosan-si":{"countryName":"South Korea","stateName":"South Chungcheong Province","name":"Seosan-si","lat":36.78518,"lon":126.46568,"geocoding":{},"distantMaxMiles":5},"Taean-gun":{"countryName":"South Korea","stateName":"South Chungcheong Province","name":"Taean-gun","lat":36.70036,"lon":126.28391,"geocoding":{},"distantMaxMiles":5},"Taesal-li":{"countryName":"South Korea","stateName":"South Chungcheong Province","name":"Taesal-li","lat":36.9714,"lon":126.4542,"geocoding":{},"distantMaxMiles":5},"Tangjin":{"countryName":"South Korea","stateName":"South Chungcheong Province","name":"Tangjin","lat":36.89444,"lon":126.62972,"geocoding":{},"distantMaxMiles":5},"Yesan":{"countryName":"South Korea","stateName":"South Chungcheong Province","name":"Yesan","lat":36.67756,"lon":126.84272,"geocoding":{},"distantMaxMiles":5},"Yesan-gun":{"countryName":"South Korea","stateName":"South Chungcheong Province","name":"Yesan-gun","lat":36.68218,"lon":126.79592,"geocoding":{},"distantMaxMiles":5},"Yŏnmu":{"countryName":"South Korea","stateName":"South Chungcheong Province","name":"Yŏnmu","lat":36.12944,"lon":127.1,"geocoding":{},"distantMaxMiles":5}}},"South Gyeongsang Province":{"countryName":"South Korea","name":"South Gyeongsang Province","isoCode":"48","lat":35.4606,"lon":128.2132,"geocoding":{},"distantMaxMiles":5,"cities":{"Changnyeong":{"countryName":"South Korea","stateName":"South Gyeongsang Province","name":"Changnyeong","lat":35.54145,"lon":128.49506,"geocoding":{},"distantMaxMiles":5},"Changnyeong-gun":{"countryName":"South Korea","stateName":"South Gyeongsang Province","name":"Changnyeong-gun","lat":35.50822,"lon":128.4902,"geocoding":{},"distantMaxMiles":5},"Changwon":{"countryName":"South Korea","stateName":"South Gyeongsang Province","name":"Changwon","lat":35.22806,"lon":128.68111,"geocoding":{},"distantMaxMiles":5},"Changwon-si":{"countryName":"South Korea","stateName":"South Gyeongsang Province","name":"Changwon-si","lat":35.27533,"lon":128.65152,"geocoding":{},"distantMaxMiles":5},"Chinju":{"countryName":"South Korea","stateName":"South Gyeongsang Province","name":"Chinju","lat":35.19278,"lon":128.08472,"geocoding":{},"distantMaxMiles":5},"Geochang-gun":{"countryName":"South Korea","stateName":"South Gyeongsang Province","name":"Geochang-gun","lat":35.73034,"lon":127.90149,"geocoding":{},"distantMaxMiles":5},"Geoje-si":{"countryName":"South Korea","stateName":"South Gyeongsang Province","name":"Geoje-si","lat":34.9,"lon":128.66666,"geocoding":{},"distantMaxMiles":5},"Gimhae-si":{"countryName":"South Korea","stateName":"South Gyeongsang Province","name":"Gimhae-si","lat":35.25,"lon":128.86667,"geocoding":{},"distantMaxMiles":5},"Goseong":{"countryName":"South Korea","stateName":"South Gyeongsang Province","name":"Goseong","lat":34.97631,"lon":128.32361,"geocoding":{},"distantMaxMiles":5},"Goseong-gun":{"countryName":"South Korea","stateName":"South Gyeongsang Province","name":"Goseong-gun","lat":35.01478,"lon":128.28244,"geocoding":{},"distantMaxMiles":5},"Hadong-gun":{"countryName":"South Korea","stateName":"South Gyeongsang Province","name":"Hadong-gun","lat":35.13628,"lon":127.77291,"geocoding":{},"distantMaxMiles":5},"Haman-gun":{"countryName":"South Korea","stateName":"South Gyeongsang Province","name":"Haman-gun","lat":35.29117,"lon":128.4297,"geocoding":{},"distantMaxMiles":5},"Hapcheon-gun":{"countryName":"South Korea","stateName":"South Gyeongsang Province","name":"Hapcheon-gun","lat":35.5741,"lon":128.13841,"geocoding":{},"distantMaxMiles":5},"Jinju-si":{"countryName":"South Korea","stateName":"South Gyeongsang Province","name":"Jinju-si","lat":35.20445,"lon":128.12408,"geocoding":{},"distantMaxMiles":5},"Kimhae":{"countryName":"South Korea","stateName":"South Gyeongsang Province","name":"Kimhae","lat":35.23417,"lon":128.88111,"geocoding":{},"distantMaxMiles":5},"Kyosai":{"countryName":"South Korea","stateName":"South Gyeongsang Province","name":"Kyosai","lat":34.85028,"lon":128.58861,"geocoding":{},"distantMaxMiles":5},"Miryang":{"countryName":"South Korea","stateName":"South Gyeongsang Province","name":"Miryang","lat":35.49333,"lon":128.74889,"geocoding":{},"distantMaxMiles":5},"Miryang-si":{"countryName":"South Korea","stateName":"South Gyeongsang Province","name":"Miryang-si","lat":35.4975,"lon":128.7869,"geocoding":{},"distantMaxMiles":5},"Naesŏ":{"countryName":"South Korea","stateName":"South Gyeongsang Province","name":"Naesŏ","lat":35.24972,"lon":128.52,"geocoding":{},"distantMaxMiles":5},"Namhae-gun":{"countryName":"South Korea","stateName":"South Gyeongsang Province","name":"Namhae-gun","lat":34.80433,"lon":127.92708,"geocoding":{},"distantMaxMiles":5},"Sacheon-si":{"countryName":"South Korea","stateName":"South Gyeongsang Province","name":"Sacheon-si","lat":35.00385,"lon":128.06857,"geocoding":{},"distantMaxMiles":5},"Sancheong-gun":{"countryName":"South Korea","stateName":"South Gyeongsang Province","name":"Sancheong-gun","lat":35.36625,"lon":127.87065,"geocoding":{},"distantMaxMiles":5},"Sinhyeon":{"countryName":"South Korea","stateName":"South Gyeongsang Province","name":"Sinhyeon","lat":34.8825,"lon":128.62667,"geocoding":{},"distantMaxMiles":5},"Uiryeong-gun":{"countryName":"South Korea","stateName":"South Gyeongsang Province","name":"Uiryeong-gun","lat":35.3923,"lon":128.26917,"geocoding":{},"distantMaxMiles":5},"Ungsang":{"countryName":"South Korea","stateName":"South Gyeongsang Province","name":"Ungsang","lat":35.40611,"lon":129.16861,"geocoding":{},"distantMaxMiles":5},"Yangsan":{"countryName":"South Korea","stateName":"South Gyeongsang Province","name":"Yangsan","lat":35.34199,"lon":129.03358,"geocoding":{},"distantMaxMiles":5}}},"South Jeolla Province":{"countryName":"South Korea","name":"South Jeolla Province","isoCode":"46","lat":34.8679,"lon":126.991,"geocoding":{},"distantMaxMiles":5,"cities":{"Beolgyo":{"countryName":"South Korea","stateName":"South Jeolla Province","name":"Beolgyo","lat":34.84897,"lon":127.34052,"geocoding":{},"distantMaxMiles":5},"Boseong-gun":{"countryName":"South Korea","stateName":"South Jeolla Province","name":"Boseong-gun","lat":34.84622,"lon":127.22189,"geocoding":{},"distantMaxMiles":5},"Damyang-gun":{"countryName":"South Korea","stateName":"South Jeolla Province","name":"Damyang-gun","lat":35.33976,"lon":126.99125,"geocoding":{},"distantMaxMiles":5},"Gangjin-gun":{"countryName":"South Korea","stateName":"South Jeolla Province","name":"Gangjin-gun","lat":34.61787,"lon":126.76758,"geocoding":{},"distantMaxMiles":5},"Goheung-gun":{"countryName":"South Korea","stateName":"South Jeolla Province","name":"Goheung-gun","lat":34.58333,"lon":127.33333,"geocoding":{},"distantMaxMiles":5},"Gokseong-gun":{"countryName":"South Korea","stateName":"South Jeolla Province","name":"Gokseong-gun","lat":35.21449,"lon":127.2628,"geocoding":{},"distantMaxMiles":5},"Gurye-gun":{"countryName":"South Korea","stateName":"South Jeolla Province","name":"Gurye-gun","lat":35.23616,"lon":127.50129,"geocoding":{},"distantMaxMiles":5},"Gwangyang":{"countryName":"South Korea","stateName":"South Jeolla Province","name":"Gwangyang","lat":34.9414,"lon":127.69569,"geocoding":{},"distantMaxMiles":5},"Gwangyang-si":{"countryName":"South Korea","stateName":"South Jeolla Province","name":"Gwangyang-si","lat":35.04007,"lon":127.60949,"geocoding":{},"distantMaxMiles":5},"Haenam":{"countryName":"South Korea","stateName":"South Jeolla Province","name":"Haenam","lat":34.57111,"lon":126.59889,"geocoding":{},"distantMaxMiles":5},"Haenam-gun":{"countryName":"South Korea","stateName":"South Jeolla Province","name":"Haenam-gun","lat":34.54047,"lon":126.5187,"geocoding":{},"distantMaxMiles":5},"Hampyeong-gun":{"countryName":"South Korea","stateName":"South Jeolla Province","name":"Hampyeong-gun","lat":35.14988,"lon":126.53337,"geocoding":{},"distantMaxMiles":5},"Hwasun":{"countryName":"South Korea","stateName":"South Jeolla Province","name":"Hwasun","lat":35.06125,"lon":126.98746,"geocoding":{},"distantMaxMiles":5},"Hwasun-gun":{"countryName":"South Korea","stateName":"South Jeolla Province","name":"Hwasun-gun","lat":35.00468,"lon":127.02648,"geocoding":{},"distantMaxMiles":5},"Jangheung-gun":{"countryName":"South Korea","stateName":"South Jeolla Province","name":"Jangheung-gun","lat":34.70555,"lon":126.94905,"geocoding":{},"distantMaxMiles":5},"Jangseong-gun":{"countryName":"South Korea","stateName":"South Jeolla Province","name":"Jangseong-gun","lat":35.32734,"lon":126.76817,"geocoding":{},"distantMaxMiles":5},"Jindo-gun":{"countryName":"South Korea","stateName":"South Jeolla Province","name":"Jindo-gun","lat":34.41958,"lon":126.22599,"geocoding":{},"distantMaxMiles":5},"Kurye":{"countryName":"South Korea","stateName":"South Jeolla Province","name":"Kurye","lat":35.20944,"lon":127.46444,"geocoding":{},"distantMaxMiles":5},"Kwangyang":{"countryName":"South Korea","stateName":"South Jeolla Province","name":"Kwangyang","lat":34.97528,"lon":127.58917,"geocoding":{},"distantMaxMiles":5},"Mokpo":{"countryName":"South Korea","stateName":"South Jeolla Province","name":"Mokpo","lat":34.81282,"lon":126.39181,"geocoding":{},"distantMaxMiles":5},"Mokpo-si":{"countryName":"South Korea","stateName":"South Jeolla Province","name":"Mokpo-si","lat":34.81226,"lon":126.39179,"geocoding":{},"distantMaxMiles":5},"Muan":{"countryName":"South Korea","stateName":"South Jeolla Province","name":"Muan","lat":34.99014,"lon":126.47899,"geocoding":{},"distantMaxMiles":5},"Muan-gun":{"countryName":"South Korea","stateName":"South Jeolla Province","name":"Muan-gun","lat":34.95642,"lon":126.44041,"geocoding":{},"distantMaxMiles":5},"Naju":{"countryName":"South Korea","stateName":"South Jeolla Province","name":"Naju","lat":35.0292,"lon":126.7175,"geocoding":{},"distantMaxMiles":5},"Naju-si":{"countryName":"South Korea","stateName":"South Jeolla Province","name":"Naju-si","lat":35.05683,"lon":126.67362,"geocoding":{},"distantMaxMiles":5},"Sinan":{"countryName":"South Korea","stateName":"South Jeolla Province","name":"Sinan","lat":34.8262,"lon":126.10863,"geocoding":{},"distantMaxMiles":5},"Sinan-gun":{"countryName":"South Korea","stateName":"South Jeolla Province","name":"Sinan-gun","lat":34.83107,"lon":126.09872,"geocoding":{},"distantMaxMiles":5},"Suncheon":{"countryName":"South Korea","stateName":"South Jeolla Province","name":"Suncheon","lat":34.9505,"lon":127.48784,"geocoding":{},"distantMaxMiles":5},"Suncheon-si":{"countryName":"South Korea","stateName":"South Jeolla Province","name":"Suncheon-si","lat":34.97162,"lon":127.46096,"geocoding":{},"distantMaxMiles":5},"Wando-gun":{"countryName":"South Korea","stateName":"South Jeolla Province","name":"Wando-gun","lat":34.31182,"lon":126.73845,"geocoding":{},"distantMaxMiles":5},"Yeongam":{"countryName":"South Korea","stateName":"South Jeolla Province","name":"Yeongam","lat":34.80059,"lon":126.69669,"geocoding":{},"distantMaxMiles":5},"Yeongam-gun":{"countryName":"South Korea","stateName":"South Jeolla Province","name":"Yeongam-gun","lat":34.7979,"lon":126.62651,"geocoding":{},"distantMaxMiles":5},"Yeonggwang":{"countryName":"South Korea","stateName":"South Jeolla Province","name":"Yeonggwang","lat":35.27814,"lon":126.51181,"geocoding":{},"distantMaxMiles":5},"Yeonggwang-gun":{"countryName":"South Korea","stateName":"South Jeolla Province","name":"Yeonggwang-gun","lat":35.28711,"lon":126.43616,"geocoding":{},"distantMaxMiles":5},"Yeosu":{"countryName":"South Korea","stateName":"South Jeolla Province","name":"Yeosu","lat":34.76062,"lon":127.66215,"geocoding":{},"distantMaxMiles":5}}},"Ulsan":{"countryName":"South Korea","name":"Ulsan","isoCode":"31","lat":35.5383773,"lon":129.3113596,"geocoding":{},"distantMaxMiles":5,"cities":{"Buk-gu":{"countryName":"South Korea","stateName":"Ulsan","name":"Buk-gu","lat":35.58243,"lon":129.36049,"geocoding":{},"distantMaxMiles":5},"Dong-gu":{"countryName":"South Korea","stateName":"Ulsan","name":"Dong-gu","lat":35.5047,"lon":129.4186,"geocoding":{},"distantMaxMiles":5},"Jung-gu":{"countryName":"South Korea","stateName":"Ulsan","name":"Jung-gu","lat":35.5684,"lon":129.33226,"geocoding":{},"distantMaxMiles":5},"Nam-gu":{"countryName":"South Korea","stateName":"Ulsan","name":"Nam-gu","lat":35.54382,"lon":129.32917,"geocoding":{},"distantMaxMiles":5},"Ulju-gun":{"countryName":"South Korea","stateName":"Ulsan","name":"Ulju-gun","lat":35.56233,"lon":129.1269,"geocoding":{},"distantMaxMiles":5},"Ulsan":{"countryName":"South Korea","stateName":"Ulsan","name":"Ulsan","lat":35.53722,"lon":129.31667,"geocoding":{},"distantMaxMiles":5}}}}}