{"name":"Liberia","isoCode":"LR","lat":6.5,"lon":-9.5,"geocoding":{},"distantMaxMiles":5,"states":{"Bomi County":{"countryName":"Liberia","name":"Bomi County","isoCode":"BM","lat":6.7562926,"lon":-10.8451467,"geocoding":{},"distantMaxMiles":5,"cities":{"Tubmanburg":{"countryName":"Liberia","stateName":"Bomi County","name":"Tubmanburg","lat":6.87064,"lon":-10.8211,"geocoding":{},"distantMaxMiles":5}}},"Bong County":{"countryName":"Liberia","name":"Bong County","isoCode":"BG","lat":6.8295019,"lon":-9.3673084,"geocoding":{},"distantMaxMiles":5,"cities":{"Gbarnga":{"countryName":"Liberia","stateName":"Bong County","name":"Gbarnga","lat":6.99543,"lon":-9.47122,"geocoding":{},"distantMaxMiles":5}}},"Gbarpolu County":{"countryName":"Liberia","name":"Gbarpolu County","isoCode":"GP","lat":7.4952637,"lon":-10.0807298,"geocoding":{},"distantMaxMiles":5,"cities":{"Bopolu":{"countryName":"Liberia","stateName":"Gbarpolu County","name":"Bopolu","lat":7.06667,"lon":-10.4875,"geocoding":{},"distantMaxMiles":5}}},"Grand Bassa County":{"countryName":"Liberia","name":"Grand Bassa County","isoCode":"GB","lat":6.2308452,"lon":-9.8124935,"geocoding":{},"distantMaxMiles":5,"cities":{"Buchanan":{"countryName":"Liberia","stateName":"Grand Bassa County","name":"Buchanan","lat":5.87693,"lon":-10.04964,"geocoding":{},"distantMaxMiles":5}}},"Grand Cape Mount County":{"countryName":"Liberia","name":"Grand Cape Mount County","isoCode":"CM","lat":7.0467758,"lon":-11.0711758,"geocoding":{},"distantMaxMiles":5,"cities":{"Robertsport":{"countryName":"Liberia","stateName":"Grand Cape Mount County","name":"Robertsport","lat":6.75329,"lon":-11.3671,"geocoding":{},"distantMaxMiles":5}}},"Grand Gedeh County":{"countryName":"Liberia","name":"Grand Gedeh County","isoCode":"GG","lat":5.9222078,"lon":-8.2212979,"geocoding":{},"distantMaxMiles":5,"cities":{"Zwedru":{"countryName":"Liberia","stateName":"Grand Gedeh County","name":"Zwedru","lat":6.06846,"lon":-8.13559,"geocoding":{},"distantMaxMiles":5}}},"Grand Kru County":{"countryName":"Liberia","name":"Grand Kru County","isoCode":"GK","lat":4.7613862,"lon":-8.2212979,"geocoding":{},"distantMaxMiles":5,"cities":{"Barclayville":{"countryName":"Liberia","stateName":"Grand Kru County","name":"Barclayville","lat":4.67443,"lon":-8.23306,"geocoding":{},"distantMaxMiles":5}}},"Lofa County":{"countryName":"Liberia","name":"Lofa County","isoCode":"LO","lat":8.1911184,"lon":-9.7232673,"geocoding":{},"distantMaxMiles":5,"cities":{"Voinjama":{"countryName":"Liberia","stateName":"Lofa County","name":"Voinjama","lat":8.42194,"lon":-9.74778,"geocoding":{},"distantMaxMiles":5}}},"Margibi County":{"countryName":"Liberia","name":"Margibi County","isoCode":"MG","lat":6.5151875,"lon":-10.3048897,"geocoding":{},"distantMaxMiles":5,"cities":{"Kakata":{"countryName":"Liberia","stateName":"Margibi County","name":"Kakata","lat":6.53104,"lon":-10.35368,"geocoding":{},"distantMaxMiles":5}}},"Maryland County":{"countryName":"Liberia","name":"Maryland County","isoCode":"MY","lat":39.0457549,"lon":-76.6412712,"geocoding":{},"distantMaxMiles":5,"cities":{"Harper":{"countryName":"Liberia","stateName":"Maryland County","name":"Harper","lat":4.3782,"lon":-7.71081,"geocoding":{},"distantMaxMiles":5}}},"Montserrado County":{"countryName":"Liberia","name":"Montserrado County","isoCode":"MO","lat":6.5525815,"lon":-10.5296115,"geocoding":{},"distantMaxMiles":5,"cities":{"Bensonville":{"countryName":"Liberia","stateName":"Montserrado County","name":"Bensonville","lat":6.44716,"lon":-10.61283,"geocoding":{},"distantMaxMiles":5},"Monrovia":{"countryName":"Liberia","stateName":"Montserrado County","name":"Monrovia","lat":6.30054,"lon":-10.7969,"geocoding":{},"distantMaxMiles":5}}},"Nimba":{"countryName":"Liberia","name":"Nimba","isoCode":"NI","lat":7.6166667,"lon":-8.4166667,"geocoding":{},"distantMaxMiles":5,"cities":{"Ganta":{"countryName":"Liberia","stateName":"Nimba","name":"Ganta","lat":7.30222,"lon":-8.53083,"geocoding":{},"distantMaxMiles":5},"New Yekepa":{"countryName":"Liberia","stateName":"Nimba","name":"New Yekepa","lat":7.57944,"lon":-8.53778,"geocoding":{},"distantMaxMiles":5},"Sanniquellie":{"countryName":"Liberia","stateName":"Nimba","name":"Sanniquellie","lat":7.36215,"lon":-8.71326,"geocoding":{},"distantMaxMiles":5}}},"River Cess County":{"countryName":"Liberia","name":"River Cess County","isoCode":"RI","lat":5.9025328,"lon":-9.456155,"geocoding":{},"distantMaxMiles":5,"cities":{"Cestos City":{"countryName":"Liberia","stateName":"River Cess County","name":"Cestos City","lat":5.45683,"lon":-9.58167,"geocoding":{},"distantMaxMiles":5}}},"River Gee County":{"countryName":"Liberia","name":"River Gee County","isoCode":"RG","lat":5.2604894,"lon":-7.87216,"geocoding":{},"distantMaxMiles":5,"cities":{"Fish Town":{"countryName":"Liberia","stateName":"River Gee County","name":"Fish Town","lat":5.19739,"lon":-7.87579,"geocoding":{},"distantMaxMiles":5}}},"Sinoe County":{"countryName":"Liberia","name":"Sinoe County","isoCode":"SI","lat":5.49871,"lon":-8.6600586,"geocoding":{},"distantMaxMiles":5,"cities":{"Greenville":{"countryName":"Liberia","stateName":"Sinoe County","name":"Greenville","lat":5.01133,"lon":-9.0388,"geocoding":{},"distantMaxMiles":5}}}}}