{"name":"Morocco","isoCode":"MA","lat":32,"lon":-5,"geocoding":{},"distantMaxMiles":5,"states":{"Agadir-Ida-Ou-Tanane":{"countryName":"Morocco","name":"Agadir-Ida-Ou-Tanane","isoCode":"AGD","lat":30.6462091,"lon":-9.8339061,"geocoding":{},"distantMaxMiles":5,"cities":{}},"Al Haouz":{"countryName":"Morocco","name":"Al Haouz","isoCode":"HAO","lat":31.2956729,"lon":-7.87216,"geocoding":{},"distantMaxMiles":5,"cities":{}},"Al Hoceïma":{"countryName":"Morocco","name":"Al Hoceïma","isoCode":"HOC","lat":35.2445589,"lon":-3.9317468,"geocoding":{},"distantMaxMiles":5,"cities":{}},"Aousserd (EH)":{"countryName":"Morocco","name":"Aousserd (EH)","isoCode":"AOU","lat":22.5521538,"lon":-14.3297353,"geocoding":{},"distantMaxMiles":5,"cities":{}},"Assa-Zag (EH-partial)":{"countryName":"Morocco","name":"Assa-Zag (EH-partial)","isoCode":"ASZ","lat":28.1402395,"lon":-9.7232673,"geocoding":{},"distantMaxMiles":5,"cities":{"Agadir":{"countryName":"Morocco","stateName":"Assa-Zag (EH-partial)","name":"Agadir","lat":30.42018,"lon":-9.59815,"geocoding":{},"distantMaxMiles":5},"Agadir Melloul":{"countryName":"Morocco","stateName":"Assa-Zag (EH-partial)","name":"Agadir Melloul","lat":30.22492,"lon":-7.79601,"geocoding":{},"distantMaxMiles":5},"Agadir-Ida-ou-Tnan":{"countryName":"Morocco","stateName":"Assa-Zag (EH-partial)","name":"Agadir-Ida-ou-Tnan","lat":30.58333,"lon":-9.5,"geocoding":{},"distantMaxMiles":5},"Aoulouz":{"countryName":"Morocco","stateName":"Assa-Zag (EH-partial)","name":"Aoulouz","lat":30.67307,"lon":-8.18087,"geocoding":{},"distantMaxMiles":5},"Aourir":{"countryName":"Morocco","stateName":"Assa-Zag (EH-partial)","name":"Aourir","lat":30.49238,"lon":-9.6355,"geocoding":{},"distantMaxMiles":5},"Arazane":{"countryName":"Morocco","stateName":"Assa-Zag (EH-partial)","name":"Arazane","lat":30.50346,"lon":-8.60637,"geocoding":{},"distantMaxMiles":5},"Argana":{"countryName":"Morocco","stateName":"Assa-Zag (EH-partial)","name":"Argana","lat":30.7825,"lon":-9.11968,"geocoding":{},"distantMaxMiles":5},"Bigoudine":{"countryName":"Morocco","stateName":"Assa-Zag (EH-partial)","name":"Bigoudine","lat":30.72376,"lon":-9.21097,"geocoding":{},"distantMaxMiles":5},"Chtouka-Ait-Baha":{"countryName":"Morocco","stateName":"Assa-Zag (EH-partial)","name":"Chtouka-Ait-Baha","lat":30.02948,"lon":-9.30909,"geocoding":{},"distantMaxMiles":5},"Inezgane":{"countryName":"Morocco","stateName":"Assa-Zag (EH-partial)","name":"Inezgane","lat":30.35535,"lon":-9.53639,"geocoding":{},"distantMaxMiles":5},"Inezgane-Ait Melloul":{"countryName":"Morocco","stateName":"Assa-Zag (EH-partial)","name":"Inezgane-Ait Melloul","lat":30.1,"lon":-9.03333,"geocoding":{},"distantMaxMiles":5},"Ouijjane":{"countryName":"Morocco","stateName":"Assa-Zag (EH-partial)","name":"Ouijjane","lat":29.62777,"lon":-9.53959,"geocoding":{},"distantMaxMiles":5},"Oulad Teïma":{"countryName":"Morocco","stateName":"Assa-Zag (EH-partial)","name":"Oulad Teïma","lat":30.39467,"lon":-9.20897,"geocoding":{},"distantMaxMiles":5},"Reggada":{"countryName":"Morocco","stateName":"Assa-Zag (EH-partial)","name":"Reggada","lat":29.58016,"lon":-9.70086,"geocoding":{},"distantMaxMiles":5},"Sidi Ifni":{"countryName":"Morocco","stateName":"Assa-Zag (EH-partial)","name":"Sidi Ifni","lat":29.37975,"lon":-10.17299,"geocoding":{},"distantMaxMiles":5},"Tadrart":{"countryName":"Morocco","stateName":"Assa-Zag (EH-partial)","name":"Tadrart","lat":30.77477,"lon":-9.45951,"geocoding":{},"distantMaxMiles":5},"Tafraout":{"countryName":"Morocco","stateName":"Assa-Zag (EH-partial)","name":"Tafraout","lat":29.72449,"lon":-8.9747,"geocoding":{},"distantMaxMiles":5},"Taghazout":{"countryName":"Morocco","stateName":"Assa-Zag (EH-partial)","name":"Taghazout","lat":30.54259,"lon":-9.71115,"geocoding":{},"distantMaxMiles":5},"Taliouine":{"countryName":"Morocco","stateName":"Assa-Zag (EH-partial)","name":"Taliouine","lat":30.52917,"lon":-7.91262,"geocoding":{},"distantMaxMiles":5},"Tamri":{"countryName":"Morocco","stateName":"Assa-Zag (EH-partial)","name":"Tamri","lat":30.69602,"lon":-9.82972,"geocoding":{},"distantMaxMiles":5},"Tanalt":{"countryName":"Morocco","stateName":"Assa-Zag (EH-partial)","name":"Tanalt","lat":29.77548,"lon":-9.16796,"geocoding":{},"distantMaxMiles":5},"Taroudannt":{"countryName":"Morocco","stateName":"Assa-Zag (EH-partial)","name":"Taroudannt","lat":30.5,"lon":-8.41667,"geocoding":{},"distantMaxMiles":5},"Taroudant":{"countryName":"Morocco","stateName":"Assa-Zag (EH-partial)","name":"Taroudant","lat":30.47028,"lon":-8.87695,"geocoding":{},"distantMaxMiles":5},"Tarsouat":{"countryName":"Morocco","stateName":"Assa-Zag (EH-partial)","name":"Tarsouat","lat":29.58153,"lon":-9.02664,"geocoding":{},"distantMaxMiles":5},"Tata":{"countryName":"Morocco","stateName":"Assa-Zag (EH-partial)","name":"Tata","lat":29.66667,"lon":-7.83333,"geocoding":{},"distantMaxMiles":5},"Tiznit":{"countryName":"Morocco","stateName":"Assa-Zag (EH-partial)","name":"Tiznit","lat":29.58333,"lon":-9.5,"geocoding":{},"distantMaxMiles":5}}},"Azilal":{"countryName":"Morocco","name":"Azilal","isoCode":"AZI","lat":32.004262,"lon":-6.5783387,"geocoding":{},"distantMaxMiles":5,"cities":{}},"Benslimane":{"countryName":"Morocco","name":"Benslimane","isoCode":"BES","lat":33.6189698,"lon":-7.1305536,"geocoding":{},"distantMaxMiles":5,"cities":{}},"Berkane":{"countryName":"Morocco","name":"Berkane","isoCode":"BER","lat":34.8840876,"lon":-2.341887,"geocoding":{},"distantMaxMiles":5,"cities":{}},"Berrechid":{"countryName":"Morocco","name":"Berrechid","isoCode":"BRR","lat":33.2602523,"lon":-7.5984837,"geocoding":{},"distantMaxMiles":5,"cities":{}},"Boujdour (EH)":{"countryName":"Morocco","name":"Boujdour (EH)","isoCode":"BOD","lat":26.1252493,"lon":-14.4847347,"geocoding":{},"distantMaxMiles":5,"cities":{}},"Boulemane":{"countryName":"Morocco","name":"Boulemane","isoCode":"BOM","lat":33.3625159,"lon":-4.7303397,"geocoding":{},"distantMaxMiles":5,"cities":{}},"Béni Mellal":{"countryName":"Morocco","name":"Béni Mellal","isoCode":"BEM","lat":32.342443,"lon":-6.375799,"geocoding":{},"distantMaxMiles":5,"cities":{}},"Béni Mellal-Khénifra":{"countryName":"Morocco","name":"Béni Mellal-Khénifra","isoCode":"05","lat":32.5719184,"lon":-6.0679194,"geocoding":{},"distantMaxMiles":5,"cities":{}},"Casablanca":{"countryName":"Morocco","name":"Casablanca","isoCode":"CAS","lat":33.5722678,"lon":-7.6570326,"geocoding":{},"distantMaxMiles":5,"cities":{}},"Casablanca-Settat":{"countryName":"Morocco","name":"Casablanca-Settat","isoCode":"06","lat":33.2160872,"lon":-7.4381355,"geocoding":{},"distantMaxMiles":5,"cities":{"Azemmour":{"countryName":"Morocco","stateName":"Casablanca-Settat","name":"Azemmour","lat":33.28952,"lon":-8.3425,"geocoding":{},"distantMaxMiles":5},"Benslimane":{"countryName":"Morocco","stateName":"Casablanca-Settat","name":"Benslimane","lat":33.5,"lon":-7.16667,"geocoding":{},"distantMaxMiles":5},"Berrechid":{"countryName":"Morocco","stateName":"Casablanca-Settat","name":"Berrechid","lat":33.26553,"lon":-7.58754,"geocoding":{},"distantMaxMiles":5},"Berrechid Province":{"countryName":"Morocco","stateName":"Casablanca-Settat","name":"Berrechid Province","lat":33.26582,"lon":-7.58142,"geocoding":{},"distantMaxMiles":5},"Boulaouane":{"countryName":"Morocco","stateName":"Casablanca-Settat","name":"Boulaouane","lat":32.85995,"lon":-8.05555,"geocoding":{},"distantMaxMiles":5},"Bouskoura":{"countryName":"Morocco","stateName":"Casablanca-Settat","name":"Bouskoura","lat":33.44976,"lon":-7.65239,"geocoding":{},"distantMaxMiles":5},"Bouznika":{"countryName":"Morocco","stateName":"Casablanca-Settat","name":"Bouznika","lat":33.78942,"lon":-7.15968,"geocoding":{},"distantMaxMiles":5},"Casablanca":{"countryName":"Morocco","stateName":"Casablanca-Settat","name":"Casablanca","lat":33.5884,"lon":-7.55785,"geocoding":{},"distantMaxMiles":5},"El Jadid":{"countryName":"Morocco","stateName":"Casablanca-Settat","name":"El Jadid","lat":33.25682,"lon":-8.50882,"geocoding":{},"distantMaxMiles":5},"El-Jadida":{"countryName":"Morocco","stateName":"Casablanca-Settat","name":"El-Jadida","lat":32.9,"lon":-8.5,"geocoding":{},"distantMaxMiles":5},"Mediouna":{"countryName":"Morocco","stateName":"Casablanca-Settat","name":"Mediouna","lat":33.52012,"lon":-7.5035,"geocoding":{},"distantMaxMiles":5},"Mohammedia":{"countryName":"Morocco","stateName":"Casablanca-Settat","name":"Mohammedia","lat":33.68607,"lon":-7.38298,"geocoding":{},"distantMaxMiles":5},"Nouaceur":{"countryName":"Morocco","stateName":"Casablanca-Settat","name":"Nouaceur","lat":33.45839,"lon":-7.64726,"geocoding":{},"distantMaxMiles":5},"Oualidia":{"countryName":"Morocco","stateName":"Casablanca-Settat","name":"Oualidia","lat":32.73372,"lon":-9.03059,"geocoding":{},"distantMaxMiles":5},"Oulad Frej":{"countryName":"Morocco","stateName":"Casablanca-Settat","name":"Oulad Frej","lat":32.95956,"lon":-8.2274,"geocoding":{},"distantMaxMiles":5},"Settat":{"countryName":"Morocco","stateName":"Casablanca-Settat","name":"Settat","lat":33.00103,"lon":-7.61662,"geocoding":{},"distantMaxMiles":5},"Settat Province":{"countryName":"Morocco","stateName":"Casablanca-Settat","name":"Settat Province","lat":33.08333,"lon":-7.41667,"geocoding":{},"distantMaxMiles":5},"Sidi Bennour":{"countryName":"Morocco","stateName":"Casablanca-Settat","name":"Sidi Bennour","lat":32.64896,"lon":-8.42686,"geocoding":{},"distantMaxMiles":5},"Sidi Smai’il":{"countryName":"Morocco","stateName":"Casablanca-Settat","name":"Sidi Smai’il","lat":32.82461,"lon":-8.51122,"geocoding":{},"distantMaxMiles":5},"Tit Mellil":{"countryName":"Morocco","stateName":"Casablanca-Settat","name":"Tit Mellil","lat":33.55808,"lon":-7.48647,"geocoding":{},"distantMaxMiles":5},"Zawyat an Nwaçer":{"countryName":"Morocco","stateName":"Casablanca-Settat","name":"Zawyat an Nwaçer","lat":33.37981,"lon":-7.61932,"geocoding":{},"distantMaxMiles":5}}},"Chefchaouen":{"countryName":"Morocco","name":"Chefchaouen","isoCode":"CHE","lat":35.018172,"lon":-5.1432068,"geocoding":{},"distantMaxMiles":5,"cities":{}},"Chichaoua":{"countryName":"Morocco","name":"Chichaoua","isoCode":"CHI","lat":31.5383581,"lon":-8.7646388,"geocoding":{},"distantMaxMiles":5,"cities":{}},"Chtouka-Ait Baha":{"countryName":"Morocco","name":"Chtouka-Ait Baha","isoCode":"CHT","lat":30.1072422,"lon":-9.2785583,"geocoding":{},"distantMaxMiles":5,"cities":{}},"Dakhla-Oued Ed-Dahab (EH)":{"countryName":"Morocco","name":"Dakhla-Oued Ed-Dahab (EH)","isoCode":"12","lat":22.7337892,"lon":-14.2861116,"geocoding":{},"distantMaxMiles":5,"cities":{}},"Driouch":{"countryName":"Morocco","name":"Driouch","isoCode":"DRI","lat":34.976032,"lon":-3.3964493,"geocoding":{},"distantMaxMiles":5,"cities":{}},"Drâa-Tafilalet":{"countryName":"Morocco","name":"Drâa-Tafilalet","isoCode":"08","lat":31.1499538,"lon":-5.3939551,"geocoding":{},"distantMaxMiles":5,"cities":{"Agdz":{"countryName":"Morocco","stateName":"Drâa-Tafilalet","name":"Agdz","lat":30.69356,"lon":-6.44628,"geocoding":{},"distantMaxMiles":5},"Alnif":{"countryName":"Morocco","stateName":"Drâa-Tafilalet","name":"Alnif","lat":31.11411,"lon":-5.17154,"geocoding":{},"distantMaxMiles":5},"Aoufous":{"countryName":"Morocco","stateName":"Drâa-Tafilalet","name":"Aoufous","lat":31.68,"lon":-4.17,"geocoding":{},"distantMaxMiles":5},"Arfoud":{"countryName":"Morocco","stateName":"Drâa-Tafilalet","name":"Arfoud","lat":31.4353,"lon":-4.23258,"geocoding":{},"distantMaxMiles":5},"Errachidia":{"countryName":"Morocco","stateName":"Drâa-Tafilalet","name":"Errachidia","lat":31.75,"lon":-4.5,"geocoding":{},"distantMaxMiles":5},"Imilchil":{"countryName":"Morocco","stateName":"Drâa-Tafilalet","name":"Imilchil","lat":32.15309,"lon":-5.62453,"geocoding":{},"distantMaxMiles":5},"Jebel Tiskaouine":{"countryName":"Morocco","stateName":"Drâa-Tafilalet","name":"Jebel Tiskaouine","lat":31.02722,"lon":-5.11643,"geocoding":{},"distantMaxMiles":5},"Jorf":{"countryName":"Morocco","stateName":"Drâa-Tafilalet","name":"Jorf","lat":31.49442,"lon":-4.40598,"geocoding":{},"distantMaxMiles":5},"Kelaat Mgouna":{"countryName":"Morocco","stateName":"Drâa-Tafilalet","name":"Kelaat Mgouna","lat":31.24573,"lon":-6.1326,"geocoding":{},"distantMaxMiles":5},"Mhamid":{"countryName":"Morocco","stateName":"Drâa-Tafilalet","name":"Mhamid","lat":29.82,"lon":-5.72,"geocoding":{},"distantMaxMiles":5},"Midelt":{"countryName":"Morocco","stateName":"Drâa-Tafilalet","name":"Midelt","lat":32.68055,"lon":-4.73691,"geocoding":{},"distantMaxMiles":5},"Ouarzazat":{"countryName":"Morocco","stateName":"Drâa-Tafilalet","name":"Ouarzazat","lat":30.91894,"lon":-6.89341,"geocoding":{},"distantMaxMiles":5},"Ouarzazate":{"countryName":"Morocco","stateName":"Drâa-Tafilalet","name":"Ouarzazate","lat":30.9413,"lon":-6.90285,"geocoding":{},"distantMaxMiles":5},"Reçani":{"countryName":"Morocco","stateName":"Drâa-Tafilalet","name":"Reçani","lat":31.28318,"lon":-4.26565,"geocoding":{},"distantMaxMiles":5},"Taznakht":{"countryName":"Morocco","stateName":"Drâa-Tafilalet","name":"Taznakht","lat":30.57836,"lon":-7.20341,"geocoding":{},"distantMaxMiles":5},"Telouet":{"countryName":"Morocco","stateName":"Drâa-Tafilalet","name":"Telouet","lat":31.28925,"lon":-7.23789,"geocoding":{},"distantMaxMiles":5},"Tinghir":{"countryName":"Morocco","stateName":"Drâa-Tafilalet","name":"Tinghir","lat":31.51472,"lon":-5.53278,"geocoding":{},"distantMaxMiles":5},"Tinghir Province":{"countryName":"Morocco","stateName":"Drâa-Tafilalet","name":"Tinghir Province","lat":31.51965,"lon":-5.52999,"geocoding":{},"distantMaxMiles":5},"Zagora":{"countryName":"Morocco","stateName":"Drâa-Tafilalet","name":"Zagora","lat":30.34839,"lon":-5.83649,"geocoding":{},"distantMaxMiles":5}}},"El Hajeb":{"countryName":"Morocco","name":"El Hajeb","isoCode":"HAJ","lat":33.685735,"lon":-5.3677844,"geocoding":{},"distantMaxMiles":5,"cities":{}},"El Jadida":{"countryName":"Morocco","name":"El Jadida","isoCode":"JDI","lat":33.2316326,"lon":-8.5007116,"geocoding":{},"distantMaxMiles":5,"cities":{}},"El Kelâa des Sraghna":{"countryName":"Morocco","name":"El Kelâa des Sraghna","isoCode":"KES","lat":32.0522767,"lon":-7.3516558,"geocoding":{},"distantMaxMiles":5,"cities":{}},"Errachidia":{"countryName":"Morocco","name":"Errachidia","isoCode":"ERR","lat":31.9051275,"lon":-4.7277528,"geocoding":{},"distantMaxMiles":5,"cities":{}},"Es-Semara (EH-partial)":{"countryName":"Morocco","name":"Es-Semara (EH-partial)","isoCode":"ESM","lat":26.741856,"lon":-11.6783671,"geocoding":{},"distantMaxMiles":5,"cities":{}},"Essaouira":{"countryName":"Morocco","name":"Essaouira","isoCode":"ESI","lat":31.5084926,"lon":-9.7595041,"geocoding":{},"distantMaxMiles":5,"cities":{}},"Fahs-Anjra":{"countryName":"Morocco","name":"Fahs-Anjra","isoCode":"FAH","lat":35.7601992,"lon":-5.6668306,"geocoding":{},"distantMaxMiles":5,"cities":{}},"Figuig":{"countryName":"Morocco","name":"Figuig","isoCode":"FIG","lat":32.1092613,"lon":-1.229806,"geocoding":{},"distantMaxMiles":5,"cities":{}},"Fquih Ben Salah":{"countryName":"Morocco","name":"Fquih Ben Salah","isoCode":"FQH","lat":32.500168,"lon":-6.7100717,"geocoding":{},"distantMaxMiles":5,"cities":{}},"Fès":{"countryName":"Morocco","name":"Fès","isoCode":"FES","lat":34.0239579,"lon":-5.0367599,"geocoding":{},"distantMaxMiles":5,"cities":{}},"Fès-Meknès":{"countryName":"Morocco","name":"Fès-Meknès","isoCode":"03","lat":34.062529,"lon":-4.7277528,"geocoding":{},"distantMaxMiles":5,"cities":{"Aknoul":{"countryName":"Morocco","stateName":"Fès-Meknès","name":"Aknoul","lat":34.65371,"lon":-3.86754,"geocoding":{},"distantMaxMiles":5},"Almis Marmoucha":{"countryName":"Morocco","stateName":"Fès-Meknès","name":"Almis Marmoucha","lat":33.32,"lon":-4.18,"geocoding":{},"distantMaxMiles":5},"Azrou":{"countryName":"Morocco","stateName":"Fès-Meknès","name":"Azrou","lat":33.43443,"lon":-5.22126,"geocoding":{},"distantMaxMiles":5},"Aïn Leuh":{"countryName":"Morocco","stateName":"Fès-Meknès","name":"Aïn Leuh","lat":33.28984,"lon":-5.33863,"geocoding":{},"distantMaxMiles":5},"Bhalil":{"countryName":"Morocco","stateName":"Fès-Meknès","name":"Bhalil","lat":33.85194,"lon":-4.87228,"geocoding":{},"distantMaxMiles":5},"Bouarouss":{"countryName":"Morocco","stateName":"Fès-Meknès","name":"Bouarouss","lat":34.36,"lon":-4.81,"geocoding":{},"distantMaxMiles":5},"Boulemane":{"countryName":"Morocco","stateName":"Fès-Meknès","name":"Boulemane","lat":33.16667,"lon":-4,"geocoding":{},"distantMaxMiles":5},"El Hajeb":{"countryName":"Morocco","stateName":"Fès-Meknès","name":"El Hajeb","lat":33.68786,"lon":-5.371,"geocoding":{},"distantMaxMiles":5},"El-Hajeb":{"countryName":"Morocco","stateName":"Fès-Meknès","name":"El-Hajeb","lat":33.72883,"lon":-5.46119,"geocoding":{},"distantMaxMiles":5},"Fes":{"countryName":"Morocco","stateName":"Fès-Meknès","name":"Fes","lat":34.04,"lon":-4.87,"geocoding":{},"distantMaxMiles":5},"Fès al Bali":{"countryName":"Morocco","stateName":"Fès-Meknès","name":"Fès al Bali","lat":34.0701,"lon":-4.95473,"geocoding":{},"distantMaxMiles":5},"Galaz":{"countryName":"Morocco","stateName":"Fès-Meknès","name":"Galaz","lat":34.54424,"lon":-4.80355,"geocoding":{},"distantMaxMiles":5},"Ghouazi":{"countryName":"Morocco","stateName":"Fès-Meknès","name":"Ghouazi","lat":34.47737,"lon":-5.30235,"geocoding":{},"distantMaxMiles":5},"Guercif":{"countryName":"Morocco","stateName":"Fès-Meknès","name":"Guercif","lat":34.22568,"lon":-3.35361,"geocoding":{},"distantMaxMiles":5},"Ifrane":{"countryName":"Morocco","stateName":"Fès-Meknès","name":"Ifrane","lat":33.33333,"lon":-5.25,"geocoding":{},"distantMaxMiles":5},"Meknes":{"countryName":"Morocco","stateName":"Fès-Meknès","name":"Meknes","lat":33.97761,"lon":-5.52496,"geocoding":{},"distantMaxMiles":5},"Missour":{"countryName":"Morocco","stateName":"Fès-Meknès","name":"Missour","lat":33.04893,"lon":-3.98947,"geocoding":{},"distantMaxMiles":5},"Moulay Bouchta":{"countryName":"Morocco","stateName":"Fès-Meknès","name":"Moulay Bouchta","lat":34.48922,"lon":-5.13023,"geocoding":{},"distantMaxMiles":5},"Moulay-Yacoub":{"countryName":"Morocco","stateName":"Fès-Meknès","name":"Moulay-Yacoub","lat":34.14558,"lon":-5.10259,"geocoding":{},"distantMaxMiles":5},"Oued Amlil":{"countryName":"Morocco","stateName":"Fès-Meknès","name":"Oued Amlil","lat":34.2,"lon":-4.28,"geocoding":{},"distantMaxMiles":5},"Oulad Tayeb":{"countryName":"Morocco","stateName":"Fès-Meknès","name":"Oulad Tayeb","lat":33.94633,"lon":-4.99509,"geocoding":{},"distantMaxMiles":5},"Ourtzagh":{"countryName":"Morocco","stateName":"Fès-Meknès","name":"Ourtzagh","lat":34.53477,"lon":-4.96878,"geocoding":{},"distantMaxMiles":5},"Sefrou":{"countryName":"Morocco","stateName":"Fès-Meknès","name":"Sefrou","lat":33.79979,"lon":-4.68,"geocoding":{},"distantMaxMiles":5},"Tahla":{"countryName":"Morocco","stateName":"Fès-Meknès","name":"Tahla","lat":34.04965,"lon":-4.42162,"geocoding":{},"distantMaxMiles":5},"Talzemt":{"countryName":"Morocco","stateName":"Fès-Meknès","name":"Talzemt","lat":33.59,"lon":-4.19,"geocoding":{},"distantMaxMiles":5},"Taounate":{"countryName":"Morocco","stateName":"Fès-Meknès","name":"Taounate","lat":34.5,"lon":-4.83333,"geocoding":{},"distantMaxMiles":5},"Taza":{"countryName":"Morocco","stateName":"Fès-Meknès","name":"Taza","lat":34.25,"lon":-3.75,"geocoding":{},"distantMaxMiles":5},"Tmourghout":{"countryName":"Morocco","stateName":"Fès-Meknès","name":"Tmourghout","lat":33.9065,"lon":-4.02696,"geocoding":{},"distantMaxMiles":5}}},"Guelmim":{"countryName":"Morocco","name":"Guelmim","isoCode":"GUE","lat":28.9883659,"lon":-10.0527498,"geocoding":{},"distantMaxMiles":5,"cities":{}},"Guelmim-Oued Noun (EH-partial)":{"countryName":"Morocco","name":"Guelmim-Oued Noun (EH-partial)","isoCode":"10","lat":28.4844281,"lon":-10.0807298,"geocoding":{},"distantMaxMiles":5,"cities":{"Assa-Zag":{"countryName":"Morocco","stateName":"Guelmim-Oued Noun (EH-partial)","name":"Assa-Zag","lat":28.16667,"lon":-9.41667,"geocoding":{},"distantMaxMiles":5},"Guelmim":{"countryName":"Morocco","stateName":"Guelmim-Oued Noun (EH-partial)","name":"Guelmim","lat":28.75,"lon":-10,"geocoding":{},"distantMaxMiles":5},"Sidi Ifni":{"countryName":"Morocco","stateName":"Guelmim-Oued Noun (EH-partial)","name":"Sidi Ifni","lat":29.37719,"lon":-10.17111,"geocoding":{},"distantMaxMiles":5},"Tan-Tan":{"countryName":"Morocco","stateName":"Guelmim-Oued Noun (EH-partial)","name":"Tan-Tan","lat":28.08333,"lon":-11.08333,"geocoding":{},"distantMaxMiles":5}}},"Guercif":{"countryName":"Morocco","name":"Guercif","isoCode":"GUF","lat":34.2345036,"lon":-3.3813005,"geocoding":{},"distantMaxMiles":5,"cities":{}},"Ifrane":{"countryName":"Morocco","name":"Ifrane","isoCode":"IFR","lat":33.5228062,"lon":-5.1109552,"geocoding":{},"distantMaxMiles":5,"cities":{}},"Inezgane-Ait Melloul":{"countryName":"Morocco","name":"Inezgane-Ait Melloul","isoCode":"INE","lat":30.3509098,"lon":-9.389511,"geocoding":{},"distantMaxMiles":5,"cities":{}},"Jerada":{"countryName":"Morocco","name":"Jerada","isoCode":"JRA","lat":34.3061791,"lon":-2.1794136,"geocoding":{},"distantMaxMiles":5,"cities":{}},"Khouribga":{"countryName":"Morocco","name":"Khouribga","isoCode":"KHO","lat":32.886023,"lon":-6.9208655,"geocoding":{},"distantMaxMiles":5,"cities":{}},"Khémisset":{"countryName":"Morocco","name":"Khémisset","isoCode":"KHE","lat":33.8153704,"lon":-6.0573302,"geocoding":{},"distantMaxMiles":5,"cities":{}},"Khénifra":{"countryName":"Morocco","name":"Khénifra","isoCode":"KHN","lat":32.9340471,"lon":-5.661571,"geocoding":{},"distantMaxMiles":5,"cities":{"Aguelmous":{"countryName":"Morocco","stateName":"Khénifra","name":"Aguelmous","lat":33.16139,"lon":-5.84626,"geocoding":{},"distantMaxMiles":5},"Al Fqih Ben Çalah":{"countryName":"Morocco","stateName":"Khénifra","name":"Al Fqih Ben Çalah","lat":32.50213,"lon":-6.68771,"geocoding":{},"distantMaxMiles":5},"Azilal":{"countryName":"Morocco","stateName":"Khénifra","name":"Azilal","lat":31.96156,"lon":-6.57109,"geocoding":{},"distantMaxMiles":5},"Azilal Province":{"countryName":"Morocco","stateName":"Khénifra","name":"Azilal Province","lat":31.91667,"lon":-6.5,"geocoding":{},"distantMaxMiles":5},"Beni Mellal":{"countryName":"Morocco","stateName":"Khénifra","name":"Beni Mellal","lat":32.33725,"lon":-6.34983,"geocoding":{},"distantMaxMiles":5},"Beni-Mellal":{"countryName":"Morocco","stateName":"Khénifra","name":"Beni-Mellal","lat":32.5,"lon":-6.33333,"geocoding":{},"distantMaxMiles":5},"Boujniba":{"countryName":"Morocco","stateName":"Khénifra","name":"Boujniba","lat":32.90046,"lon":-6.77464,"geocoding":{},"distantMaxMiles":5},"Bzou":{"countryName":"Morocco","stateName":"Khénifra","name":"Bzou","lat":32.09171,"lon":-7.04786,"geocoding":{},"distantMaxMiles":5},"Dar Ould Zidouh":{"countryName":"Morocco","stateName":"Khénifra","name":"Dar Ould Zidouh","lat":32.31247,"lon":-6.90494,"geocoding":{},"distantMaxMiles":5},"Demnate":{"countryName":"Morocco","stateName":"Khénifra","name":"Demnate","lat":31.73443,"lon":-7.00505,"geocoding":{},"distantMaxMiles":5},"El Ksiba":{"countryName":"Morocco","stateName":"Khénifra","name":"El Ksiba","lat":32.57286,"lon":-6.01947,"geocoding":{},"distantMaxMiles":5},"Fquih Ben Salah Province":{"countryName":"Morocco","stateName":"Khénifra","name":"Fquih Ben Salah Province","lat":32.50108,"lon":-6.68415,"geocoding":{},"distantMaxMiles":5},"Ifrane":{"countryName":"Morocco","stateName":"Khénifra","name":"Ifrane","lat":31.70217,"lon":-6.3494,"geocoding":{},"distantMaxMiles":5},"Isseksi":{"countryName":"Morocco","stateName":"Khénifra","name":"Isseksi","lat":32.22981,"lon":-6.27661,"geocoding":{},"distantMaxMiles":5},"Itzer":{"countryName":"Morocco","stateName":"Khénifra","name":"Itzer","lat":32.8783,"lon":-5.0515,"geocoding":{},"distantMaxMiles":5},"Kasba Tadla":{"countryName":"Morocco","stateName":"Khénifra","name":"Kasba Tadla","lat":32.5977,"lon":-6.26844,"geocoding":{},"distantMaxMiles":5},"Kerrouchen":{"countryName":"Morocco","stateName":"Khénifra","name":"Kerrouchen","lat":32.79639,"lon":-5.3188,"geocoding":{},"distantMaxMiles":5},"Khenifra":{"countryName":"Morocco","stateName":"Khénifra","name":"Khenifra","lat":32.93333,"lon":-5.66667,"geocoding":{},"distantMaxMiles":5},"Khouribga":{"countryName":"Morocco","stateName":"Khénifra","name":"Khouribga","lat":32.88108,"lon":-6.9063,"geocoding":{},"distantMaxMiles":5},"Khouribga Province":{"countryName":"Morocco","stateName":"Khénifra","name":"Khouribga Province","lat":32.93333,"lon":-6.6,"geocoding":{},"distantMaxMiles":5},"Midelt":{"countryName":"Morocco","stateName":"Khénifra","name":"Midelt","lat":32.6852,"lon":-4.74512,"geocoding":{},"distantMaxMiles":5},"Ouaoula":{"countryName":"Morocco","stateName":"Khénifra","name":"Ouaoula","lat":31.87,"lon":-6.75,"geocoding":{},"distantMaxMiles":5},"Oued Zem":{"countryName":"Morocco","stateName":"Khénifra","name":"Oued Zem","lat":32.8627,"lon":-6.57359,"geocoding":{},"distantMaxMiles":5},"Sidi Jaber":{"countryName":"Morocco","stateName":"Khénifra","name":"Sidi Jaber","lat":32.38952,"lon":-6.42095,"geocoding":{},"distantMaxMiles":5},"Timoulilt":{"countryName":"Morocco","stateName":"Khénifra","name":"Timoulilt","lat":32.20368,"lon":-6.4666,"geocoding":{},"distantMaxMiles":5},"Zawyat ech Cheïkh":{"countryName":"Morocco","stateName":"Khénifra","name":"Zawyat ech Cheïkh","lat":32.64445,"lon":-5.91826,"geocoding":{},"distantMaxMiles":5}}},"Kénitra":{"countryName":"Morocco","name":"Kénitra","isoCode":"KEN","lat":34.2540503,"lon":-6.5890166,"geocoding":{},"distantMaxMiles":5,"cities":{"Arbaoua":{"countryName":"Morocco","stateName":"Kénitra","name":"Arbaoua","lat":34.90239,"lon":-5.94871,"geocoding":{},"distantMaxMiles":5},"Had Kourt":{"countryName":"Morocco","stateName":"Kénitra","name":"Had Kourt","lat":34.61588,"lon":-5.7404,"geocoding":{},"distantMaxMiles":5},"Kenitra":{"countryName":"Morocco","stateName":"Kénitra","name":"Kenitra","lat":34.26101,"lon":-6.5802,"geocoding":{},"distantMaxMiles":5},"Kenitra Province":{"countryName":"Morocco","stateName":"Kénitra","name":"Kenitra Province","lat":34.58333,"lon":-6.33333,"geocoding":{},"distantMaxMiles":5},"Khemisset":{"countryName":"Morocco","stateName":"Kénitra","name":"Khemisset","lat":33.66667,"lon":-6.25,"geocoding":{},"distantMaxMiles":5},"Mechraa Bel Ksiri":{"countryName":"Morocco","stateName":"Kénitra","name":"Mechraa Bel Ksiri","lat":34.57373,"lon":-5.95585,"geocoding":{},"distantMaxMiles":5},"Oulmes":{"countryName":"Morocco","stateName":"Kénitra","name":"Oulmes","lat":33.42585,"lon":-6.00137,"geocoding":{},"distantMaxMiles":5},"Rabat":{"countryName":"Morocco","stateName":"Kénitra","name":"Rabat","lat":34.01325,"lon":-6.83255,"geocoding":{},"distantMaxMiles":5},"Sale":{"countryName":"Morocco","stateName":"Kénitra","name":"Sale","lat":34.0531,"lon":-6.79846,"geocoding":{},"distantMaxMiles":5},"Sidi Bousber":{"countryName":"Morocco","stateName":"Kénitra","name":"Sidi Bousber","lat":34.56283,"lon":-5.36208,"geocoding":{},"distantMaxMiles":5},"Sidi Qacem":{"countryName":"Morocco","stateName":"Kénitra","name":"Sidi Qacem","lat":34.22149,"lon":-5.70775,"geocoding":{},"distantMaxMiles":5},"Sidi Redouane":{"countryName":"Morocco","stateName":"Kénitra","name":"Sidi Redouane","lat":34.68692,"lon":-5.44538,"geocoding":{},"distantMaxMiles":5},"Sidi Slimane":{"countryName":"Morocco","stateName":"Kénitra","name":"Sidi Slimane","lat":34.26479,"lon":-5.92598,"geocoding":{},"distantMaxMiles":5},"Sidi Yahia El Gharb":{"countryName":"Morocco","stateName":"Kénitra","name":"Sidi Yahia El Gharb","lat":34.30494,"lon":-6.30404,"geocoding":{},"distantMaxMiles":5},"Sidi-Kacem":{"countryName":"Morocco","stateName":"Kénitra","name":"Sidi-Kacem","lat":34.58333,"lon":-5.75,"geocoding":{},"distantMaxMiles":5},"Skhirate":{"countryName":"Morocco","stateName":"Kénitra","name":"Skhirate","lat":33.8527,"lon":-7.03171,"geocoding":{},"distantMaxMiles":5},"Skhirate-Temara":{"countryName":"Morocco","stateName":"Kénitra","name":"Skhirate-Temara","lat":33.77,"lon":-6.87,"geocoding":{},"distantMaxMiles":5},"Souq Larb’a al Gharb":{"countryName":"Morocco","stateName":"Kénitra","name":"Souq Larb’a al Gharb","lat":34.68664,"lon":-6.00272,"geocoding":{},"distantMaxMiles":5},"Temara":{"countryName":"Morocco","stateName":"Kénitra","name":"Temara","lat":33.92866,"lon":-6.90656,"geocoding":{},"distantMaxMiles":5},"Teroual":{"countryName":"Morocco","stateName":"Kénitra","name":"Teroual","lat":34.67452,"lon":-5.27331,"geocoding":{},"distantMaxMiles":5},"Tiflet":{"countryName":"Morocco","stateName":"Kénitra","name":"Tiflet","lat":33.89469,"lon":-6.30649,"geocoding":{},"distantMaxMiles":5}}},"L'Oriental":{"countryName":"Morocco","name":"L'Oriental","isoCode":"02","lat":37.069683,"lon":-94.512277,"geocoding":{},"distantMaxMiles":5,"cities":{"Ahfir":{"countryName":"Morocco","stateName":"L'Oriental","name":"Ahfir","lat":34.95368,"lon":-2.10027,"geocoding":{},"distantMaxMiles":5},"Al Aaroui":{"countryName":"Morocco","stateName":"L'Oriental","name":"Al Aaroui","lat":35.0109,"lon":-3.00938,"geocoding":{},"distantMaxMiles":5},"Aïn Beni Mathar":{"countryName":"Morocco","stateName":"L'Oriental","name":"Aïn Beni Mathar","lat":34.0097,"lon":-2.03238,"geocoding":{},"distantMaxMiles":5},"Berkane":{"countryName":"Morocco","stateName":"L'Oriental","name":"Berkane","lat":34.61,"lon":-2.57,"geocoding":{},"distantMaxMiles":5},"Bouarfa":{"countryName":"Morocco","stateName":"L'Oriental","name":"Bouarfa","lat":32.53379,"lon":-1.96209,"geocoding":{},"distantMaxMiles":5},"Debdou":{"countryName":"Morocco","stateName":"L'Oriental","name":"Debdou","lat":33.98228,"lon":-3.04263,"geocoding":{},"distantMaxMiles":5},"Driouch Province":{"countryName":"Morocco","stateName":"L'Oriental","name":"Driouch Province","lat":34.9767,"lon":-3.38842,"geocoding":{},"distantMaxMiles":5},"El Aïoun":{"countryName":"Morocco","stateName":"L'Oriental","name":"El Aïoun","lat":34.58319,"lon":-2.50612,"geocoding":{},"distantMaxMiles":5},"Figuig":{"countryName":"Morocco","stateName":"L'Oriental","name":"Figuig","lat":32.83333,"lon":-2.25,"geocoding":{},"distantMaxMiles":5},"Guercif Province":{"countryName":"Morocco","stateName":"L'Oriental","name":"Guercif Province","lat":34.25041,"lon":-3.32542,"geocoding":{},"distantMaxMiles":5},"Jerada":{"countryName":"Morocco","stateName":"L'Oriental","name":"Jerada","lat":34.23662,"lon":-2.04284,"geocoding":{},"distantMaxMiles":5},"Madagh":{"countryName":"Morocco","stateName":"L'Oriental","name":"Madagh","lat":35.01032,"lon":-2.33701,"geocoding":{},"distantMaxMiles":5},"Midar":{"countryName":"Morocco","stateName":"L'Oriental","name":"Midar","lat":34.94025,"lon":-3.53311,"geocoding":{},"distantMaxMiles":5},"Nador":{"countryName":"Morocco","stateName":"L'Oriental","name":"Nador","lat":35,"lon":-3,"geocoding":{},"distantMaxMiles":5},"Oujda-Angad":{"countryName":"Morocco","stateName":"L'Oriental","name":"Oujda-Angad","lat":34.236,"lon":-2.294,"geocoding":{},"distantMaxMiles":5},"Saidia":{"countryName":"Morocco","stateName":"L'Oriental","name":"Saidia","lat":35.08195,"lon":-2.22897,"geocoding":{},"distantMaxMiles":5},"Selouane":{"countryName":"Morocco","stateName":"L'Oriental","name":"Selouane","lat":35.07313,"lon":-2.9423,"geocoding":{},"distantMaxMiles":5},"Taourirt":{"countryName":"Morocco","stateName":"L'Oriental","name":"Taourirt","lat":34.40731,"lon":-2.89732,"geocoding":{},"distantMaxMiles":5},"Tiztoutine":{"countryName":"Morocco","stateName":"L'Oriental","name":"Tiztoutine","lat":34.97159,"lon":-3.15273,"geocoding":{},"distantMaxMiles":5},"Zaïo":{"countryName":"Morocco","stateName":"L'Oriental","name":"Zaïo","lat":34.94282,"lon":-2.7329,"geocoding":{},"distantMaxMiles":5}}},"Larache":{"countryName":"Morocco","name":"Larache","isoCode":"LAR","lat":35.1744271,"lon":-6.1473964,"geocoding":{},"distantMaxMiles":5,"cities":{}},"Laâyoune (EH)":{"countryName":"Morocco","name":"Laâyoune (EH)","isoCode":"LAA","lat":27.1500384,"lon":-13.1990758,"geocoding":{},"distantMaxMiles":5,"cities":{}},"Laâyoune-Sakia El Hamra (EH-partial)":{"countryName":"Morocco","name":"Laâyoune-Sakia El Hamra (EH-partial)","isoCode":"11","lat":27.8683194,"lon":-11.9804613,"geocoding":{},"distantMaxMiles":5,"cities":{"Akhfennir":{"countryName":"Morocco","stateName":"Laâyoune-Sakia El Hamra (EH-partial)","name":"Akhfennir","lat":28.09455,"lon":-12.05157,"geocoding":{},"distantMaxMiles":5},"Boujdour":{"countryName":"Morocco","stateName":"Laâyoune-Sakia El Hamra (EH-partial)","name":"Boujdour","lat":25.66172,"lon":-13.68419,"geocoding":{},"distantMaxMiles":5},"Es-Semara":{"countryName":"Morocco","stateName":"Laâyoune-Sakia El Hamra (EH-partial)","name":"Es-Semara","lat":27.75,"lon":-11,"geocoding":{},"distantMaxMiles":5},"Gueltat Zemmour":{"countryName":"Morocco","stateName":"Laâyoune-Sakia El Hamra (EH-partial)","name":"Gueltat Zemmour","lat":25.14276,"lon":-12.37168,"geocoding":{},"distantMaxMiles":5},"Laayoune":{"countryName":"Morocco","stateName":"Laâyoune-Sakia El Hamra (EH-partial)","name":"Laayoune","lat":27.83333,"lon":-12.33333,"geocoding":{},"distantMaxMiles":5},"Smara":{"countryName":"Morocco","stateName":"Laâyoune-Sakia El Hamra (EH-partial)","name":"Smara","lat":26.73841,"lon":-11.67194,"geocoding":{},"distantMaxMiles":5},"Tarfaya":{"countryName":"Morocco","stateName":"Laâyoune-Sakia El Hamra (EH-partial)","name":"Tarfaya","lat":27.93901,"lon":-12.92082,"geocoding":{},"distantMaxMiles":5}}},"Marrakech":{"countryName":"Morocco","name":"Marrakech","isoCode":"MAR","lat":31.6346023,"lon":-8.0778932,"geocoding":{},"distantMaxMiles":5,"cities":{}},"Marrakesh-Safi":{"countryName":"Morocco","name":"Marrakesh-Safi","isoCode":"07","lat":31.7330833,"lon":-8.1338558,"geocoding":{},"distantMaxMiles":5,"cities":{}},"Meknès":{"countryName":"Morocco","name":"Meknès","isoCode":"MEK","lat":33.881,"lon":-5.5730397,"geocoding":{},"distantMaxMiles":5,"cities":{}},"Midelt":{"countryName":"Morocco","name":"Midelt","isoCode":"MID","lat":32.6855079,"lon":-4.7501709,"geocoding":{},"distantMaxMiles":5,"cities":{}},"Mohammadia":{"countryName":"Morocco","name":"Mohammadia","isoCode":"MOH","lat":33.6873749,"lon":-7.4239142,"geocoding":{},"distantMaxMiles":5,"cities":{}},"Moulay Yacoub":{"countryName":"Morocco","name":"Moulay Yacoub","isoCode":"MOU","lat":34.0874479,"lon":-5.1784019,"geocoding":{},"distantMaxMiles":5,"cities":{}},"Médiouna":{"countryName":"Morocco","name":"Médiouna","isoCode":"MED","lat":33.4540939,"lon":-7.516602,"geocoding":{},"distantMaxMiles":5,"cities":{}},"M’diq-Fnideq":{"countryName":"Morocco","name":"M’diq-Fnideq","isoCode":"MDF","lat":35.7733019,"lon":-5.51433,"geocoding":{},"distantMaxMiles":5,"cities":{}},"Nador":{"countryName":"Morocco","name":"Nador","isoCode":"NAD","lat":34.9171926,"lon":-2.8577105,"geocoding":{},"distantMaxMiles":5,"cities":{}},"Nouaceur":{"countryName":"Morocco","name":"Nouaceur","isoCode":"NOU","lat":33.3670393,"lon":-7.5732537,"geocoding":{},"distantMaxMiles":5,"cities":{}},"Ouarzazate":{"countryName":"Morocco","name":"Ouarzazate","isoCode":"OUA","lat":30.9335436,"lon":-6.937016,"geocoding":{},"distantMaxMiles":5,"cities":{}},"Oued Ed-Dahab (EH)":{"countryName":"Morocco","name":"Oued Ed-Dahab (EH)","isoCode":"OUD","lat":22.7337892,"lon":-14.2861116,"geocoding":{},"distantMaxMiles":5,"cities":{"Aousserd":{"countryName":"Morocco","stateName":"Oued Ed-Dahab (EH)","name":"Aousserd","lat":21.91977,"lon":-15.02068,"geocoding":{},"distantMaxMiles":5},"Imlili":{"countryName":"Morocco","stateName":"Oued Ed-Dahab (EH)","name":"Imlili","lat":22.6558,"lon":-15.60719,"geocoding":{},"distantMaxMiles":5},"Oued-Ed-Dahab":{"countryName":"Morocco","stateName":"Oued Ed-Dahab (EH)","name":"Oued-Ed-Dahab","lat":23.64201,"lon":-14.44934,"geocoding":{},"distantMaxMiles":5}}},"Ouezzane":{"countryName":"Morocco","name":"Ouezzane","isoCode":"OUZ","lat":34.806345,"lon":-5.5914505,"geocoding":{},"distantMaxMiles":5,"cities":{}},"Oujda-Angad":{"countryName":"Morocco","name":"Oujda-Angad","isoCode":"OUJ","lat":34.6837504,"lon":-2.2993239,"geocoding":{},"distantMaxMiles":5,"cities":{}},"Rabat":{"countryName":"Morocco","name":"Rabat","isoCode":"RAB","lat":33.969199,"lon":-6.9273029,"geocoding":{},"distantMaxMiles":5,"cities":{}},"Rabat-Salé-Kénitra":{"countryName":"Morocco","name":"Rabat-Salé-Kénitra","isoCode":"04","lat":34.076864,"lon":-7.3454476,"geocoding":{},"distantMaxMiles":5,"cities":{}},"Rehamna":{"countryName":"Morocco","name":"Rehamna","isoCode":"REH","lat":32.2032905,"lon":-8.5689671,"geocoding":{},"distantMaxMiles":5,"cities":{}},"Safi":{"countryName":"Morocco","name":"Safi","isoCode":"SAF","lat":32.2989872,"lon":-9.1013498,"geocoding":{},"distantMaxMiles":5,"cities":{"Abadou":{"countryName":"Morocco","stateName":"Safi","name":"Abadou","lat":31.57917,"lon":-7.31308,"geocoding":{},"distantMaxMiles":5},"Adassil":{"countryName":"Morocco","stateName":"Safi","name":"Adassil","lat":31.10783,"lon":-8.49083,"geocoding":{},"distantMaxMiles":5},"Al-Haouz":{"countryName":"Morocco","stateName":"Safi","name":"Al-Haouz","lat":31.34083,"lon":-7.91076,"geocoding":{},"distantMaxMiles":5},"Bouabout":{"countryName":"Morocco","stateName":"Safi","name":"Bouabout","lat":31.26554,"lon":-9.17865,"geocoding":{},"distantMaxMiles":5},"Chichaoua":{"countryName":"Morocco","stateName":"Safi","name":"Chichaoua","lat":31.26365,"lon":-8.84411,"geocoding":{},"distantMaxMiles":5},"Essaouira":{"countryName":"Morocco","stateName":"Safi","name":"Essaouira","lat":31.50675,"lon":-9.75655,"geocoding":{},"distantMaxMiles":5},"Kelaa-Des-Sraghna":{"countryName":"Morocco","stateName":"Safi","name":"Kelaa-Des-Sraghna","lat":32.16667,"lon":-7.75,"geocoding":{},"distantMaxMiles":5},"Marrakech":{"countryName":"Morocco","stateName":"Safi","name":"Marrakech","lat":31.63623,"lon":-8.01041,"geocoding":{},"distantMaxMiles":5},"Marrakesh":{"countryName":"Morocco","stateName":"Safi","name":"Marrakesh","lat":31.63416,"lon":-7.99994,"geocoding":{},"distantMaxMiles":5},"Oukaïmedene":{"countryName":"Morocco","stateName":"Safi","name":"Oukaïmedene","lat":31.20603,"lon":-7.86089,"geocoding":{},"distantMaxMiles":5},"Rehamna":{"countryName":"Morocco","stateName":"Safi","name":"Rehamna","lat":32.24581,"lon":-7.93144,"geocoding":{},"distantMaxMiles":5},"Safi":{"countryName":"Morocco","stateName":"Safi","name":"Safi","lat":32.16667,"lon":-8.83333,"geocoding":{},"distantMaxMiles":5},"Setti Fatma":{"countryName":"Morocco","stateName":"Safi","name":"Setti Fatma","lat":31.22508,"lon":-7.67751,"geocoding":{},"distantMaxMiles":5},"Sidi Rahhal":{"countryName":"Morocco","stateName":"Safi","name":"Sidi Rahhal","lat":31.65031,"lon":-7.47288,"geocoding":{},"distantMaxMiles":5},"Smimou":{"countryName":"Morocco","stateName":"Safi","name":"Smimou","lat":31.21014,"lon":-9.70863,"geocoding":{},"distantMaxMiles":5},"Tamanar":{"countryName":"Morocco","stateName":"Safi","name":"Tamanar","lat":31.00087,"lon":-9.67802,"geocoding":{},"distantMaxMiles":5},"Taouloukoult":{"countryName":"Morocco","stateName":"Safi","name":"Taouloukoult","lat":31.22218,"lon":-9.07943,"geocoding":{},"distantMaxMiles":5},"Tidili Mesfioua":{"countryName":"Morocco","stateName":"Safi","name":"Tidili Mesfioua","lat":31.46586,"lon":-7.61199,"geocoding":{},"distantMaxMiles":5},"Timezgadiouine":{"countryName":"Morocco","stateName":"Safi","name":"Timezgadiouine","lat":30.88366,"lon":-9.04548,"geocoding":{},"distantMaxMiles":5},"Youssoufia":{"countryName":"Morocco","stateName":"Safi","name":"Youssoufia","lat":32.24634,"lon":-8.52941,"geocoding":{},"distantMaxMiles":5},"Zerkten":{"countryName":"Morocco","stateName":"Safi","name":"Zerkten","lat":31.4447,"lon":-7.39224,"geocoding":{},"distantMaxMiles":5}}},"Salé":{"countryName":"Morocco","name":"Salé","isoCode":"SAL","lat":34.037757,"lon":-6.8427073,"geocoding":{},"distantMaxMiles":5,"cities":{}},"Sefrou":{"countryName":"Morocco","name":"Sefrou","isoCode":"SEF","lat":33.8305244,"lon":-4.8353154,"geocoding":{},"distantMaxMiles":5,"cities":{}},"Settat":{"countryName":"Morocco","name":"Settat","isoCode":"SET","lat":32.9924242,"lon":-7.6222665,"geocoding":{},"distantMaxMiles":5,"cities":{}},"Sidi Bennour":{"countryName":"Morocco","name":"Sidi Bennour","isoCode":"SIB","lat":32.6492602,"lon":-8.4471453,"geocoding":{},"distantMaxMiles":5,"cities":{}},"Sidi Ifni":{"countryName":"Morocco","name":"Sidi Ifni","isoCode":"SIF","lat":29.3665797,"lon":-10.2108485,"geocoding":{},"distantMaxMiles":5,"cities":{}},"Sidi Kacem":{"countryName":"Morocco","name":"Sidi Kacem","isoCode":"SIK","lat":34.2260172,"lon":-5.7129164,"geocoding":{},"distantMaxMiles":5,"cities":{}},"Sidi Slimane":{"countryName":"Morocco","name":"Sidi Slimane","isoCode":"SIL","lat":34.2737828,"lon":-5.9805972,"geocoding":{},"distantMaxMiles":5,"cities":{}},"Skhirate-Témara":{"countryName":"Morocco","name":"Skhirate-Témara","isoCode":"SKH","lat":33.7622425,"lon":-7.0419052,"geocoding":{},"distantMaxMiles":5,"cities":{}},"Souss-Massa":{"countryName":"Morocco","name":"Souss-Massa","isoCode":"09","lat":30.2750611,"lon":-8.1338558,"geocoding":{},"distantMaxMiles":5,"cities":{}},"Tan-Tan (EH-partial)":{"countryName":"Morocco","name":"Tan-Tan (EH-partial)","isoCode":"TNT","lat":28.03012,"lon":-11.1617356,"geocoding":{},"distantMaxMiles":5,"cities":{}},"Tanger-Assilah":{"countryName":"Morocco","name":"Tanger-Assilah","isoCode":"TNG","lat":35.7632539,"lon":-5.9045098,"geocoding":{},"distantMaxMiles":5,"cities":{}},"Tanger-Tétouan-Al Hoceïma":{"countryName":"Morocco","name":"Tanger-Tétouan-Al Hoceïma","isoCode":"01","lat":35.2629558,"lon":-5.5617279,"geocoding":{},"distantMaxMiles":5,"cities":{"Al Hoceïma":{"countryName":"Morocco","stateName":"Tanger-Tétouan-Al Hoceïma","name":"Al Hoceïma","lat":35.25165,"lon":-3.93723,"geocoding":{},"distantMaxMiles":5},"Al-Hoceima":{"countryName":"Morocco","stateName":"Tanger-Tétouan-Al Hoceïma","name":"Al-Hoceima","lat":35,"lon":-4.25,"geocoding":{},"distantMaxMiles":5},"Asilah":{"countryName":"Morocco","stateName":"Tanger-Tétouan-Al Hoceïma","name":"Asilah","lat":35.46522,"lon":-6.03415,"geocoding":{},"distantMaxMiles":5},"Bni Bouayach":{"countryName":"Morocco","stateName":"Tanger-Tétouan-Al Hoceïma","name":"Bni Bouayach","lat":35.10506,"lon":-3.84028,"geocoding":{},"distantMaxMiles":5},"Brikcha":{"countryName":"Morocco","stateName":"Tanger-Tétouan-Al Hoceïma","name":"Brikcha","lat":34.96732,"lon":-5.57295,"geocoding":{},"distantMaxMiles":5},"Cap Negro II":{"countryName":"Morocco","stateName":"Tanger-Tétouan-Al Hoceïma","name":"Cap Negro II","lat":35.6597,"lon":-5.28525,"geocoding":{},"distantMaxMiles":5},"Chefchaouen Province":{"countryName":"Morocco","stateName":"Tanger-Tétouan-Al Hoceïma","name":"Chefchaouen Province","lat":35,"lon":-5.08333,"geocoding":{},"distantMaxMiles":5},"Chefchaouene":{"countryName":"Morocco","stateName":"Tanger-Tétouan-Al Hoceïma","name":"Chefchaouene","lat":35.16878,"lon":-5.2636,"geocoding":{},"distantMaxMiles":5},"Derdara":{"countryName":"Morocco","stateName":"Tanger-Tétouan-Al Hoceïma","name":"Derdara","lat":35.11041,"lon":-5.29015,"geocoding":{},"distantMaxMiles":5},"Fahs-Anjra":{"countryName":"Morocco","stateName":"Tanger-Tétouan-Al Hoceïma","name":"Fahs-Anjra","lat":35.74,"lon":-5.68,"geocoding":{},"distantMaxMiles":5},"Fnidek":{"countryName":"Morocco","stateName":"Tanger-Tétouan-Al Hoceïma","name":"Fnidek","lat":35.84906,"lon":-5.35747,"geocoding":{},"distantMaxMiles":5},"Imzouren":{"countryName":"Morocco","stateName":"Tanger-Tétouan-Al Hoceïma","name":"Imzouren","lat":35.14637,"lon":-3.85063,"geocoding":{},"distantMaxMiles":5},"Ksar El Kebir":{"countryName":"Morocco","stateName":"Tanger-Tétouan-Al Hoceïma","name":"Ksar El Kebir","lat":35.00044,"lon":-5.90378,"geocoding":{},"distantMaxMiles":5},"Larache":{"countryName":"Morocco","stateName":"Tanger-Tétouan-Al Hoceïma","name":"Larache","lat":35.16667,"lon":-5.83333,"geocoding":{},"distantMaxMiles":5},"M'Diq-Fnideq":{"countryName":"Morocco","stateName":"Tanger-Tétouan-Al Hoceïma","name":"M'Diq-Fnideq","lat":35.85743,"lon":-5.35858,"geocoding":{},"distantMaxMiles":5},"Martil":{"countryName":"Morocco","stateName":"Tanger-Tétouan-Al Hoceïma","name":"Martil","lat":35.61662,"lon":-5.27522,"geocoding":{},"distantMaxMiles":5},"Oued Laou":{"countryName":"Morocco","stateName":"Tanger-Tétouan-Al Hoceïma","name":"Oued Laou","lat":35.4484,"lon":-5.09627,"geocoding":{},"distantMaxMiles":5},"Ouezzane":{"countryName":"Morocco","stateName":"Tanger-Tétouan-Al Hoceïma","name":"Ouezzane","lat":34.79584,"lon":-5.57849,"geocoding":{},"distantMaxMiles":5},"Ouezzane Province":{"countryName":"Morocco","stateName":"Tanger-Tétouan-Al Hoceïma","name":"Ouezzane Province","lat":34.79759,"lon":-5.58603,"geocoding":{},"distantMaxMiles":5},"Senada":{"countryName":"Morocco","stateName":"Tanger-Tétouan-Al Hoceïma","name":"Senada","lat":35.07452,"lon":-4.21583,"geocoding":{},"distantMaxMiles":5},"Tamorot":{"countryName":"Morocco","stateName":"Tanger-Tétouan-Al Hoceïma","name":"Tamorot","lat":34.93632,"lon":-4.7794,"geocoding":{},"distantMaxMiles":5},"Tanger-Assilah":{"countryName":"Morocco","stateName":"Tanger-Tétouan-Al Hoceïma","name":"Tanger-Assilah","lat":35.59,"lon":-5.9,"geocoding":{},"distantMaxMiles":5},"Tangier":{"countryName":"Morocco","stateName":"Tanger-Tétouan-Al Hoceïma","name":"Tangier","lat":35.76727,"lon":-5.79975,"geocoding":{},"distantMaxMiles":5},"Targuist":{"countryName":"Morocco","stateName":"Tanger-Tétouan-Al Hoceïma","name":"Targuist","lat":34.93769,"lon":-4.31856,"geocoding":{},"distantMaxMiles":5},"Tetouan":{"countryName":"Morocco","stateName":"Tanger-Tétouan-Al Hoceïma","name":"Tetouan","lat":35.58333,"lon":-5.5,"geocoding":{},"distantMaxMiles":5},"Tirhanimîne":{"countryName":"Morocco","stateName":"Tanger-Tétouan-Al Hoceïma","name":"Tirhanimîne","lat":35.23619,"lon":-3.95453,"geocoding":{},"distantMaxMiles":5},"Zinat":{"countryName":"Morocco","stateName":"Tanger-Tétouan-Al Hoceïma","name":"Zinat","lat":35.43,"lon":-5.4,"geocoding":{},"distantMaxMiles":5},"Zoumi":{"countryName":"Morocco","stateName":"Tanger-Tétouan-Al Hoceïma","name":"Zoumi","lat":34.80321,"lon":-5.34458,"geocoding":{},"distantMaxMiles":5}}},"Taounate":{"countryName":"Morocco","name":"Taounate","isoCode":"TAO","lat":34.536917,"lon":-4.6398693,"geocoding":{},"distantMaxMiles":5,"cities":{}},"Taourirt":{"countryName":"Morocco","name":"Taourirt","isoCode":"TAI","lat":34.212598,"lon":-2.6983868,"geocoding":{},"distantMaxMiles":5,"cities":{}},"Tarfaya (EH-partial)":{"countryName":"Morocco","name":"Tarfaya (EH-partial)","isoCode":"TAF","lat":27.9377701,"lon":-12.9294063,"geocoding":{},"distantMaxMiles":5,"cities":{}},"Taroudannt":{"countryName":"Morocco","name":"Taroudannt","isoCode":"TAR","lat":30.4727126,"lon":-8.8748765,"geocoding":{},"distantMaxMiles":5,"cities":{}},"Tata":{"countryName":"Morocco","name":"Tata","isoCode":"TAT","lat":29.750877,"lon":-7.9756343,"geocoding":{},"distantMaxMiles":5,"cities":{}},"Taza":{"countryName":"Morocco","name":"Taza","isoCode":"TAZ","lat":34.2788953,"lon":-3.5812692,"geocoding":{},"distantMaxMiles":5,"cities":{}},"Tinghir":{"countryName":"Morocco","name":"Tinghir","isoCode":"TIN","lat":31.4850794,"lon":-6.2019298,"geocoding":{},"distantMaxMiles":5,"cities":{}},"Tiznit":{"countryName":"Morocco","name":"Tiznit","isoCode":"TIZ","lat":29.693392,"lon":-9.732157,"geocoding":{},"distantMaxMiles":5,"cities":{}},"Tétouan":{"countryName":"Morocco","name":"Tétouan","isoCode":"TET","lat":35.5888995,"lon":-5.3625516,"geocoding":{},"distantMaxMiles":5,"cities":{}},"Youssoufia":{"countryName":"Morocco","name":"Youssoufia","isoCode":"YUS","lat":32.0200679,"lon":-8.8692648,"geocoding":{},"distantMaxMiles":5,"cities":{}},"Zagora":{"countryName":"Morocco","name":"Zagora","isoCode":"ZAG","lat":30.5786093,"lon":-5.8987139,"geocoding":{},"distantMaxMiles":5,"cities":{}}}}