{"name":"Myanmar","isoCode":"MM","lat":22,"lon":98,"geocoding":{},"distantMaxMiles":5,"states":{"Ayeyarwady Region":{"countryName":"Myanmar","name":"Ayeyarwady Region","isoCode":"07","lat":17.0342125,"lon":95.2266675,"geocoding":{},"distantMaxMiles":5,"cities":{"Bogale":{"countryName":"Myanmar","stateName":"Ayeyarwady Region","name":"Bogale","lat":16.29415,"lon":95.39742,"geocoding":{},"distantMaxMiles":5},"Hinthada":{"countryName":"Myanmar","stateName":"Ayeyarwady Region","name":"Hinthada","lat":17.64944,"lon":95.45705,"geocoding":{},"distantMaxMiles":5},"Kyaiklat":{"countryName":"Myanmar","stateName":"Ayeyarwady Region","name":"Kyaiklat","lat":16.44502,"lon":95.72373,"geocoding":{},"distantMaxMiles":5},"Maubin":{"countryName":"Myanmar","stateName":"Ayeyarwady Region","name":"Maubin","lat":16.73148,"lon":95.65441,"geocoding":{},"distantMaxMiles":5},"Mawlamyinegyunn":{"countryName":"Myanmar","stateName":"Ayeyarwady Region","name":"Mawlamyinegyunn","lat":16.3772,"lon":95.26488,"geocoding":{},"distantMaxMiles":5},"Myanaung":{"countryName":"Myanmar","stateName":"Ayeyarwady Region","name":"Myanaung","lat":18.28651,"lon":95.32014,"geocoding":{},"distantMaxMiles":5},"Nyaungdon":{"countryName":"Myanmar","stateName":"Ayeyarwady Region","name":"Nyaungdon","lat":17.04459,"lon":95.63957,"geocoding":{},"distantMaxMiles":5},"Pathein":{"countryName":"Myanmar","stateName":"Ayeyarwady Region","name":"Pathein","lat":16.77919,"lon":94.73212,"geocoding":{},"distantMaxMiles":5},"Pyapon":{"countryName":"Myanmar","stateName":"Ayeyarwady Region","name":"Pyapon","lat":16.28543,"lon":95.67882,"geocoding":{},"distantMaxMiles":5},"Wakema":{"countryName":"Myanmar","stateName":"Ayeyarwady Region","name":"Wakema","lat":16.60333,"lon":95.18278,"geocoding":{},"distantMaxMiles":5}}},"Bago":{"countryName":"Myanmar","name":"Bago","isoCode":"02","lat":17.3220711,"lon":96.4663286,"geocoding":{},"distantMaxMiles":5,"cities":{"Bago":{"countryName":"Myanmar","stateName":"Bago","name":"Bago","lat":17.33521,"lon":96.48135,"geocoding":{},"distantMaxMiles":5},"Letpandan":{"countryName":"Myanmar","stateName":"Bago","name":"Letpandan","lat":17.78664,"lon":95.75076,"geocoding":{},"distantMaxMiles":5},"Nyaunglebin":{"countryName":"Myanmar","stateName":"Bago","name":"Nyaunglebin","lat":17.95363,"lon":96.72247,"geocoding":{},"distantMaxMiles":5},"Paungde":{"countryName":"Myanmar","stateName":"Bago","name":"Paungde","lat":18.49167,"lon":95.50591,"geocoding":{},"distantMaxMiles":5},"Pyay":{"countryName":"Myanmar","stateName":"Bago","name":"Pyay","lat":18.82464,"lon":95.22216,"geocoding":{},"distantMaxMiles":5},"Pyu":{"countryName":"Myanmar","stateName":"Bago","name":"Pyu","lat":18.4813,"lon":96.43742,"geocoding":{},"distantMaxMiles":5},"Taungoo":{"countryName":"Myanmar","stateName":"Bago","name":"Taungoo","lat":18.94291,"lon":96.43408,"geocoding":{},"distantMaxMiles":5},"Thanatpin":{"countryName":"Myanmar","stateName":"Bago","name":"Thanatpin","lat":17.29136,"lon":96.57523,"geocoding":{},"distantMaxMiles":5},"Tharyarwady":{"countryName":"Myanmar","stateName":"Bago","name":"Tharyarwady","lat":17.65399,"lon":95.78813,"geocoding":{},"distantMaxMiles":5}}},"Chin State":{"countryName":"Myanmar","name":"Chin State","isoCode":"14","lat":22.0086978,"lon":93.5812692,"geocoding":{},"distantMaxMiles":5,"cities":{"Falam":{"countryName":"Myanmar","stateName":"Chin State","name":"Falam","lat":22.91335,"lon":93.67779,"geocoding":{},"distantMaxMiles":5},"Hakha":{"countryName":"Myanmar","stateName":"Chin State","name":"Hakha","lat":22.64452,"lon":93.61076,"geocoding":{},"distantMaxMiles":5}}},"Kachin State":{"countryName":"Myanmar","name":"Kachin State","isoCode":"11","lat":25.850904,"lon":97.4381355,"geocoding":{},"distantMaxMiles":5,"cities":{"Bhamo":{"countryName":"Myanmar","stateName":"Kachin State","name":"Bhamo","lat":24.25256,"lon":97.23357,"geocoding":{},"distantMaxMiles":5},"Myitkyina":{"countryName":"Myanmar","stateName":"Kachin State","name":"Myitkyina","lat":25.38327,"lon":97.39637,"geocoding":{},"distantMaxMiles":5}}},"Kayah State":{"countryName":"Myanmar","name":"Kayah State","isoCode":"12","lat":19.2342061,"lon":97.2652858,"geocoding":{},"distantMaxMiles":5,"cities":{"Loikaw":{"countryName":"Myanmar","stateName":"Kayah State","name":"Loikaw","lat":19.67798,"lon":97.20975,"geocoding":{},"distantMaxMiles":5}}},"Kayin State":{"countryName":"Myanmar","name":"Kayin State","isoCode":"13","lat":16.9459346,"lon":97.9592863,"geocoding":{},"distantMaxMiles":5,"cities":{"Dellok":{"countryName":"Myanmar","stateName":"Kayin State","name":"Dellok","lat":16.04072,"lon":97.91773,"geocoding":{},"distantMaxMiles":5},"Hpa-An":{"countryName":"Myanmar","stateName":"Kayin State","name":"Hpa-An","lat":16.88953,"lon":97.63482,"geocoding":{},"distantMaxMiles":5},"Klonhtoug":{"countryName":"Myanmar","stateName":"Kayin State","name":"Klonhtoug","lat":15.95411,"lon":98.4325,"geocoding":{},"distantMaxMiles":5},"Kyain Seikgyi Township":{"countryName":"Myanmar","stateName":"Kayin State","name":"Kyain Seikgyi Township","lat":15.82288,"lon":98.25257,"geocoding":{},"distantMaxMiles":5},"Mikenaungea":{"countryName":"Myanmar","stateName":"Kayin State","name":"Mikenaungea","lat":15.95846,"lon":98.42721,"geocoding":{},"distantMaxMiles":5},"Myawadi":{"countryName":"Myanmar","stateName":"Kayin State","name":"Myawadi","lat":16.68911,"lon":98.50893,"geocoding":{},"distantMaxMiles":5},"Pulei":{"countryName":"Myanmar","stateName":"Kayin State","name":"Pulei","lat":16.06243,"lon":97.8828,"geocoding":{},"distantMaxMiles":5},"Tagondaing":{"countryName":"Myanmar","stateName":"Kayin State","name":"Tagondaing","lat":16.0675,"lon":97.90694,"geocoding":{},"distantMaxMiles":5},"Tamoowoug":{"countryName":"Myanmar","stateName":"Kayin State","name":"Tamoowoug","lat":16.03447,"lon":97.91458,"geocoding":{},"distantMaxMiles":5}}},"Magway Region":{"countryName":"Myanmar","name":"Magway Region","isoCode":"03","lat":19.8871386,"lon":94.7277528,"geocoding":{},"distantMaxMiles":5,"cities":{"Chauk":{"countryName":"Myanmar","stateName":"Magway Region","name":"Chauk","lat":20.89921,"lon":94.81784,"geocoding":{},"distantMaxMiles":5},"Magway":{"countryName":"Myanmar","stateName":"Magway Region","name":"Magway","lat":20.14956,"lon":94.93246,"geocoding":{},"distantMaxMiles":5},"Minbu":{"countryName":"Myanmar","stateName":"Magway Region","name":"Minbu","lat":20.18059,"lon":94.87595,"geocoding":{},"distantMaxMiles":5},"Myaydo":{"countryName":"Myanmar","stateName":"Magway Region","name":"Myaydo","lat":19.36838,"lon":95.21512,"geocoding":{},"distantMaxMiles":5},"Pakokku":{"countryName":"Myanmar","stateName":"Magway Region","name":"Pakokku","lat":21.33489,"lon":95.08438,"geocoding":{},"distantMaxMiles":5},"Taungdwingyi":{"countryName":"Myanmar","stateName":"Magway Region","name":"Taungdwingyi","lat":20.0065,"lon":95.54531,"geocoding":{},"distantMaxMiles":5},"Thayetmyo":{"countryName":"Myanmar","stateName":"Magway Region","name":"Thayetmyo","lat":19.32076,"lon":95.18272,"geocoding":{},"distantMaxMiles":5},"Yenangyaung":{"countryName":"Myanmar","stateName":"Magway Region","name":"Yenangyaung","lat":20.46504,"lon":94.8712,"geocoding":{},"distantMaxMiles":5}}},"Mandalay Region":{"countryName":"Myanmar","name":"Mandalay Region","isoCode":"04","lat":21.5619058,"lon":95.8987139,"geocoding":{},"distantMaxMiles":5,"cities":{"Kyaukse":{"countryName":"Myanmar","stateName":"Mandalay Region","name":"Kyaukse","lat":21.6056,"lon":96.13508,"geocoding":{},"distantMaxMiles":5},"Mandalay":{"countryName":"Myanmar","stateName":"Mandalay Region","name":"Mandalay","lat":21.97473,"lon":96.08359,"geocoding":{},"distantMaxMiles":5},"Meiktila":{"countryName":"Myanmar","stateName":"Mandalay Region","name":"Meiktila","lat":20.87776,"lon":95.85844,"geocoding":{},"distantMaxMiles":5},"Mogok":{"countryName":"Myanmar","stateName":"Mandalay Region","name":"Mogok","lat":22.91766,"lon":96.50982,"geocoding":{},"distantMaxMiles":5},"Myingyan":{"countryName":"Myanmar","stateName":"Mandalay Region","name":"Myingyan","lat":21.46002,"lon":95.3884,"geocoding":{},"distantMaxMiles":5},"Nyaungshwe":{"countryName":"Myanmar","stateName":"Mandalay Region","name":"Nyaungshwe","lat":20.66084,"lon":96.93405,"geocoding":{},"distantMaxMiles":5},"Pyin Oo Lwin":{"countryName":"Myanmar","stateName":"Mandalay Region","name":"Pyin Oo Lwin","lat":22.03501,"lon":96.45683,"geocoding":{},"distantMaxMiles":5},"Yamethin":{"countryName":"Myanmar","stateName":"Mandalay Region","name":"Yamethin","lat":20.43189,"lon":96.13875,"geocoding":{},"distantMaxMiles":5}}},"Mon State":{"countryName":"Myanmar","name":"Mon State","isoCode":"15","lat":16.3003133,"lon":97.6982272,"geocoding":{},"distantMaxMiles":5,"cities":{"Kyaikkami":{"countryName":"Myanmar","stateName":"Mon State","name":"Kyaikkami","lat":16.07686,"lon":97.56388,"geocoding":{},"distantMaxMiles":5},"Kyaikto":{"countryName":"Myanmar","stateName":"Mon State","name":"Kyaikto","lat":17.30858,"lon":97.01124,"geocoding":{},"distantMaxMiles":5},"Martaban":{"countryName":"Myanmar","stateName":"Mon State","name":"Martaban","lat":16.52834,"lon":97.6157,"geocoding":{},"distantMaxMiles":5},"Mawlamyine":{"countryName":"Myanmar","stateName":"Mon State","name":"Mawlamyine","lat":16.49051,"lon":97.62825,"geocoding":{},"distantMaxMiles":5},"Mudon":{"countryName":"Myanmar","stateName":"Mon State","name":"Mudon","lat":16.25624,"lon":97.7246,"geocoding":{},"distantMaxMiles":5},"Thaton":{"countryName":"Myanmar","stateName":"Mon State","name":"Thaton","lat":16.91867,"lon":97.37001,"geocoding":{},"distantMaxMiles":5}}},"Naypyidaw Union Territory":{"countryName":"Myanmar","name":"Naypyidaw Union Territory","isoCode":"18","lat":19.9386245,"lon":96.1526985,"geocoding":{},"distantMaxMiles":5,"cities":{"Nay Pyi Taw":{"countryName":"Myanmar","stateName":"Naypyidaw Union Territory","name":"Nay Pyi Taw","lat":19.745,"lon":96.12972,"geocoding":{},"distantMaxMiles":5},"Pyinmana":{"countryName":"Myanmar","stateName":"Naypyidaw Union Territory","name":"Pyinmana","lat":19.7381,"lon":96.20742,"geocoding":{},"distantMaxMiles":5}}},"Rakhine State":{"countryName":"Myanmar","name":"Rakhine State","isoCode":"16","lat":20.1040818,"lon":93.5812692,"geocoding":{},"distantMaxMiles":5,"cities":{"Sittwe":{"countryName":"Myanmar","stateName":"Rakhine State","name":"Sittwe","lat":20.14624,"lon":92.89835,"geocoding":{},"distantMaxMiles":5}}},"Sagaing Region":{"countryName":"Myanmar","name":"Sagaing Region","isoCode":"01","lat":24.428381,"lon":95.3939551,"geocoding":{},"distantMaxMiles":5,"cities":{"Mawlaik":{"countryName":"Myanmar","stateName":"Sagaing Region","name":"Mawlaik","lat":23.64254,"lon":94.40478,"geocoding":{},"distantMaxMiles":5},"Monywa":{"countryName":"Myanmar","stateName":"Sagaing Region","name":"Monywa","lat":22.10856,"lon":95.13583,"geocoding":{},"distantMaxMiles":5},"Sagaing":{"countryName":"Myanmar","stateName":"Sagaing Region","name":"Sagaing","lat":21.8787,"lon":95.97965,"geocoding":{},"distantMaxMiles":5},"Shwebo":{"countryName":"Myanmar","stateName":"Sagaing Region","name":"Shwebo","lat":22.56925,"lon":95.69818,"geocoding":{},"distantMaxMiles":5}}},"Shan State":{"countryName":"Myanmar","name":"Shan State","isoCode":"17","lat":22.0361985,"lon":98.1338558,"geocoding":{},"distantMaxMiles":5,"cities":{"Lashio":{"countryName":"Myanmar","stateName":"Shan State","name":"Lashio","lat":22.9359,"lon":97.7498,"geocoding":{},"distantMaxMiles":5},"Tachilek":{"countryName":"Myanmar","stateName":"Shan State","name":"Tachilek","lat":20.4475,"lon":99.88083,"geocoding":{},"distantMaxMiles":5},"Taunggyi":{"countryName":"Myanmar","stateName":"Shan State","name":"Taunggyi","lat":20.78919,"lon":97.03776,"geocoding":{},"distantMaxMiles":5}}},"Tanintharyi Region":{"countryName":"Myanmar","name":"Tanintharyi Region","isoCode":"05","lat":12.4706876,"lon":99.0128926,"geocoding":{},"distantMaxMiles":5,"cities":{"Dawei":{"countryName":"Myanmar","stateName":"Tanintharyi Region","name":"Dawei","lat":14.0823,"lon":98.19151,"geocoding":{},"distantMaxMiles":5},"Kawthoung":{"countryName":"Myanmar","stateName":"Tanintharyi Region","name":"Kawthoung","lat":9.98238,"lon":98.55034,"geocoding":{},"distantMaxMiles":5},"Myeik":{"countryName":"Myanmar","stateName":"Tanintharyi Region","name":"Myeik","lat":12.43954,"lon":98.60028,"geocoding":{},"distantMaxMiles":5}}},"Yangon Region":{"countryName":"Myanmar","name":"Yangon Region","isoCode":"06","lat":16.9143488,"lon":96.1526985,"geocoding":{},"distantMaxMiles":5,"cities":{"Kanbe":{"countryName":"Myanmar","stateName":"Yangon Region","name":"Kanbe","lat":16.70728,"lon":96.00168,"geocoding":{},"distantMaxMiles":5},"Kayan":{"countryName":"Myanmar","stateName":"Yangon Region","name":"Kayan","lat":16.90802,"lon":96.56037,"geocoding":{},"distantMaxMiles":5},"Syriam":{"countryName":"Myanmar","stateName":"Yangon Region","name":"Syriam","lat":16.76887,"lon":96.24503,"geocoding":{},"distantMaxMiles":5},"Thongwa":{"countryName":"Myanmar","stateName":"Yangon Region","name":"Thongwa","lat":16.75998,"lon":96.52498,"geocoding":{},"distantMaxMiles":5},"Twante":{"countryName":"Myanmar","stateName":"Yangon Region","name":"Twante","lat":16.71047,"lon":95.92866,"geocoding":{},"distantMaxMiles":5},"Yangon":{"countryName":"Myanmar","stateName":"Yangon Region","name":"Yangon","lat":16.80528,"lon":96.15611,"geocoding":{},"distantMaxMiles":5}}}}}