{"name":"Panama","isoCode":"PA","lat":9,"lon":-80,"geocoding":{},"distantMaxMiles":5,"states":{"Bocas del Toro Province":{"countryName":"Panama","name":"Bocas del Toro Province","isoCode":"1","lat":9.4165521,"lon":-82.5207787,"geocoding":{},"distantMaxMiles":5,"cities":{"Almirante":{"countryName":"Panama","stateName":"Bocas del Toro Province","name":"Almirante","lat":9.30091,"lon":-82.4018,"geocoding":{},"distantMaxMiles":5},"Barranco":{"countryName":"Panama","stateName":"Bocas del Toro Province","name":"Barranco","lat":9.51984,"lon":-82.70424,"geocoding":{},"distantMaxMiles":5},"Barranco Adentro":{"countryName":"Panama","stateName":"Bocas del Toro Province","name":"Barranco Adentro","lat":9.52757,"lon":-82.73344,"geocoding":{},"distantMaxMiles":5},"Bastimentos":{"countryName":"Panama","stateName":"Bocas del Toro Province","name":"Bastimentos","lat":9.34707,"lon":-82.2088,"geocoding":{},"distantMaxMiles":5},"Bocas del Toro":{"countryName":"Panama","stateName":"Bocas del Toro Province","name":"Bocas del Toro","lat":9.34031,"lon":-82.24204,"geocoding":{},"distantMaxMiles":5},"Cauchero":{"countryName":"Panama","stateName":"Bocas del Toro Province","name":"Cauchero","lat":9.15226,"lon":-82.2645,"geocoding":{},"distantMaxMiles":5},"Changuinola":{"countryName":"Panama","stateName":"Bocas del Toro Province","name":"Changuinola","lat":9.43,"lon":-82.52,"geocoding":{},"distantMaxMiles":5},"Chiriquí Grande":{"countryName":"Panama","stateName":"Bocas del Toro Province","name":"Chiriquí Grande","lat":8.94557,"lon":-82.11769,"geocoding":{},"distantMaxMiles":5},"Distrito Chiriquí Grande":{"countryName":"Panama","stateName":"Bocas del Toro Province","name":"Distrito Chiriquí Grande","lat":8.94748,"lon":-82.12418,"geocoding":{},"distantMaxMiles":5},"Distrito de Bocas del Toro":{"countryName":"Panama","stateName":"Bocas del Toro Province","name":"Distrito de Bocas del Toro","lat":9.36235,"lon":-82.26288,"geocoding":{},"distantMaxMiles":5},"Distrito de Changuinola":{"countryName":"Panama","stateName":"Bocas del Toro Province","name":"Distrito de Changuinola","lat":9.25,"lon":-82.63333,"geocoding":{},"distantMaxMiles":5},"El Empalme":{"countryName":"Panama","stateName":"Bocas del Toro Province","name":"El Empalme","lat":9.41667,"lon":-82.51667,"geocoding":{},"distantMaxMiles":5},"El Silencio":{"countryName":"Panama","stateName":"Bocas del Toro Province","name":"El Silencio","lat":9.37222,"lon":-82.52877,"geocoding":{},"distantMaxMiles":5},"Guabito":{"countryName":"Panama","stateName":"Bocas del Toro Province","name":"Guabito","lat":9.48968,"lon":-82.61279,"geocoding":{},"distantMaxMiles":5},"Isla Bastimentos":{"countryName":"Panama","stateName":"Bocas del Toro Province","name":"Isla Bastimentos","lat":9.3,"lon":-82.13333,"geocoding":{},"distantMaxMiles":5},"La Mesa":{"countryName":"Panama","stateName":"Bocas del Toro Province","name":"La Mesa","lat":9.49587,"lon":-82.67534,"geocoding":{},"distantMaxMiles":5},"Miramar":{"countryName":"Panama","stateName":"Bocas del Toro Province","name":"Miramar","lat":8.99482,"lon":-82.24147,"geocoding":{},"distantMaxMiles":5},"Punta Laurel":{"countryName":"Panama","stateName":"Bocas del Toro Province","name":"Punta Laurel","lat":9.141,"lon":-82.12717,"geocoding":{},"distantMaxMiles":5},"Punta Peña":{"countryName":"Panama","stateName":"Bocas del Toro Province","name":"Punta Peña","lat":8.91659,"lon":-82.18488,"geocoding":{},"distantMaxMiles":5},"Punta Róbalo":{"countryName":"Panama","stateName":"Bocas del Toro Province","name":"Punta Róbalo","lat":9.03631,"lon":-82.24952,"geocoding":{},"distantMaxMiles":5},"Valle del Risco":{"countryName":"Panama","stateName":"Bocas del Toro Province","name":"Valle del Risco","lat":9.23064,"lon":-82.42748,"geocoding":{},"distantMaxMiles":5}}},"Chiriquí Province":{"countryName":"Panama","name":"Chiriquí Province","isoCode":"4","lat":8.584898,"lon":-82.3885783,"geocoding":{},"distantMaxMiles":5,"cities":{"Alanje":{"countryName":"Panama","stateName":"Chiriquí Province","name":"Alanje","lat":8.39791,"lon":-82.55947,"geocoding":{},"distantMaxMiles":5},"Algarrobos Arriba":{"countryName":"Panama","stateName":"Chiriquí Province","name":"Algarrobos Arriba","lat":8.5155,"lon":-82.42263,"geocoding":{},"distantMaxMiles":5},"Alto Boquete":{"countryName":"Panama","stateName":"Chiriquí Province","name":"Alto Boquete","lat":8.73458,"lon":-82.43213,"geocoding":{},"distantMaxMiles":5},"Aserrío de Gariché":{"countryName":"Panama","stateName":"Chiriquí Province","name":"Aserrío de Gariché","lat":8.48257,"lon":-82.79086,"geocoding":{},"distantMaxMiles":5},"Bajo Boquete":{"countryName":"Panama","stateName":"Chiriquí Province","name":"Bajo Boquete","lat":8.77058,"lon":-82.43306,"geocoding":{},"distantMaxMiles":5},"Barrio Guadalupe":{"countryName":"Panama","stateName":"Chiriquí Province","name":"Barrio Guadalupe","lat":8.86482,"lon":-82.56523,"geocoding":{},"distantMaxMiles":5},"Bijagual":{"countryName":"Panama","stateName":"Chiriquí Province","name":"Bijagual","lat":8.51486,"lon":-82.33361,"geocoding":{},"distantMaxMiles":5},"Boca Chica":{"countryName":"Panama","stateName":"Chiriquí Province","name":"Boca Chica","lat":8.21911,"lon":-82.21592,"geocoding":{},"distantMaxMiles":5},"Boca del Monte":{"countryName":"Panama","stateName":"Chiriquí Province","name":"Boca del Monte","lat":8.35296,"lon":-82.11379,"geocoding":{},"distantMaxMiles":5},"Boquerón":{"countryName":"Panama","stateName":"Chiriquí Province","name":"Boquerón","lat":8.5051,"lon":-82.57025,"geocoding":{},"distantMaxMiles":5},"Boquete":{"countryName":"Panama","stateName":"Chiriquí Province","name":"Boquete","lat":8.78024,"lon":-82.44136,"geocoding":{},"distantMaxMiles":5},"Breñón":{"countryName":"Panama","stateName":"Chiriquí Province","name":"Breñón","lat":8.62491,"lon":-82.81277,"geocoding":{},"distantMaxMiles":5},"Bugaba":{"countryName":"Panama","stateName":"Chiriquí Province","name":"Bugaba","lat":8.48255,"lon":-82.61991,"geocoding":{},"distantMaxMiles":5},"Bugabita Arriba":{"countryName":"Panama","stateName":"Chiriquí Province","name":"Bugabita Arriba","lat":8.52143,"lon":-82.63638,"geocoding":{},"distantMaxMiles":5},"Bágala":{"countryName":"Panama","stateName":"Chiriquí Province","name":"Bágala","lat":8.46399,"lon":-82.52617,"geocoding":{},"distantMaxMiles":5},"Caimito":{"countryName":"Panama","stateName":"Chiriquí Province","name":"Caimito","lat":8.54162,"lon":-82.419,"geocoding":{},"distantMaxMiles":5},"Caldera":{"countryName":"Panama","stateName":"Chiriquí Province","name":"Caldera","lat":8.64907,"lon":-82.38058,"geocoding":{},"distantMaxMiles":5},"Cañas Gordas":{"countryName":"Panama","stateName":"Chiriquí Province","name":"Cañas Gordas","lat":8.74309,"lon":-82.91275,"geocoding":{},"distantMaxMiles":5},"Celmira":{"countryName":"Panama","stateName":"Chiriquí Province","name":"Celmira","lat":8.54026,"lon":-82.80022,"geocoding":{},"distantMaxMiles":5},"Cerro Punta":{"countryName":"Panama","stateName":"Chiriquí Province","name":"Cerro Punta","lat":8.84968,"lon":-82.57261,"geocoding":{},"distantMaxMiles":5},"Cerro Viejo":{"countryName":"Panama","stateName":"Chiriquí Province","name":"Cerro Viejo","lat":8.25349,"lon":-81.57658,"geocoding":{},"distantMaxMiles":5},"Chiriquí":{"countryName":"Panama","stateName":"Chiriquí Province","name":"Chiriquí","lat":8.39291,"lon":-82.31993,"geocoding":{},"distantMaxMiles":5},"Cochea Abajo":{"countryName":"Panama","stateName":"Chiriquí Province","name":"Cochea Abajo","lat":8.50512,"lon":-82.35878,"geocoding":{},"distantMaxMiles":5},"Cordillera":{"countryName":"Panama","stateName":"Chiriquí Province","name":"Cordillera","lat":8.70683,"lon":-82.60327,"geocoding":{},"distantMaxMiles":5},"David":{"countryName":"Panama","stateName":"Chiriquí Province","name":"David","lat":8.42729,"lon":-82.43085,"geocoding":{},"distantMaxMiles":5},"Distrito de Alanje":{"countryName":"Panama","stateName":"Chiriquí Province","name":"Distrito de Alanje","lat":8.39842,"lon":-82.64065,"geocoding":{},"distantMaxMiles":5},"Distrito de Barú":{"countryName":"Panama","stateName":"Chiriquí Province","name":"Distrito de Barú","lat":8.29482,"lon":-82.92726,"geocoding":{},"distantMaxMiles":5},"Distrito de Boquerón":{"countryName":"Panama","stateName":"Chiriquí Province","name":"Distrito de Boquerón","lat":8.61667,"lon":-82.56667,"geocoding":{},"distantMaxMiles":5},"Distrito de Boquete":{"countryName":"Panama","stateName":"Chiriquí Province","name":"Distrito de Boquete","lat":8.74896,"lon":-82.36842,"geocoding":{},"distantMaxMiles":5},"Distrito de Bugaba":{"countryName":"Panama","stateName":"Chiriquí Province","name":"Distrito de Bugaba","lat":8.68786,"lon":-82.67937,"geocoding":{},"distantMaxMiles":5},"Distrito de David":{"countryName":"Panama","stateName":"Chiriquí Province","name":"Distrito de David","lat":8.4,"lon":-82.4,"geocoding":{},"distantMaxMiles":5},"Distrito de Dolega":{"countryName":"Panama","stateName":"Chiriquí Province","name":"Distrito de Dolega","lat":8.61667,"lon":-82.45,"geocoding":{},"distantMaxMiles":5},"Distrito de Gualaca":{"countryName":"Panama","stateName":"Chiriquí Province","name":"Distrito de Gualaca","lat":8.57398,"lon":-82.22207,"geocoding":{},"distantMaxMiles":5},"Distrito de Remedios":{"countryName":"Panama","stateName":"Chiriquí Province","name":"Distrito de Remedios","lat":8.20253,"lon":-81.81163,"geocoding":{},"distantMaxMiles":5},"Distrito de Renacimiento":{"countryName":"Panama","stateName":"Chiriquí Province","name":"Distrito de Renacimiento","lat":8.71667,"lon":-82.76667,"geocoding":{},"distantMaxMiles":5},"Distrito de San Félix":{"countryName":"Panama","stateName":"Chiriquí Province","name":"Distrito de San Félix","lat":8.27768,"lon":-81.87377,"geocoding":{},"distantMaxMiles":5},"Distrito de San Lorenzo":{"countryName":"Panama","stateName":"Chiriquí Province","name":"Distrito de San Lorenzo","lat":8.29366,"lon":-82.08922,"geocoding":{},"distantMaxMiles":5},"Distrito de Tolé":{"countryName":"Panama","stateName":"Chiriquí Province","name":"Distrito de Tolé","lat":8.19015,"lon":-81.66007,"geocoding":{},"distantMaxMiles":5},"Divalá":{"countryName":"Panama","stateName":"Chiriquí Province","name":"Divalá","lat":8.41066,"lon":-82.71332,"geocoding":{},"distantMaxMiles":5},"Dolega District":{"countryName":"Panama","stateName":"Chiriquí Province","name":"Dolega District","lat":8.56667,"lon":-82.41407,"geocoding":{},"distantMaxMiles":5},"El Nancito":{"countryName":"Panama","stateName":"Chiriquí Province","name":"El Nancito","lat":8.23811,"lon":-81.73218,"geocoding":{},"distantMaxMiles":5},"El Palmar":{"countryName":"Panama","stateName":"Chiriquí Province","name":"El Palmar","lat":8.30098,"lon":-82.85344,"geocoding":{},"distantMaxMiles":5},"El Porvenir":{"countryName":"Panama","stateName":"Chiriquí Province","name":"El Porvenir","lat":8.22919,"lon":-81.83278,"geocoding":{},"distantMaxMiles":5},"El Tejar":{"countryName":"Panama","stateName":"Chiriquí Province","name":"El Tejar","lat":8.42973,"lon":-82.57294,"geocoding":{},"distantMaxMiles":5},"Finca Blanco":{"countryName":"Panama","stateName":"Chiriquí Province","name":"Finca Blanco","lat":8.37979,"lon":-82.87385,"geocoding":{},"distantMaxMiles":5},"Guabal":{"countryName":"Panama","stateName":"Chiriquí Province","name":"Guabal","lat":8.57466,"lon":-82.5373,"geocoding":{},"distantMaxMiles":5},"Guaca Arriba":{"countryName":"Panama","stateName":"Chiriquí Province","name":"Guaca Arriba","lat":8.53733,"lon":-82.49281,"geocoding":{},"distantMaxMiles":5},"Gualaca":{"countryName":"Panama","stateName":"Chiriquí Province","name":"Gualaca","lat":8.53006,"lon":-82.29959,"geocoding":{},"distantMaxMiles":5},"Guarumal":{"countryName":"Panama","stateName":"Chiriquí Province","name":"Guarumal","lat":8.34523,"lon":-82.53205,"geocoding":{},"distantMaxMiles":5},"Guayabal":{"countryName":"Panama","stateName":"Chiriquí Province","name":"Guayabal","lat":8.62193,"lon":-82.57935,"geocoding":{},"distantMaxMiles":5},"Gómez":{"countryName":"Panama","stateName":"Chiriquí Province","name":"Gómez","lat":8.56085,"lon":-82.74142,"geocoding":{},"distantMaxMiles":5},"Horconcitos":{"countryName":"Panama","stateName":"Chiriquí Province","name":"Horconcitos","lat":8.31142,"lon":-82.15102,"geocoding":{},"distantMaxMiles":5},"La Concepción":{"countryName":"Panama","stateName":"Chiriquí Province","name":"La Concepción","lat":8.51212,"lon":-82.61858,"geocoding":{},"distantMaxMiles":5},"La Esperanza":{"countryName":"Panama","stateName":"Chiriquí Province","name":"La Esperanza","lat":8.40344,"lon":-82.79197,"geocoding":{},"distantMaxMiles":5},"La Estrella":{"countryName":"Panama","stateName":"Chiriquí Province","name":"La Estrella","lat":8.51572,"lon":-82.67212,"geocoding":{},"distantMaxMiles":5},"Lajas Adentro":{"countryName":"Panama","stateName":"Chiriquí Province","name":"Lajas Adentro","lat":8.24981,"lon":-81.87779,"geocoding":{},"distantMaxMiles":5},"Lajas de Tolé":{"countryName":"Panama","stateName":"Chiriquí Province","name":"Lajas de Tolé","lat":8.16994,"lon":-81.69654,"geocoding":{},"distantMaxMiles":5},"Las Lajas":{"countryName":"Panama","stateName":"Chiriquí Province","name":"Las Lajas","lat":8.24184,"lon":-81.86931,"geocoding":{},"distantMaxMiles":5},"Las Lomas":{"countryName":"Panama","stateName":"Chiriquí Province","name":"Las Lomas","lat":8.42927,"lon":-82.38743,"geocoding":{},"distantMaxMiles":5},"Limones":{"countryName":"Panama","stateName":"Chiriquí Province","name":"Limones","lat":8.10007,"lon":-82.86679,"geocoding":{},"distantMaxMiles":5},"Los Algarrobos":{"countryName":"Panama","stateName":"Chiriquí Province","name":"Los Algarrobos","lat":8.49601,"lon":-82.42417,"geocoding":{},"distantMaxMiles":5},"Los Anastacios":{"countryName":"Panama","stateName":"Chiriquí Province","name":"Los Anastacios","lat":8.53027,"lon":-82.42295,"geocoding":{},"distantMaxMiles":5},"Los Naranjos":{"countryName":"Panama","stateName":"Chiriquí Province","name":"Los Naranjos","lat":8.7921,"lon":-82.44665,"geocoding":{},"distantMaxMiles":5},"Los Ángeles":{"countryName":"Panama","stateName":"Chiriquí Province","name":"Los Ángeles","lat":8.52271,"lon":-82.19997,"geocoding":{},"distantMaxMiles":5},"Manaca Civil":{"countryName":"Panama","stateName":"Chiriquí Province","name":"Manaca Civil","lat":8.32458,"lon":-82.8157,"geocoding":{},"distantMaxMiles":5},"Manaca Norte":{"countryName":"Panama","stateName":"Chiriquí Province","name":"Manaca Norte","lat":8.33419,"lon":-82.81003,"geocoding":{},"distantMaxMiles":5},"Mata del Nance":{"countryName":"Panama","stateName":"Chiriquí Province","name":"Mata del Nance","lat":8.45056,"lon":-82.40057,"geocoding":{},"distantMaxMiles":5},"Monte Lirio":{"countryName":"Panama","stateName":"Chiriquí Province","name":"Monte Lirio","lat":8.78935,"lon":-82.82865,"geocoding":{},"distantMaxMiles":5},"Nuevo San Carlitos":{"countryName":"Panama","stateName":"Chiriquí Province","name":"Nuevo San Carlitos","lat":8.45698,"lon":-82.43712,"geocoding":{},"distantMaxMiles":5},"Paja de Sombrero":{"countryName":"Panama","stateName":"Chiriquí Province","name":"Paja de Sombrero","lat":8.68335,"lon":-82.31911,"geocoding":{},"distantMaxMiles":5},"Palmira":{"countryName":"Panama","stateName":"Chiriquí Province","name":"Palmira","lat":8.73401,"lon":-82.45887,"geocoding":{},"distantMaxMiles":5},"Palmira Centro":{"countryName":"Panama","stateName":"Chiriquí Province","name":"Palmira Centro","lat":8.73956,"lon":-82.45228,"geocoding":{},"distantMaxMiles":5},"Paraíso":{"countryName":"Panama","stateName":"Chiriquí Province","name":"Paraíso","lat":8.65842,"lon":-82.58625,"geocoding":{},"distantMaxMiles":5},"Paso Canoas Arriba":{"countryName":"Panama","stateName":"Chiriquí Province","name":"Paso Canoas Arriba","lat":8.56516,"lon":-82.82214,"geocoding":{},"distantMaxMiles":5},"Pedregal":{"countryName":"Panama","stateName":"Chiriquí Province","name":"Pedregal","lat":8.36586,"lon":-82.43524,"geocoding":{},"distantMaxMiles":5},"Plaza de Caisán":{"countryName":"Panama","stateName":"Chiriquí Province","name":"Plaza de Caisán","lat":8.73672,"lon":-82.81968,"geocoding":{},"distantMaxMiles":5},"Potrerillos Abajo":{"countryName":"Panama","stateName":"Chiriquí Province","name":"Potrerillos Abajo","lat":8.63978,"lon":-82.4856,"geocoding":{},"distantMaxMiles":5},"Potrerillos Arriba":{"countryName":"Panama","stateName":"Chiriquí Province","name":"Potrerillos Arriba","lat":8.68547,"lon":-82.4909,"geocoding":{},"distantMaxMiles":5},"Progreso":{"countryName":"Panama","stateName":"Chiriquí Province","name":"Progreso","lat":8.44669,"lon":-82.83859,"geocoding":{},"distantMaxMiles":5},"Pueblo Viejo":{"countryName":"Panama","stateName":"Chiriquí Province","name":"Pueblo Viejo","lat":8.25081,"lon":-81.66259,"geocoding":{},"distantMaxMiles":5},"Puerto Armuelles":{"countryName":"Panama","stateName":"Chiriquí Province","name":"Puerto Armuelles","lat":8.27775,"lon":-82.86206,"geocoding":{},"distantMaxMiles":5},"Punta de Burica":{"countryName":"Panama","stateName":"Chiriquí Province","name":"Punta de Burica","lat":8.03333,"lon":-82.86667,"geocoding":{},"distantMaxMiles":5},"Quebrada de Piedra":{"countryName":"Panama","stateName":"Chiriquí Province","name":"Quebrada de Piedra","lat":8.09418,"lon":-81.67915,"geocoding":{},"distantMaxMiles":5},"Querévalo":{"countryName":"Panama","stateName":"Chiriquí Province","name":"Querévalo","lat":8.37174,"lon":-82.5267,"geocoding":{},"distantMaxMiles":5},"Quinteño":{"countryName":"Panama","stateName":"Chiriquí Province","name":"Quinteño","lat":8.47102,"lon":-82.39352,"geocoding":{},"distantMaxMiles":5},"Remedios":{"countryName":"Panama","stateName":"Chiriquí Province","name":"Remedios","lat":8.22436,"lon":-81.82747,"geocoding":{},"distantMaxMiles":5},"Rincón":{"countryName":"Panama","stateName":"Chiriquí Province","name":"Rincón","lat":8.46374,"lon":-82.27951,"geocoding":{},"distantMaxMiles":5},"Rovira Arriba":{"countryName":"Panama","stateName":"Chiriquí Province","name":"Rovira Arriba","lat":8.63822,"lon":-82.49965,"geocoding":{},"distantMaxMiles":5},"Río Sereno":{"countryName":"Panama","stateName":"Chiriquí Province","name":"Río Sereno","lat":8.81741,"lon":-82.85731,"geocoding":{},"distantMaxMiles":5},"San Andrés":{"countryName":"Panama","stateName":"Chiriquí Province","name":"San Andrés","lat":8.6026,"lon":-82.72588,"geocoding":{},"distantMaxMiles":5},"San Carlos":{"countryName":"Panama","stateName":"Chiriquí Province","name":"San Carlos","lat":8.51663,"lon":-82.50906,"geocoding":{},"distantMaxMiles":5},"San Félix":{"countryName":"Panama","stateName":"Chiriquí Province","name":"San Félix","lat":8.29063,"lon":-81.86702,"geocoding":{},"distantMaxMiles":5},"San Isidro":{"countryName":"Panama","stateName":"Chiriquí Province","name":"San Isidro","lat":8.53032,"lon":-82.8272,"geocoding":{},"distantMaxMiles":5},"San Lorenzo":{"countryName":"Panama","stateName":"Chiriquí Province","name":"San Lorenzo","lat":8.30561,"lon":-82.10114,"geocoding":{},"distantMaxMiles":5},"San Pablo Nuevo Abajo":{"countryName":"Panama","stateName":"Chiriquí Province","name":"San Pablo Nuevo Abajo","lat":8.42558,"lon":-82.50173,"geocoding":{},"distantMaxMiles":5},"San Pablo Viejo Abajo":{"countryName":"Panama","stateName":"Chiriquí Province","name":"San Pablo Viejo Abajo","lat":8.45339,"lon":-82.50179,"geocoding":{},"distantMaxMiles":5},"Santa Clara":{"countryName":"Panama","stateName":"Chiriquí Province","name":"Santa Clara","lat":8.83376,"lon":-82.77945,"geocoding":{},"distantMaxMiles":5},"Santa Cruz":{"countryName":"Panama","stateName":"Chiriquí Province","name":"Santa Cruz","lat":8.23219,"lon":-81.91323,"geocoding":{},"distantMaxMiles":5},"Santa Marta":{"countryName":"Panama","stateName":"Chiriquí Province","name":"Santa Marta","lat":8.51406,"lon":-82.6987,"geocoding":{},"distantMaxMiles":5},"Santa Rosa":{"countryName":"Panama","stateName":"Chiriquí Province","name":"Santa Rosa","lat":8.59958,"lon":-82.68489,"geocoding":{},"distantMaxMiles":5},"Santo Domingo":{"countryName":"Panama","stateName":"Chiriquí Province","name":"Santo Domingo","lat":8.50803,"lon":-82.71295,"geocoding":{},"distantMaxMiles":5},"Santo Tomás":{"countryName":"Panama","stateName":"Chiriquí Province","name":"Santo Tomás","lat":8.38959,"lon":-82.65058,"geocoding":{},"distantMaxMiles":5},"Sioguí Abajo":{"countryName":"Panama","stateName":"Chiriquí Province","name":"Sioguí Abajo","lat":8.48678,"lon":-82.66539,"geocoding":{},"distantMaxMiles":5},"Sioguí Arriba":{"countryName":"Panama","stateName":"Chiriquí Province","name":"Sioguí Arriba","lat":8.53865,"lon":-82.68619,"geocoding":{},"distantMaxMiles":5},"Sortova":{"countryName":"Panama","stateName":"Chiriquí Province","name":"Sortova","lat":8.54642,"lon":-82.6517,"geocoding":{},"distantMaxMiles":5},"Tijeras":{"countryName":"Panama","stateName":"Chiriquí Province","name":"Tijeras","lat":8.47514,"lon":-82.56058,"geocoding":{},"distantMaxMiles":5},"Tinajas":{"countryName":"Panama","stateName":"Chiriquí Province","name":"Tinajas","lat":8.55281,"lon":-82.45963,"geocoding":{},"distantMaxMiles":5},"Tolé":{"countryName":"Panama","stateName":"Chiriquí Province","name":"Tolé","lat":8.23989,"lon":-81.67168,"geocoding":{},"distantMaxMiles":5},"Veladero":{"countryName":"Panama","stateName":"Chiriquí Province","name":"Veladero","lat":8.23136,"lon":-81.65417,"geocoding":{},"distantMaxMiles":5},"Volcán":{"countryName":"Panama","stateName":"Chiriquí Province","name":"Volcán","lat":8.77291,"lon":-82.63823,"geocoding":{},"distantMaxMiles":5}}},"Coclé Province":{"countryName":"Panama","name":"Coclé Province","isoCode":"2","lat":8.6266068,"lon":-80.365865,"geocoding":{},"distantMaxMiles":5,"cities":{"Aguadulce":{"countryName":"Panama","stateName":"Coclé Province","name":"Aguadulce","lat":8.24183,"lon":-80.54609,"geocoding":{},"distantMaxMiles":5},"Aguas Blancas":{"countryName":"Panama","stateName":"Coclé Province","name":"Aguas Blancas","lat":8.50351,"lon":-80.31169,"geocoding":{},"distantMaxMiles":5},"Alto de La Estancia":{"countryName":"Panama","stateName":"Coclé Province","name":"Alto de La Estancia","lat":8.58792,"lon":-80.18443,"geocoding":{},"distantMaxMiles":5},"Antón":{"countryName":"Panama","stateName":"Coclé Province","name":"Antón","lat":8.39733,"lon":-80.26063,"geocoding":{},"distantMaxMiles":5},"Barranco Colorado":{"countryName":"Panama","stateName":"Coclé Province","name":"Barranco Colorado","lat":8.38937,"lon":-80.63546,"geocoding":{},"distantMaxMiles":5},"Caballero":{"countryName":"Panama","stateName":"Coclé Province","name":"Caballero","lat":8.54343,"lon":-80.19769,"geocoding":{},"distantMaxMiles":5},"Cabuya":{"countryName":"Panama","stateName":"Coclé Province","name":"Cabuya","lat":8.54703,"lon":-80.16756,"geocoding":{},"distantMaxMiles":5},"Caimito":{"countryName":"Panama","stateName":"Coclé Province","name":"Caimito","lat":8.62271,"lon":-80.23919,"geocoding":{},"distantMaxMiles":5},"Capellanía":{"countryName":"Panama","stateName":"Coclé Province","name":"Capellanía","lat":8.29858,"lon":-80.5548,"geocoding":{},"distantMaxMiles":5},"Cañaveral":{"countryName":"Panama","stateName":"Coclé Province","name":"Cañaveral","lat":8.517,"lon":-80.42916,"geocoding":{},"distantMaxMiles":5},"Chigoré":{"countryName":"Panama","stateName":"Coclé Province","name":"Chigoré","lat":8.53035,"lon":-80.35117,"geocoding":{},"distantMaxMiles":5},"Chiguirí Arriba":{"countryName":"Panama","stateName":"Coclé Province","name":"Chiguirí Arriba","lat":8.67187,"lon":-80.18975,"geocoding":{},"distantMaxMiles":5},"Churuquita Chiquita":{"countryName":"Panama","stateName":"Coclé Province","name":"Churuquita Chiquita","lat":8.57555,"lon":-80.27161,"geocoding":{},"distantMaxMiles":5},"Churuquita Grande":{"countryName":"Panama","stateName":"Coclé Province","name":"Churuquita Grande","lat":8.59449,"lon":-80.27182,"geocoding":{},"distantMaxMiles":5},"Coclé":{"countryName":"Panama","stateName":"Coclé Province","name":"Coclé","lat":8.45601,"lon":-80.42899,"geocoding":{},"distantMaxMiles":5},"Distrito Penonomé":{"countryName":"Panama","stateName":"Coclé Province","name":"Distrito Penonomé","lat":8.63,"lon":-80.28333,"geocoding":{},"distantMaxMiles":5},"Distrito de Aguadulce":{"countryName":"Panama","stateName":"Coclé Province","name":"Distrito de Aguadulce","lat":8.2127,"lon":-80.61441,"geocoding":{},"distantMaxMiles":5},"Distrito de Antón":{"countryName":"Panama","stateName":"Coclé Province","name":"Distrito de Antón","lat":8.45394,"lon":-80.18361,"geocoding":{},"distantMaxMiles":5},"Distrito de La Pintada":{"countryName":"Panama","stateName":"Coclé Province","name":"Distrito de La Pintada","lat":8.71801,"lon":-80.53946,"geocoding":{},"distantMaxMiles":5},"Distrito de Natá":{"countryName":"Panama","stateName":"Coclé Province","name":"Distrito de Natá","lat":8.34416,"lon":-80.60934,"geocoding":{},"distantMaxMiles":5},"Distrito de Olá":{"countryName":"Panama","stateName":"Coclé Province","name":"Distrito de Olá","lat":8.48053,"lon":-80.65324,"geocoding":{},"distantMaxMiles":5},"El Caño":{"countryName":"Panama","stateName":"Coclé Province","name":"El Caño","lat":8.40195,"lon":-80.51791,"geocoding":{},"distantMaxMiles":5},"El Chirú":{"countryName":"Panama","stateName":"Coclé Province","name":"El Chirú","lat":8.39876,"lon":-80.18721,"geocoding":{},"distantMaxMiles":5},"El Coco":{"countryName":"Panama","stateName":"Coclé Province","name":"El Coco","lat":8.39716,"lon":-80.35,"geocoding":{},"distantMaxMiles":5},"El Copé":{"countryName":"Panama","stateName":"Coclé Province","name":"El Copé","lat":8.62036,"lon":-80.58433,"geocoding":{},"distantMaxMiles":5},"El Cortezo":{"countryName":"Panama","stateName":"Coclé Province","name":"El Cortezo","lat":8.34556,"lon":-80.58721,"geocoding":{},"distantMaxMiles":5},"El Cristo":{"countryName":"Panama","stateName":"Coclé Province","name":"El Cristo","lat":8.25071,"lon":-80.62093,"geocoding":{},"distantMaxMiles":5},"El Potrero":{"countryName":"Panama","stateName":"Coclé Province","name":"El Potrero","lat":8.52146,"lon":-80.51681,"geocoding":{},"distantMaxMiles":5},"El Retiro":{"countryName":"Panama","stateName":"Coclé Province","name":"El Retiro","lat":8.48014,"lon":-80.15426,"geocoding":{},"distantMaxMiles":5},"El Roble":{"countryName":"Panama","stateName":"Coclé Province","name":"El Roble","lat":8.1685,"lon":-80.65897,"geocoding":{},"distantMaxMiles":5},"Entradero":{"countryName":"Panama","stateName":"Coclé Province","name":"Entradero","lat":8.5688,"lon":-80.20743,"geocoding":{},"distantMaxMiles":5},"Farallón":{"countryName":"Panama","stateName":"Coclé Province","name":"Farallón","lat":8.35658,"lon":-80.13723,"geocoding":{},"distantMaxMiles":5},"Guzman":{"countryName":"Panama","stateName":"Coclé Province","name":"Guzman","lat":8.51969,"lon":-80.58405,"geocoding":{},"distantMaxMiles":5},"Juan Díaz":{"countryName":"Panama","stateName":"Coclé Province","name":"Juan Díaz","lat":8.4624,"lon":-80.2828,"geocoding":{},"distantMaxMiles":5},"La Loma":{"countryName":"Panama","stateName":"Coclé Province","name":"La Loma","lat":8.16667,"lon":-80.63742,"geocoding":{},"distantMaxMiles":5},"La Pintada":{"countryName":"Panama","stateName":"Coclé Province","name":"La Pintada","lat":8.59299,"lon":-80.44349,"geocoding":{},"distantMaxMiles":5},"Las Huacas del Quije":{"countryName":"Panama","stateName":"Coclé Province","name":"Las Huacas del Quije","lat":8.46702,"lon":-80.75089,"geocoding":{},"distantMaxMiles":5},"Las Marias":{"countryName":"Panama","stateName":"Coclé Province","name":"Las Marias","lat":8.88809,"lon":-80.21893,"geocoding":{},"distantMaxMiles":5},"Las Minas":{"countryName":"Panama","stateName":"Coclé Province","name":"Las Minas","lat":8.64118,"lon":-80.39432,"geocoding":{},"distantMaxMiles":5},"Las Sabanas":{"countryName":"Panama","stateName":"Coclé Province","name":"Las Sabanas","lat":8.58141,"lon":-80.67978,"geocoding":{},"distantMaxMiles":5},"Llano Grande":{"countryName":"Panama","stateName":"Coclé Province","name":"Llano Grande","lat":8.63817,"lon":-80.43848,"geocoding":{},"distantMaxMiles":5},"Llano Marín":{"countryName":"Panama","stateName":"Coclé Province","name":"Llano Marín","lat":8.47696,"lon":-80.32499,"geocoding":{},"distantMaxMiles":5},"Los Pollos":{"countryName":"Panama","stateName":"Coclé Province","name":"Los Pollos","lat":8.39898,"lon":-80.15731,"geocoding":{},"distantMaxMiles":5},"Natá":{"countryName":"Panama","stateName":"Coclé Province","name":"Natá","lat":8.33209,"lon":-80.51969,"geocoding":{},"distantMaxMiles":5},"Nuestro Amo":{"countryName":"Panama","stateName":"Coclé Province","name":"Nuestro Amo","lat":8.44485,"lon":-80.58934,"geocoding":{},"distantMaxMiles":5},"Olá":{"countryName":"Panama","stateName":"Coclé Province","name":"Olá","lat":8.41807,"lon":-80.65123,"geocoding":{},"distantMaxMiles":5},"Penonomé":{"countryName":"Panama","stateName":"Coclé Province","name":"Penonomé","lat":8.51889,"lon":-80.35727,"geocoding":{},"distantMaxMiles":5},"Piedras Gordas":{"countryName":"Panama","stateName":"Coclé Province","name":"Piedras Gordas","lat":8.63777,"lon":-80.51024,"geocoding":{},"distantMaxMiles":5},"Pocrí":{"countryName":"Panama","stateName":"Coclé Province","name":"Pocrí","lat":8.25814,"lon":-80.55,"geocoding":{},"distantMaxMiles":5},"Río Grande":{"countryName":"Panama","stateName":"Coclé Province","name":"Río Grande","lat":8.42679,"lon":-80.48457,"geocoding":{},"distantMaxMiles":5},"Río Hato":{"countryName":"Panama","stateName":"Coclé Province","name":"Río Hato","lat":8.3794,"lon":-80.16621,"geocoding":{},"distantMaxMiles":5},"San Juan de Dios":{"countryName":"Panama","stateName":"Coclé Province","name":"San Juan de Dios","lat":8.55119,"lon":-80.22623,"geocoding":{},"distantMaxMiles":5},"Toabré":{"countryName":"Panama","stateName":"Coclé Province","name":"Toabré","lat":8.65131,"lon":-80.32017,"geocoding":{},"distantMaxMiles":5},"Toza":{"countryName":"Panama","stateName":"Coclé Province","name":"Toza","lat":8.34542,"lon":-80.64012,"geocoding":{},"distantMaxMiles":5},"Vista Hermosa":{"countryName":"Panama","stateName":"Coclé Province","name":"Vista Hermosa","lat":8.52687,"lon":-80.37486,"geocoding":{},"distantMaxMiles":5}}},"Colón Province":{"countryName":"Panama","name":"Colón Province","isoCode":"3","lat":9.1851989,"lon":-80.0534923,"geocoding":{},"distantMaxMiles":5,"cities":{"Buena Vista":{"countryName":"Panama","stateName":"Colón Province","name":"Buena Vista","lat":9.27356,"lon":-79.69551,"geocoding":{},"distantMaxMiles":5},"Cativá":{"countryName":"Panama","stateName":"Colón Province","name":"Cativá","lat":9.36218,"lon":-79.83232,"geocoding":{},"distantMaxMiles":5},"Coclé del Norte":{"countryName":"Panama","stateName":"Colón Province","name":"Coclé del Norte","lat":9.0754,"lon":-80.57177,"geocoding":{},"distantMaxMiles":5},"Colón":{"countryName":"Panama","stateName":"Colón Province","name":"Colón","lat":9.35451,"lon":-79.90011,"geocoding":{},"distantMaxMiles":5},"Cristóbal":{"countryName":"Panama","stateName":"Colón Province","name":"Cristóbal","lat":9.35222,"lon":-79.90444,"geocoding":{},"distantMaxMiles":5},"Distrito de Chagres":{"countryName":"Panama","stateName":"Colón Province","name":"Distrito de Chagres","lat":9.123,"lon":-80.11841,"geocoding":{},"distantMaxMiles":5},"Distrito de Colón":{"countryName":"Panama","stateName":"Colón Province","name":"Distrito de Colón","lat":9.24313,"lon":-79.79463,"geocoding":{},"distantMaxMiles":5},"Distrito de Donoso":{"countryName":"Panama","stateName":"Colón Province","name":"Distrito de Donoso","lat":9.01999,"lon":-80.42967,"geocoding":{},"distantMaxMiles":5},"Distrito de Portobelo":{"countryName":"Panama","stateName":"Colón Province","name":"Distrito de Portobelo","lat":9.49748,"lon":-79.6073,"geocoding":{},"distantMaxMiles":5},"Distrito de Santa Isabel":{"countryName":"Panama","stateName":"Colón Province","name":"Distrito de Santa Isabel","lat":9.48333,"lon":-79.31667,"geocoding":{},"distantMaxMiles":5},"El Giral":{"countryName":"Panama","stateName":"Colón Province","name":"El Giral","lat":9.24509,"lon":-79.69266,"geocoding":{},"distantMaxMiles":5},"El Guabo":{"countryName":"Panama","stateName":"Colón Province","name":"El Guabo","lat":9.07842,"lon":-80.08316,"geocoding":{},"distantMaxMiles":5},"El Valle de la Unión":{"countryName":"Panama","stateName":"Colón Province","name":"El Valle de la Unión","lat":9.2363,"lon":-79.65986,"geocoding":{},"distantMaxMiles":5},"Escobal":{"countryName":"Panama","stateName":"Colón Province","name":"Escobal","lat":9.14373,"lon":-79.96439,"geocoding":{},"distantMaxMiles":5},"Gatuncillo":{"countryName":"Panama","stateName":"Colón Province","name":"Gatuncillo","lat":9.24346,"lon":-79.64856,"geocoding":{},"distantMaxMiles":5},"Gatún":{"countryName":"Panama","stateName":"Colón Province","name":"Gatún","lat":9.28922,"lon":-79.77204,"geocoding":{},"distantMaxMiles":5},"Las Margaritas":{"countryName":"Panama","stateName":"Colón Province","name":"Las Margaritas","lat":9.32603,"lon":-79.89028,"geocoding":{},"distantMaxMiles":5},"María Chiquita":{"countryName":"Panama","stateName":"Colón Province","name":"María Chiquita","lat":9.43991,"lon":-79.75455,"geocoding":{},"distantMaxMiles":5},"Miramar":{"countryName":"Panama","stateName":"Colón Province","name":"Miramar","lat":9.57544,"lon":-79.33573,"geocoding":{},"distantMaxMiles":5},"Nombre de Dios":{"countryName":"Panama","stateName":"Colón Province","name":"Nombre de Dios","lat":9.57937,"lon":-79.47109,"geocoding":{},"distantMaxMiles":5},"Nuevo Chagres":{"countryName":"Panama","stateName":"Colón Province","name":"Nuevo Chagres","lat":9.23979,"lon":-80.08267,"geocoding":{},"distantMaxMiles":5},"Nuevo San Juan":{"countryName":"Panama","stateName":"Colón Province","name":"Nuevo San Juan","lat":9.22205,"lon":-79.66602,"geocoding":{},"distantMaxMiles":5},"Nuevo Vigía":{"countryName":"Panama","stateName":"Colón Province","name":"Nuevo Vigía","lat":9.24263,"lon":-79.60756,"geocoding":{},"distantMaxMiles":5},"Palenque":{"countryName":"Panama","stateName":"Colón Province","name":"Palenque","lat":9.5697,"lon":-79.36341,"geocoding":{},"distantMaxMiles":5},"Palmas Bellas":{"countryName":"Panama","stateName":"Colón Province","name":"Palmas Bellas","lat":9.22838,"lon":-80.08503,"geocoding":{},"distantMaxMiles":5},"Palmira":{"countryName":"Panama","stateName":"Colón Province","name":"Palmira","lat":9.54359,"lon":-79.21946,"geocoding":{},"distantMaxMiles":5},"Playa Chiquita":{"countryName":"Panama","stateName":"Colón Province","name":"Playa Chiquita","lat":9.5662,"lon":-79.29185,"geocoding":{},"distantMaxMiles":5},"Portobelo":{"countryName":"Panama","stateName":"Colón Province","name":"Portobelo","lat":9.55303,"lon":-79.65693,"geocoding":{},"distantMaxMiles":5},"Puerto Escondido":{"countryName":"Panama","stateName":"Colón Province","name":"Puerto Escondido","lat":9.19333,"lon":-80.08833,"geocoding":{},"distantMaxMiles":5},"Puerto Pilón":{"countryName":"Panama","stateName":"Colón Province","name":"Puerto Pilón","lat":9.36316,"lon":-79.79333,"geocoding":{},"distantMaxMiles":5},"Quebrada Bonita Adentro":{"countryName":"Panama","stateName":"Colón Province","name":"Quebrada Bonita Adentro","lat":9.29662,"lon":-79.70606,"geocoding":{},"distantMaxMiles":5},"Río Alejandro":{"countryName":"Panama","stateName":"Colón Province","name":"Río Alejandro","lat":9.37149,"lon":-79.78809,"geocoding":{},"distantMaxMiles":5},"Río Duque":{"countryName":"Panama","stateName":"Colón Province","name":"Río Duque","lat":9.25688,"lon":-79.67937,"geocoding":{},"distantMaxMiles":5},"Río Rita":{"countryName":"Panama","stateName":"Colón Province","name":"Río Rita","lat":9.30296,"lon":-79.79234,"geocoding":{},"distantMaxMiles":5},"Sabanitas":{"countryName":"Panama","stateName":"Colón Province","name":"Sabanitas","lat":9.34269,"lon":-79.80961,"geocoding":{},"distantMaxMiles":5},"Santa Isabel":{"countryName":"Panama","stateName":"Colón Province","name":"Santa Isabel","lat":9.53922,"lon":-79.1957,"geocoding":{},"distantMaxMiles":5},"Santa Rita Arriba":{"countryName":"Panama","stateName":"Colón Province","name":"Santa Rita Arriba","lat":9.33032,"lon":-79.79363,"geocoding":{},"distantMaxMiles":5},"Viento Frío":{"countryName":"Panama","stateName":"Colón Province","name":"Viento Frío","lat":9.58263,"lon":-79.4069,"geocoding":{},"distantMaxMiles":5}}},"Darién Province":{"countryName":"Panama","name":"Darién Province","isoCode":"5","lat":7.8681713,"lon":-77.8367282,"geocoding":{},"distantMaxMiles":5,"cities":{"Boca de Cupé":{"countryName":"Panama","stateName":"Darién Province","name":"Boca de Cupé","lat":8.03003,"lon":-77.58978,"geocoding":{},"distantMaxMiles":5},"Camogantí":{"countryName":"Panama","stateName":"Darién Province","name":"Camogantí","lat":8.04171,"lon":-77.88682,"geocoding":{},"distantMaxMiles":5},"Cucunatí":{"countryName":"Panama","stateName":"Darién Province","name":"Cucunatí","lat":8.57508,"lon":-78.25671,"geocoding":{},"distantMaxMiles":5},"Distrito de Chepigana":{"countryName":"Panama","stateName":"Darién Province","name":"Distrito de Chepigana","lat":7.84374,"lon":-77.8383,"geocoding":{},"distantMaxMiles":5},"Distrito de Pinogana":{"countryName":"Panama","stateName":"Darién Province","name":"Distrito de Pinogana","lat":7.89343,"lon":-77.52562,"geocoding":{},"distantMaxMiles":5},"Garachiné":{"countryName":"Panama","stateName":"Darién Province","name":"Garachiné","lat":8.06684,"lon":-78.36436,"geocoding":{},"distantMaxMiles":5},"Jaqué":{"countryName":"Panama","stateName":"Darién Province","name":"Jaqué","lat":7.51826,"lon":-78.16343,"geocoding":{},"distantMaxMiles":5},"La Palma":{"countryName":"Panama","stateName":"Darién Province","name":"La Palma","lat":8.40608,"lon":-78.13964,"geocoding":{},"distantMaxMiles":5},"Metetí":{"countryName":"Panama","stateName":"Darién Province","name":"Metetí","lat":8.49909,"lon":-77.97897,"geocoding":{},"distantMaxMiles":5},"Mortí":{"countryName":"Panama","stateName":"Darién Province","name":"Mortí","lat":8.84246,"lon":-77.97539,"geocoding":{},"distantMaxMiles":5},"Púcuro":{"countryName":"Panama","stateName":"Darién Province","name":"Púcuro","lat":7.97876,"lon":-77.48758,"geocoding":{},"distantMaxMiles":5},"Santa Fé":{"countryName":"Panama","stateName":"Darién Province","name":"Santa Fé","lat":8.65525,"lon":-78.1614,"geocoding":{},"distantMaxMiles":5},"Yaviza":{"countryName":"Panama","stateName":"Darién Province","name":"Yaviza","lat":8.15835,"lon":-77.69276,"geocoding":{},"distantMaxMiles":5}}},"Emberá-Wounaan Comarca":{"countryName":"Panama","name":"Emberá-Wounaan Comarca","isoCode":"EM","lat":8.3766983,"lon":-77.6536125,"geocoding":{},"distantMaxMiles":5,"cities":{"Bayamón":{"countryName":"Panama","stateName":"Emberá-Wounaan Comarca","name":"Bayamón","lat":7.96817,"lon":-78.21648,"geocoding":{},"distantMaxMiles":5},"Corozal":{"countryName":"Panama","stateName":"Emberá-Wounaan Comarca","name":"Corozal","lat":8.20108,"lon":-77.59637,"geocoding":{},"distantMaxMiles":5},"Cémaco":{"countryName":"Panama","stateName":"Emberá-Wounaan Comarca","name":"Cémaco","lat":8.08285,"lon":-77.5421,"geocoding":{},"distantMaxMiles":5},"Sambú":{"countryName":"Panama","stateName":"Emberá-Wounaan Comarca","name":"Sambú","lat":7.82013,"lon":-78.11005,"geocoding":{},"distantMaxMiles":5},"Unión Chocó":{"countryName":"Panama","stateName":"Emberá-Wounaan Comarca","name":"Unión Chocó","lat":8.08404,"lon":-77.53507,"geocoding":{},"distantMaxMiles":5},"Yape":{"countryName":"Panama","stateName":"Emberá-Wounaan Comarca","name":"Yape","lat":8.09839,"lon":-77.59817,"geocoding":{},"distantMaxMiles":5}}},"Guna Yala":{"countryName":"Panama","name":"Guna Yala","isoCode":"KY","lat":9.2344395,"lon":-78.192625,"geocoding":{},"distantMaxMiles":5,"cities":{"Achutupo":{"countryName":"Panama","stateName":"Guna Yala","name":"Achutupo","lat":9.19827,"lon":-77.98729,"geocoding":{},"distantMaxMiles":5},"Ailigandí":{"countryName":"Panama","stateName":"Guna Yala","name":"Ailigandí","lat":9.2281,"lon":-78.02778,"geocoding":{},"distantMaxMiles":5},"Cartí Sugdup":{"countryName":"Panama","stateName":"Guna Yala","name":"Cartí Sugdup","lat":9.4646,"lon":-78.95931,"geocoding":{},"distantMaxMiles":5},"El Porvenir":{"countryName":"Panama","stateName":"Guna Yala","name":"El Porvenir","lat":9.55276,"lon":-78.9523,"geocoding":{},"distantMaxMiles":5},"Mulatupo":{"countryName":"Panama","stateName":"Guna Yala","name":"Mulatupo","lat":8.94672,"lon":-77.7508,"geocoding":{},"distantMaxMiles":5},"Narganá":{"countryName":"Panama","stateName":"Guna Yala","name":"Narganá","lat":9.44394,"lon":-78.58666,"geocoding":{},"distantMaxMiles":5},"Playón Chico":{"countryName":"Panama","stateName":"Guna Yala","name":"Playón Chico","lat":9.31128,"lon":-78.2327,"geocoding":{},"distantMaxMiles":5},"Puerto Obaldía":{"countryName":"Panama","stateName":"Guna Yala","name":"Puerto Obaldía","lat":8.66632,"lon":-77.41922,"geocoding":{},"distantMaxMiles":5},"San Ignacio de Tupile":{"countryName":"Panama","stateName":"Guna Yala","name":"San Ignacio de Tupile","lat":9.28905,"lon":-78.15206,"geocoding":{},"distantMaxMiles":5},"Tubualá":{"countryName":"Panama","stateName":"Guna Yala","name":"Tubualá","lat":9.51667,"lon":-79.03333,"geocoding":{},"distantMaxMiles":5},"Ustupo":{"countryName":"Panama","stateName":"Guna Yala","name":"Ustupo","lat":9.13112,"lon":-77.9262,"geocoding":{},"distantMaxMiles":5}}},"Herrera Province":{"countryName":"Panama","name":"Herrera Province","isoCode":"6","lat":7.7704282,"lon":-80.7214417,"geocoding":{},"distantMaxMiles":5,"cities":{"Boca de Parita":{"countryName":"Panama","stateName":"Herrera Province","name":"Boca de Parita","lat":8.00796,"lon":-80.4532,"geocoding":{},"distantMaxMiles":5},"Cabuya":{"countryName":"Panama","stateName":"Herrera Province","name":"Cabuya","lat":8.03138,"lon":-80.63227,"geocoding":{},"distantMaxMiles":5},"Cerro Largo":{"countryName":"Panama","stateName":"Herrera Province","name":"Cerro Largo","lat":7.83377,"lon":-80.83168,"geocoding":{},"distantMaxMiles":5},"Chitré":{"countryName":"Panama","stateName":"Herrera Province","name":"Chitré","lat":7.96082,"lon":-80.42944,"geocoding":{},"distantMaxMiles":5},"Chumical":{"countryName":"Panama","stateName":"Herrera Province","name":"Chumical","lat":7.84482,"lon":-80.72627,"geocoding":{},"distantMaxMiles":5},"Chupampa":{"countryName":"Panama","stateName":"Herrera Province","name":"Chupampa","lat":8.0762,"lon":-80.77656,"geocoding":{},"distantMaxMiles":5},"Distrito de Chitré":{"countryName":"Panama","stateName":"Herrera Province","name":"Distrito de Chitré","lat":7.98333,"lon":-80.43333,"geocoding":{},"distantMaxMiles":5},"Distrito de Las Minas":{"countryName":"Panama","stateName":"Herrera Province","name":"Distrito de Las Minas","lat":7.76525,"lon":-80.82249,"geocoding":{},"distantMaxMiles":5},"Distrito de Los Pozos":{"countryName":"Panama","stateName":"Herrera Province","name":"Distrito de Los Pozos","lat":7.70944,"lon":-80.64311,"geocoding":{},"distantMaxMiles":5},"Distrito de Ocú":{"countryName":"Panama","stateName":"Herrera Province","name":"Distrito de Ocú","lat":7.90641,"lon":-80.79752,"geocoding":{},"distantMaxMiles":5},"Distrito de Parita":{"countryName":"Panama","stateName":"Herrera Province","name":"Distrito de Parita","lat":8.0624,"lon":-80.56373,"geocoding":{},"distantMaxMiles":5},"Distrito de Pesé":{"countryName":"Panama","stateName":"Herrera Province","name":"Distrito de Pesé","lat":7.88194,"lon":-80.63261,"geocoding":{},"distantMaxMiles":5},"Distrito de Santa María":{"countryName":"Panama","stateName":"Herrera Province","name":"Distrito de Santa María","lat":8.11667,"lon":-80.68333,"geocoding":{},"distantMaxMiles":5},"El Calabacito":{"countryName":"Panama","stateName":"Herrera Province","name":"El Calabacito","lat":7.71843,"lon":-80.59757,"geocoding":{},"distantMaxMiles":5},"El Capurí":{"countryName":"Panama","stateName":"Herrera Province","name":"El Capurí","lat":7.72571,"lon":-80.64349,"geocoding":{},"distantMaxMiles":5},"El Cedro":{"countryName":"Panama","stateName":"Herrera Province","name":"El Cedro","lat":7.68565,"lon":-80.65927,"geocoding":{},"distantMaxMiles":5},"El Pedregoso":{"countryName":"Panama","stateName":"Herrera Province","name":"El Pedregoso","lat":7.93642,"lon":-80.63807,"geocoding":{},"distantMaxMiles":5},"El Rincón":{"countryName":"Panama","stateName":"Herrera Province","name":"El Rincón","lat":8.11923,"lon":-80.61707,"geocoding":{},"distantMaxMiles":5},"El Toro":{"countryName":"Panama","stateName":"Herrera Province","name":"El Toro","lat":7.7511,"lon":-80.86943,"geocoding":{},"distantMaxMiles":5},"La Arena":{"countryName":"Panama","stateName":"Herrera Province","name":"La Arena","lat":7.96766,"lon":-80.46523,"geocoding":{},"distantMaxMiles":5},"La Trinidad":{"countryName":"Panama","stateName":"Herrera Province","name":"La Trinidad","lat":7.91457,"lon":-80.70332,"geocoding":{},"distantMaxMiles":5},"Las Guabas":{"countryName":"Panama","stateName":"Herrera Province","name":"Las Guabas","lat":7.90949,"lon":-80.80706,"geocoding":{},"distantMaxMiles":5},"Las Minas":{"countryName":"Panama","stateName":"Herrera Province","name":"Las Minas","lat":7.79581,"lon":-80.7457,"geocoding":{},"distantMaxMiles":5},"Leones Arriba":{"countryName":"Panama","stateName":"Herrera Province","name":"Leones Arriba","lat":7.7659,"lon":-80.84515,"geocoding":{},"distantMaxMiles":5},"Limón de Tijeras":{"countryName":"Panama","stateName":"Herrera Province","name":"Limón de Tijeras","lat":7.81756,"lon":-80.91335,"geocoding":{},"distantMaxMiles":5},"Llano Bonito":{"countryName":"Panama","stateName":"Herrera Province","name":"Llano Bonito","lat":7.97637,"lon":-80.41646,"geocoding":{},"distantMaxMiles":5},"Llano Grande":{"countryName":"Panama","stateName":"Herrera Province","name":"Llano Grande","lat":7.97406,"lon":-80.71103,"geocoding":{},"distantMaxMiles":5},"Llano de La Cruz":{"countryName":"Panama","stateName":"Herrera Province","name":"Llano de La Cruz","lat":7.95178,"lon":-80.64239,"geocoding":{},"distantMaxMiles":5},"Los Canelos":{"countryName":"Panama","stateName":"Herrera Province","name":"Los Canelos","lat":8.11722,"lon":-80.70769,"geocoding":{},"distantMaxMiles":5},"Los Castillos":{"countryName":"Panama","stateName":"Herrera Province","name":"Los Castillos","lat":7.98565,"lon":-80.61886,"geocoding":{},"distantMaxMiles":5},"Los Cerritos":{"countryName":"Panama","stateName":"Herrera Province","name":"Los Cerritos","lat":7.79746,"lon":-80.61071,"geocoding":{},"distantMaxMiles":5},"Los Cerros de Paja":{"countryName":"Panama","stateName":"Herrera Province","name":"Los Cerros de Paja","lat":7.71821,"lon":-80.67273,"geocoding":{},"distantMaxMiles":5},"Los Pozos":{"countryName":"Panama","stateName":"Herrera Province","name":"Los Pozos","lat":7.783,"lon":-80.64524,"geocoding":{},"distantMaxMiles":5},"Monagrillo":{"countryName":"Panama","stateName":"Herrera Province","name":"Monagrillo","lat":7.98179,"lon":-80.43764,"geocoding":{},"distantMaxMiles":5},"Ocú":{"countryName":"Panama","stateName":"Herrera Province","name":"Ocú","lat":7.94052,"lon":-80.77936,"geocoding":{},"distantMaxMiles":5},"Parita":{"countryName":"Panama","stateName":"Herrera Province","name":"Parita","lat":7.99393,"lon":-80.52097,"geocoding":{},"distantMaxMiles":5},"París":{"countryName":"Panama","stateName":"Herrera Province","name":"París","lat":8.05053,"lon":-80.55409,"geocoding":{},"distantMaxMiles":5},"Pesé":{"countryName":"Panama","stateName":"Herrera Province","name":"Pesé","lat":7.90863,"lon":-80.61433,"geocoding":{},"distantMaxMiles":5},"Peñas Chatas":{"countryName":"Panama","stateName":"Herrera Province","name":"Peñas Chatas","lat":8.01502,"lon":-80.80366,"geocoding":{},"distantMaxMiles":5},"Pitaloza Arriba":{"countryName":"Panama","stateName":"Herrera Province","name":"Pitaloza Arriba","lat":7.64216,"lon":-80.66788,"geocoding":{},"distantMaxMiles":5},"Portobelillo":{"countryName":"Panama","stateName":"Herrera Province","name":"Portobelillo","lat":8.01738,"lon":-80.59538,"geocoding":{},"distantMaxMiles":5},"Potuga":{"countryName":"Panama","stateName":"Herrera Province","name":"Potuga","lat":8.06317,"lon":-80.62271,"geocoding":{},"distantMaxMiles":5},"Quebrada del Rosario":{"countryName":"Panama","stateName":"Herrera Province","name":"Quebrada del Rosario","lat":7.71238,"lon":-80.74222,"geocoding":{},"distantMaxMiles":5},"Rincón Hondo":{"countryName":"Panama","stateName":"Herrera Province","name":"Rincón Hondo","lat":7.84436,"lon":-80.60397,"geocoding":{},"distantMaxMiles":5},"Sabana Grande":{"countryName":"Panama","stateName":"Herrera Province","name":"Sabana Grande","lat":7.88002,"lon":-80.63818,"geocoding":{},"distantMaxMiles":5},"San Juan Bautista":{"countryName":"Panama","stateName":"Herrera Province","name":"San Juan Bautista","lat":7.96099,"lon":-80.41283,"geocoding":{},"distantMaxMiles":5},"Santa María":{"countryName":"Panama","stateName":"Herrera Province","name":"Santa María","lat":8.11143,"lon":-80.66582,"geocoding":{},"distantMaxMiles":5}}},"Los Santos Province":{"countryName":"Panama","name":"Los Santos Province","isoCode":"7","lat":7.5909302,"lon":-80.365865,"geocoding":{},"distantMaxMiles":5,"cities":{"Agua Buena":{"countryName":"Panama","stateName":"Los Santos Province","name":"Agua Buena","lat":7.83465,"lon":-80.39405,"geocoding":{},"distantMaxMiles":5},"Ave María":{"countryName":"Panama","stateName":"Los Santos Province","name":"Ave María","lat":7.32481,"lon":-80.45361,"geocoding":{},"distantMaxMiles":5},"Bahía Honda":{"countryName":"Panama","stateName":"Los Santos Province","name":"Bahía Honda","lat":7.70517,"lon":-80.45342,"geocoding":{},"distantMaxMiles":5},"Bajo Corral":{"countryName":"Panama","stateName":"Los Santos Province","name":"Bajo Corral","lat":7.60463,"lon":-80.26016,"geocoding":{},"distantMaxMiles":5},"Bayano":{"countryName":"Panama","stateName":"Los Santos Province","name":"Bayano","lat":7.63014,"lon":-80.38201,"geocoding":{},"distantMaxMiles":5},"Bella Vista":{"countryName":"Panama","stateName":"Los Santos Province","name":"Bella Vista","lat":7.75,"lon":-80.23333,"geocoding":{},"distantMaxMiles":5},"Cambutal":{"countryName":"Panama","stateName":"Los Santos Province","name":"Cambutal","lat":7.26534,"lon":-80.49105,"geocoding":{},"distantMaxMiles":5},"Cañas":{"countryName":"Panama","stateName":"Los Santos Province","name":"Cañas","lat":7.44713,"lon":-80.2648,"geocoding":{},"distantMaxMiles":5},"Cedro Arriba":{"countryName":"Panama","stateName":"Los Santos Province","name":"Cedro Arriba","lat":7.78097,"lon":-80.53057,"geocoding":{},"distantMaxMiles":5},"Distrito de Guararé":{"countryName":"Panama","stateName":"Los Santos Province","name":"Distrito de Guararé","lat":7.77021,"lon":-80.37515,"geocoding":{},"distantMaxMiles":5},"Distrito de Las Tablas":{"countryName":"Panama","stateName":"Los Santos Province","name":"Distrito de Las Tablas","lat":7.64843,"lon":-80.29933,"geocoding":{},"distantMaxMiles":5},"Distrito de Los Santos":{"countryName":"Panama","stateName":"Los Santos Province","name":"Distrito de Los Santos","lat":7.88333,"lon":-80.45,"geocoding":{},"distantMaxMiles":5},"Distrito de Macaracas":{"countryName":"Panama","stateName":"Los Santos Province","name":"Distrito de Macaracas","lat":7.65817,"lon":-80.53526,"geocoding":{},"distantMaxMiles":5},"Distrito de Pedasí":{"countryName":"Panama","stateName":"Los Santos Province","name":"Distrito de Pedasí","lat":7.48528,"lon":-80.12747,"geocoding":{},"distantMaxMiles":5},"Distrito de Pocrí":{"countryName":"Panama","stateName":"Los Santos Province","name":"Distrito de Pocrí","lat":7.63721,"lon":-80.1647,"geocoding":{},"distantMaxMiles":5},"Distrito de Tonosí":{"countryName":"Panama","stateName":"Los Santos Province","name":"Distrito de Tonosí","lat":7.43597,"lon":-80.45828,"geocoding":{},"distantMaxMiles":5},"El Cacao":{"countryName":"Panama","stateName":"Los Santos Province","name":"El Cacao","lat":7.4457,"lon":-80.40938,"geocoding":{},"distantMaxMiles":5},"El Carate":{"countryName":"Panama","stateName":"Los Santos Province","name":"El Carate","lat":7.73124,"lon":-80.29691,"geocoding":{},"distantMaxMiles":5},"El Cañafístulo":{"countryName":"Panama","stateName":"Los Santos Province","name":"El Cañafístulo","lat":7.61768,"lon":-80.23322,"geocoding":{},"distantMaxMiles":5},"El Cocal":{"countryName":"Panama","stateName":"Los Santos Province","name":"El Cocal","lat":7.73697,"lon":-80.2798,"geocoding":{},"distantMaxMiles":5},"El Cortezo":{"countryName":"Panama","stateName":"Los Santos Province","name":"El Cortezo","lat":7.42661,"lon":-80.63311,"geocoding":{},"distantMaxMiles":5},"El Ejido":{"countryName":"Panama","stateName":"Los Santos Province","name":"El Ejido","lat":7.91634,"lon":-80.38686,"geocoding":{},"distantMaxMiles":5},"El Guásimo":{"countryName":"Panama","stateName":"Los Santos Province","name":"El Guásimo","lat":7.8064,"lon":-80.52991,"geocoding":{},"distantMaxMiles":5},"El Hato":{"countryName":"Panama","stateName":"Los Santos Province","name":"El Hato","lat":7.79316,"lon":-80.38267,"geocoding":{},"distantMaxMiles":5},"El Macano":{"countryName":"Panama","stateName":"Los Santos Province","name":"El Macano","lat":7.68489,"lon":-80.40309,"geocoding":{},"distantMaxMiles":5},"El Manantial":{"countryName":"Panama","stateName":"Los Santos Province","name":"El Manantial","lat":7.78245,"lon":-80.24713,"geocoding":{},"distantMaxMiles":5},"El Muñoz":{"countryName":"Panama","stateName":"Los Santos Province","name":"El Muñoz","lat":7.67582,"lon":-80.3213,"geocoding":{},"distantMaxMiles":5},"El Pedregoso":{"countryName":"Panama","stateName":"Los Santos Province","name":"El Pedregoso","lat":7.69173,"lon":-80.32793,"geocoding":{},"distantMaxMiles":5},"Flores":{"countryName":"Panama","stateName":"Los Santos Province","name":"Flores","lat":7.48157,"lon":-80.40695,"geocoding":{},"distantMaxMiles":5},"Guararé":{"countryName":"Panama","stateName":"Los Santos Province","name":"Guararé","lat":7.81531,"lon":-80.28345,"geocoding":{},"distantMaxMiles":5},"Guararé Arriba":{"countryName":"Panama","stateName":"Los Santos Province","name":"Guararé Arriba","lat":7.80023,"lon":-80.35983,"geocoding":{},"distantMaxMiles":5},"La Colorada":{"countryName":"Panama","stateName":"Los Santos Province","name":"La Colorada","lat":7.82362,"lon":-80.55552,"geocoding":{},"distantMaxMiles":5},"La Enea":{"countryName":"Panama","stateName":"Los Santos Province","name":"La Enea","lat":7.83333,"lon":-80.27417,"geocoding":{},"distantMaxMiles":5},"La Espigadilla":{"countryName":"Panama","stateName":"Los Santos Province","name":"La Espigadilla","lat":7.88389,"lon":-80.39039,"geocoding":{},"distantMaxMiles":5},"La Laja":{"countryName":"Panama","stateName":"Los Santos Province","name":"La Laja","lat":7.73102,"lon":-80.25298,"geocoding":{},"distantMaxMiles":5},"La Mesa":{"countryName":"Panama","stateName":"Los Santos Province","name":"La Mesa","lat":7.6567,"lon":-80.61794,"geocoding":{},"distantMaxMiles":5},"La Miel":{"countryName":"Panama","stateName":"Los Santos Province","name":"La Miel","lat":7.56022,"lon":-80.32736,"geocoding":{},"distantMaxMiles":5},"La Palma":{"countryName":"Panama","stateName":"Los Santos Province","name":"La Palma","lat":7.71667,"lon":-80.38333,"geocoding":{},"distantMaxMiles":5},"La Pasera":{"countryName":"Panama","stateName":"Los Santos Province","name":"La Pasera","lat":7.79757,"lon":-80.30342,"geocoding":{},"distantMaxMiles":5},"La Tiza":{"countryName":"Panama","stateName":"Los Santos Province","name":"La Tiza","lat":7.7511,"lon":-80.29216,"geocoding":{},"distantMaxMiles":5},"La Tronosa":{"countryName":"Panama","stateName":"Los Santos Province","name":"La Tronosa","lat":7.43609,"lon":-80.58698,"geocoding":{},"distantMaxMiles":5},"Lajamina":{"countryName":"Panama","stateName":"Los Santos Province","name":"Lajamina","lat":7.58587,"lon":-80.13212,"geocoding":{},"distantMaxMiles":5},"Las Cruces":{"countryName":"Panama","stateName":"Los Santos Province","name":"Las Cruces","lat":7.82285,"lon":-80.43003,"geocoding":{},"distantMaxMiles":5},"Las Guabas":{"countryName":"Panama","stateName":"Los Santos Province","name":"Las Guabas","lat":7.81469,"lon":-80.50155,"geocoding":{},"distantMaxMiles":5},"Las Palmas":{"countryName":"Panama","stateName":"Los Santos Province","name":"Las Palmas","lat":7.68314,"lon":-80.49728,"geocoding":{},"distantMaxMiles":5},"Las Palmitas":{"countryName":"Panama","stateName":"Los Santos Province","name":"Las Palmitas","lat":7.76523,"lon":-80.2935,"geocoding":{},"distantMaxMiles":5},"Las Tablas":{"countryName":"Panama","stateName":"Los Santos Province","name":"Las Tablas","lat":7.76472,"lon":-80.27483,"geocoding":{},"distantMaxMiles":5},"Las Trancas":{"countryName":"Panama","stateName":"Los Santos Province","name":"Las Trancas","lat":7.734,"lon":-80.37384,"geocoding":{},"distantMaxMiles":5},"Llano Abajo":{"countryName":"Panama","stateName":"Los Santos Province","name":"Llano Abajo","lat":7.78598,"lon":-80.4106,"geocoding":{},"distantMaxMiles":5},"Llano Largo":{"countryName":"Panama","stateName":"Los Santos Province","name":"Llano Largo","lat":7.90607,"lon":-80.42561,"geocoding":{},"distantMaxMiles":5},"Llano de Piedra":{"countryName":"Panama","stateName":"Los Santos Province","name":"Llano de Piedra","lat":7.65972,"lon":-80.56347,"geocoding":{},"distantMaxMiles":5},"Los Asientos":{"countryName":"Panama","stateName":"Los Santos Province","name":"Los Asientos","lat":7.51656,"lon":-80.13521,"geocoding":{},"distantMaxMiles":5},"Los Olivos":{"countryName":"Panama","stateName":"Los Santos Province","name":"Los Olivos","lat":7.91589,"lon":-80.48884,"geocoding":{},"distantMaxMiles":5},"Los Santos":{"countryName":"Panama","stateName":"Los Santos Province","name":"Los Santos","lat":7.93333,"lon":-80.41667,"geocoding":{},"distantMaxMiles":5},"Los Ángeles":{"countryName":"Panama","stateName":"Los Santos Province","name":"Los Ángeles","lat":7.88422,"lon":-80.35772,"geocoding":{},"distantMaxMiles":5},"Macaracas":{"countryName":"Panama","stateName":"Los Santos Province","name":"Macaracas","lat":7.73168,"lon":-80.55364,"geocoding":{},"distantMaxMiles":5},"Mogollón":{"countryName":"Panama","stateName":"Los Santos Province","name":"Mogollón","lat":7.64261,"lon":-80.4595,"geocoding":{},"distantMaxMiles":5},"Nuario":{"countryName":"Panama","stateName":"Los Santos Province","name":"Nuario","lat":7.53047,"lon":-80.32692,"geocoding":{},"distantMaxMiles":5},"Oria Arriba":{"countryName":"Panama","stateName":"Los Santos Province","name":"Oria Arriba","lat":7.50505,"lon":-80.20567,"geocoding":{},"distantMaxMiles":5},"Palmira":{"countryName":"Panama","stateName":"Los Santos Province","name":"Palmira","lat":7.66347,"lon":-80.35728,"geocoding":{},"distantMaxMiles":5},"Paraíso":{"countryName":"Panama","stateName":"Los Santos Province","name":"Paraíso","lat":7.6851,"lon":-80.16082,"geocoding":{},"distantMaxMiles":5},"Paritilla":{"countryName":"Panama","stateName":"Los Santos Province","name":"Paritilla","lat":7.62848,"lon":-80.1724,"geocoding":{},"distantMaxMiles":5},"Pedasí":{"countryName":"Panama","stateName":"Los Santos Province","name":"Pedasí","lat":7.53034,"lon":-80.02699,"geocoding":{},"distantMaxMiles":5},"Perales":{"countryName":"Panama","stateName":"Los Santos Province","name":"Perales","lat":7.77461,"lon":-80.32494,"geocoding":{},"distantMaxMiles":5},"Peña Blanca":{"countryName":"Panama","stateName":"Los Santos Province","name":"Peña Blanca","lat":7.71931,"lon":-80.28366,"geocoding":{},"distantMaxMiles":5},"Pocrí":{"countryName":"Panama","stateName":"Los Santos Province","name":"Pocrí","lat":7.65816,"lon":-80.12119,"geocoding":{},"distantMaxMiles":5},"Río Hondo":{"countryName":"Panama","stateName":"Los Santos Province","name":"Río Hondo","lat":7.71192,"lon":-80.35904,"geocoding":{},"distantMaxMiles":5},"Sabana Grande":{"countryName":"Panama","stateName":"Los Santos Province","name":"Sabana Grande","lat":7.83543,"lon":-80.3649,"geocoding":{},"distantMaxMiles":5},"San José":{"countryName":"Panama","stateName":"Los Santos Province","name":"San José","lat":7.67395,"lon":-80.24438,"geocoding":{},"distantMaxMiles":5},"Santa Ana Arriba":{"countryName":"Panama","stateName":"Los Santos Province","name":"Santa Ana Arriba","lat":7.933,"lon":-80.36369,"geocoding":{},"distantMaxMiles":5},"Santo Domingo":{"countryName":"Panama","stateName":"Los Santos Province","name":"Santo Domingo","lat":7.74614,"lon":-80.24173,"geocoding":{},"distantMaxMiles":5},"Sesteadero":{"countryName":"Panama","stateName":"Los Santos Province","name":"Sesteadero","lat":7.73885,"lon":-80.24854,"geocoding":{},"distantMaxMiles":5},"Tonosí":{"countryName":"Panama","stateName":"Los Santos Province","name":"Tonosí","lat":7.40684,"lon":-80.44217,"geocoding":{},"distantMaxMiles":5},"Tres Quebradas":{"countryName":"Panama","stateName":"Los Santos Province","name":"Tres Quebradas","lat":7.84018,"lon":-80.4074,"geocoding":{},"distantMaxMiles":5},"Valle Rico":{"countryName":"Panama","stateName":"Los Santos Province","name":"Valle Rico","lat":7.62011,"lon":-80.35076,"geocoding":{},"distantMaxMiles":5},"Vallerriquito":{"countryName":"Panama","stateName":"Los Santos Province","name":"Vallerriquito","lat":7.62163,"lon":-80.31975,"geocoding":{},"distantMaxMiles":5},"Villa Lourdes":{"countryName":"Panama","stateName":"Los Santos Province","name":"Villa Lourdes","lat":7.81141,"lon":-80.47029,"geocoding":{},"distantMaxMiles":5}}},"Ngöbe-Buglé Comarca":{"countryName":"Panama","name":"Ngöbe-Buglé Comarca","isoCode":"NB","lat":8.6595833,"lon":-81.7787021,"geocoding":{},"distantMaxMiles":5,"cities":{"Bahía Azul":{"countryName":"Panama","stateName":"Ngöbe-Buglé Comarca","name":"Bahía Azul","lat":9.14176,"lon":-81.89425,"geocoding":{},"distantMaxMiles":5},"Besiko":{"countryName":"Panama","stateName":"Ngöbe-Buglé Comarca","name":"Besiko","lat":8.54863,"lon":-82.0898,"geocoding":{},"distantMaxMiles":5},"Bisira":{"countryName":"Panama","stateName":"Ngöbe-Buglé Comarca","name":"Bisira","lat":8.89553,"lon":-81.85352,"geocoding":{},"distantMaxMiles":5},"Boca de Balsa":{"countryName":"Panama","stateName":"Ngöbe-Buglé Comarca","name":"Boca de Balsa","lat":8.52995,"lon":-82.03132,"geocoding":{},"distantMaxMiles":5},"Buenos Aires":{"countryName":"Panama","stateName":"Ngöbe-Buglé Comarca","name":"Buenos Aires","lat":8.41384,"lon":-81.4844,"geocoding":{},"distantMaxMiles":5},"Camarón Arriba":{"countryName":"Panama","stateName":"Ngöbe-Buglé Comarca","name":"Camarón Arriba","lat":8.38324,"lon":-81.99345,"geocoding":{},"distantMaxMiles":5},"Cerro Banco":{"countryName":"Panama","stateName":"Ngöbe-Buglé Comarca","name":"Cerro Banco","lat":8.45797,"lon":-82.03081,"geocoding":{},"distantMaxMiles":5},"Cerro Caña":{"countryName":"Panama","stateName":"Ngöbe-Buglé Comarca","name":"Cerro Caña","lat":8.35174,"lon":-81.6105,"geocoding":{},"distantMaxMiles":5},"Cerro Plata":{"countryName":"Panama","stateName":"Ngöbe-Buglé Comarca","name":"Cerro Plata","lat":8.47733,"lon":-81.54585,"geocoding":{},"distantMaxMiles":5},"Chichica":{"countryName":"Panama","stateName":"Ngöbe-Buglé Comarca","name":"Chichica","lat":8.35885,"lon":-81.66582,"geocoding":{},"distantMaxMiles":5},"Guayabito":{"countryName":"Panama","stateName":"Ngöbe-Buglé Comarca","name":"Guayabito","lat":8.53949,"lon":-81.48225,"geocoding":{},"distantMaxMiles":5},"Hato Chami":{"countryName":"Panama","stateName":"Ngöbe-Buglé Comarca","name":"Hato Chami","lat":8.44281,"lon":-81.77196,"geocoding":{},"distantMaxMiles":5},"Hato Corotú":{"countryName":"Panama","stateName":"Ngöbe-Buglé Comarca","name":"Hato Corotú","lat":8.33516,"lon":-81.9703,"geocoding":{},"distantMaxMiles":5},"Kankintú":{"countryName":"Panama","stateName":"Ngöbe-Buglé Comarca","name":"Kankintú","lat":8.89503,"lon":-81.8575,"geocoding":{},"distantMaxMiles":5},"Kusapín":{"countryName":"Panama","stateName":"Ngöbe-Buglé Comarca","name":"Kusapín","lat":9.17119,"lon":-81.89621,"geocoding":{},"distantMaxMiles":5},"Lajero Arriba":{"countryName":"Panama","stateName":"Ngöbe-Buglé Comarca","name":"Lajero Arriba","lat":8.2906,"lon":-81.77047,"geocoding":{},"distantMaxMiles":5},"Llano Ñopo":{"countryName":"Panama","stateName":"Ngöbe-Buglé Comarca","name":"Llano Ñopo","lat":8.41996,"lon":-81.61865,"geocoding":{},"distantMaxMiles":5},"Loma Yuca":{"countryName":"Panama","stateName":"Ngöbe-Buglé Comarca","name":"Loma Yuca","lat":8.71817,"lon":-81.40492,"geocoding":{},"distantMaxMiles":5},"Mirono":{"countryName":"Panama","stateName":"Ngöbe-Buglé Comarca","name":"Mirono","lat":8.40469,"lon":-81.83064,"geocoding":{},"distantMaxMiles":5},"Müna":{"countryName":"Panama","stateName":"Ngöbe-Buglé Comarca","name":"Müna","lat":8.35035,"lon":-81.67219,"geocoding":{},"distantMaxMiles":5},"Nole Düima":{"countryName":"Panama","stateName":"Ngöbe-Buglé Comarca","name":"Nole Düima","lat":8.32682,"lon":-81.81531,"geocoding":{},"distantMaxMiles":5},"Nurun":{"countryName":"Panama","stateName":"Ngöbe-Buglé Comarca","name":"Nurun","lat":8.47815,"lon":-81.47015,"geocoding":{},"distantMaxMiles":5},"Oma":{"countryName":"Panama","stateName":"Ngöbe-Buglé Comarca","name":"Oma","lat":8.35019,"lon":-81.80177,"geocoding":{},"distantMaxMiles":5},"Paredón Arriba":{"countryName":"Panama","stateName":"Ngöbe-Buglé Comarca","name":"Paredón Arriba","lat":8.45977,"lon":-81.19592,"geocoding":{},"distantMaxMiles":5},"Plan de Chorcha":{"countryName":"Panama","stateName":"Ngöbe-Buglé Comarca","name":"Plan de Chorcha","lat":8.46168,"lon":-82.15924,"geocoding":{},"distantMaxMiles":5},"Pueblo Nuevo":{"countryName":"Panama","stateName":"Ngöbe-Buglé Comarca","name":"Pueblo Nuevo","lat":8.8807,"lon":-82.22411,"geocoding":{},"distantMaxMiles":5},"Quebrada Canoa":{"countryName":"Panama","stateName":"Ngöbe-Buglé Comarca","name":"Quebrada Canoa","lat":8.43333,"lon":-81.78333,"geocoding":{},"distantMaxMiles":5},"Quebrada Tula":{"countryName":"Panama","stateName":"Ngöbe-Buglé Comarca","name":"Quebrada Tula","lat":8.84037,"lon":-81.99645,"geocoding":{},"distantMaxMiles":5},"Sitio Prado":{"countryName":"Panama","stateName":"Ngöbe-Buglé Comarca","name":"Sitio Prado","lat":8.37233,"lon":-81.58141,"geocoding":{},"distantMaxMiles":5},"Tobobe":{"countryName":"Panama","stateName":"Ngöbe-Buglé Comarca","name":"Tobobe","lat":9.12111,"lon":-81.82471,"geocoding":{},"distantMaxMiles":5}}},"Panamá Oeste Province":{"countryName":"Panama","name":"Panamá Oeste Province","isoCode":"10","lat":9.1196751,"lon":-79.2902133,"geocoding":{},"distantMaxMiles":5,"cities":{"Alto del Espino":{"countryName":"Panama","stateName":"Panamá Oeste Province","name":"Alto del Espino","lat":8.84213,"lon":-79.84551,"geocoding":{},"distantMaxMiles":5},"Altos de San Francisco":{"countryName":"Panama","stateName":"Panamá Oeste Province","name":"Altos de San Francisco","lat":8.86167,"lon":-79.79,"geocoding":{},"distantMaxMiles":5},"Arenosa":{"countryName":"Panama","stateName":"Panamá Oeste Province","name":"Arenosa","lat":9.03978,"lon":-79.95128,"geocoding":{},"distantMaxMiles":5},"Arosemena":{"countryName":"Panama","stateName":"Panamá Oeste Province","name":"Arosemena","lat":8.97091,"lon":-79.96641,"geocoding":{},"distantMaxMiles":5},"Arraiján":{"countryName":"Panama","stateName":"Panamá Oeste Province","name":"Arraiján","lat":8.95187,"lon":-79.66011,"geocoding":{},"distantMaxMiles":5},"Bejuco":{"countryName":"Panama","stateName":"Panamá Oeste Province","name":"Bejuco","lat":8.60037,"lon":-79.88988,"geocoding":{},"distantMaxMiles":5},"Buenos Aires":{"countryName":"Panama","stateName":"Panamá Oeste Province","name":"Buenos Aires","lat":8.63146,"lon":-79.94775,"geocoding":{},"distantMaxMiles":5},"Cabuya":{"countryName":"Panama","stateName":"Panamá Oeste Province","name":"Cabuya","lat":8.57472,"lon":-79.92714,"geocoding":{},"distantMaxMiles":5},"Caimito":{"countryName":"Panama","stateName":"Panamá Oeste Province","name":"Caimito","lat":8.81143,"lon":-79.94738,"geocoding":{},"distantMaxMiles":5},"Capira":{"countryName":"Panama","stateName":"Panamá Oeste Province","name":"Capira","lat":8.75636,"lon":-79.87996,"geocoding":{},"distantMaxMiles":5},"Cermeño":{"countryName":"Panama","stateName":"Panamá Oeste Province","name":"Cermeño","lat":8.74082,"lon":-79.85299,"geocoding":{},"distantMaxMiles":5},"Cerro Cama":{"countryName":"Panama","stateName":"Panamá Oeste Province","name":"Cerro Cama","lat":9.02802,"lon":-79.90744,"geocoding":{},"distantMaxMiles":5},"Chame":{"countryName":"Panama","stateName":"Panamá Oeste Province","name":"Chame","lat":8.57753,"lon":-79.88595,"geocoding":{},"distantMaxMiles":5},"Cirí de Los Sotos":{"countryName":"Panama","stateName":"Panamá Oeste Province","name":"Cirí de Los Sotos","lat":8.97206,"lon":-80.09209,"geocoding":{},"distantMaxMiles":5},"Distrito Arraiján":{"countryName":"Panama","stateName":"Panamá Oeste Province","name":"Distrito Arraiján","lat":8.95,"lon":-79.7,"geocoding":{},"distantMaxMiles":5},"Distrito de Capira":{"countryName":"Panama","stateName":"Panamá Oeste Province","name":"Distrito de Capira","lat":8.76228,"lon":-79.88275,"geocoding":{},"distantMaxMiles":5},"Distrito de Chame":{"countryName":"Panama","stateName":"Panamá Oeste Province","name":"Distrito de Chame","lat":8.6,"lon":-79.91667,"geocoding":{},"distantMaxMiles":5},"Distrito de La Chorrera":{"countryName":"Panama","stateName":"Panamá Oeste Province","name":"Distrito de La Chorrera","lat":8.95,"lon":-79.85,"geocoding":{},"distantMaxMiles":5},"Distrito de San Carlos":{"countryName":"Panama","stateName":"Panamá Oeste Province","name":"Distrito de San Carlos","lat":8.53196,"lon":-80.06906,"geocoding":{},"distantMaxMiles":5},"El Cacao":{"countryName":"Panama","stateName":"Panamá Oeste Province","name":"El Cacao","lat":8.76134,"lon":-80.01294,"geocoding":{},"distantMaxMiles":5},"El Coco":{"countryName":"Panama","stateName":"Panamá Oeste Province","name":"El Coco","lat":8.87009,"lon":-79.80415,"geocoding":{},"distantMaxMiles":5},"El Espavé":{"countryName":"Panama","stateName":"Panamá Oeste Province","name":"El Espavé","lat":8.66161,"lon":-79.87584,"geocoding":{},"distantMaxMiles":5},"El Espino":{"countryName":"Panama","stateName":"Panamá Oeste Province","name":"El Espino","lat":8.83795,"lon":-79.84925,"geocoding":{},"distantMaxMiles":5},"El Higo":{"countryName":"Panama","stateName":"Panamá Oeste Province","name":"El Higo","lat":8.44731,"lon":-80.03603,"geocoding":{},"distantMaxMiles":5},"El Líbano":{"countryName":"Panama","stateName":"Panamá Oeste Province","name":"El Líbano","lat":8.61685,"lon":-79.83483,"geocoding":{},"distantMaxMiles":5},"Guadalupe":{"countryName":"Panama","stateName":"Panamá Oeste Province","name":"Guadalupe","lat":8.85452,"lon":-79.81408,"geocoding":{},"distantMaxMiles":5},"Guayabito":{"countryName":"Panama","stateName":"Panamá Oeste Province","name":"Guayabito","lat":8.54828,"lon":-80.0135,"geocoding":{},"distantMaxMiles":5},"Hato Montaña":{"countryName":"Panama","stateName":"Panamá Oeste Province","name":"Hato Montaña","lat":8.91938,"lon":-79.73915,"geocoding":{},"distantMaxMiles":5},"La Chorrera":{"countryName":"Panama","stateName":"Panamá Oeste Province","name":"La Chorrera","lat":8.88028,"lon":-79.78333,"geocoding":{},"distantMaxMiles":5},"La Ermita":{"countryName":"Panama","stateName":"Panamá Oeste Province","name":"La Ermita","lat":8.45622,"lon":-80.06835,"geocoding":{},"distantMaxMiles":5},"La Herradura":{"countryName":"Panama","stateName":"Panamá Oeste Province","name":"La Herradura","lat":8.84848,"lon":-79.80404,"geocoding":{},"distantMaxMiles":5},"La Laguna":{"countryName":"Panama","stateName":"Panamá Oeste Province","name":"La Laguna","lat":9.04404,"lon":-79.84215,"geocoding":{},"distantMaxMiles":5},"La Mitra":{"countryName":"Panama","stateName":"Panamá Oeste Province","name":"La Mitra","lat":8.84091,"lon":-79.78648,"geocoding":{},"distantMaxMiles":5},"La Pesa":{"countryName":"Panama","stateName":"Panamá Oeste Province","name":"La Pesa","lat":8.85073,"lon":-79.82374,"geocoding":{},"distantMaxMiles":5},"Las Colinas":{"countryName":"Panama","stateName":"Panamá Oeste Province","name":"Las Colinas","lat":8.55,"lon":-80.08333,"geocoding":{},"distantMaxMiles":5},"Las Lajas":{"countryName":"Panama","stateName":"Panamá Oeste Province","name":"Las Lajas","lat":8.54963,"lon":-79.93521,"geocoding":{},"distantMaxMiles":5},"Las Uvas":{"countryName":"Panama","stateName":"Panamá Oeste Province","name":"Las Uvas","lat":8.45937,"lon":-80.00075,"geocoding":{},"distantMaxMiles":5},"Llano Largo":{"countryName":"Panama","stateName":"Panamá Oeste Province","name":"Llano Largo","lat":8.83463,"lon":-79.80765,"geocoding":{},"distantMaxMiles":5},"Los Llanitos":{"countryName":"Panama","stateName":"Panamá Oeste Province","name":"Los Llanitos","lat":8.59787,"lon":-80.09503,"geocoding":{},"distantMaxMiles":5},"Mendoza":{"countryName":"Panama","stateName":"Panamá Oeste Province","name":"Mendoza","lat":9.01471,"lon":-79.85073,"geocoding":{},"distantMaxMiles":5},"Nueva Arenosa":{"countryName":"Panama","stateName":"Panamá Oeste Province","name":"Nueva Arenosa","lat":8.86944,"lon":-79.99472,"geocoding":{},"distantMaxMiles":5},"Nueva Gorgona":{"countryName":"Panama","stateName":"Panamá Oeste Province","name":"Nueva Gorgona","lat":8.55,"lon":-79.87547,"geocoding":{},"distantMaxMiles":5},"Nuevo Arraiján":{"countryName":"Panama","stateName":"Panamá Oeste Province","name":"Nuevo Arraiján","lat":8.92453,"lon":-79.72004,"geocoding":{},"distantMaxMiles":5},"Nuevo Emperador":{"countryName":"Panama","stateName":"Panamá Oeste Province","name":"Nuevo Emperador","lat":9.00273,"lon":-79.73141,"geocoding":{},"distantMaxMiles":5},"Playa Leona":{"countryName":"Panama","stateName":"Panamá Oeste Province","name":"Playa Leona","lat":8.78389,"lon":-79.77547,"geocoding":{},"distantMaxMiles":5},"Potrero Grande":{"countryName":"Panama","stateName":"Panamá Oeste Province","name":"Potrero Grande","lat":8.88051,"lon":-79.82795,"geocoding":{},"distantMaxMiles":5},"Puerto Caimito":{"countryName":"Panama","stateName":"Panamá Oeste Province","name":"Puerto Caimito","lat":8.87022,"lon":-79.71423,"geocoding":{},"distantMaxMiles":5},"Río Congo":{"countryName":"Panama","stateName":"Panamá Oeste Province","name":"Río Congo","lat":8.96666,"lon":-79.76105,"geocoding":{},"distantMaxMiles":5},"San Carlos":{"countryName":"Panama","stateName":"Panamá Oeste Province","name":"San Carlos","lat":8.47323,"lon":-79.96104,"geocoding":{},"distantMaxMiles":5},"San José":{"countryName":"Panama","stateName":"Panamá Oeste Province","name":"San José","lat":8.93333,"lon":-79.73333,"geocoding":{},"distantMaxMiles":5},"San Vicente de Bique":{"countryName":"Panama","stateName":"Panamá Oeste Province","name":"San Vicente de Bique","lat":8.91143,"lon":-79.6736,"geocoding":{},"distantMaxMiles":5},"Santa Clara":{"countryName":"Panama","stateName":"Panamá Oeste Province","name":"Santa Clara","lat":9.02875,"lon":-79.75443,"geocoding":{},"distantMaxMiles":5},"Santa Rita":{"countryName":"Panama","stateName":"Panamá Oeste Province","name":"Santa Rita","lat":8.85681,"lon":-79.87954,"geocoding":{},"distantMaxMiles":5},"Sorá":{"countryName":"Panama","stateName":"Panamá Oeste Province","name":"Sorá","lat":8.63191,"lon":-80.00888,"geocoding":{},"distantMaxMiles":5},"Veracruz":{"countryName":"Panama","stateName":"Panamá Oeste Province","name":"Veracruz","lat":8.88988,"lon":-79.62603,"geocoding":{},"distantMaxMiles":5},"Villa Carmen":{"countryName":"Panama","stateName":"Panamá Oeste Province","name":"Villa Carmen","lat":8.79832,"lon":-79.86929,"geocoding":{},"distantMaxMiles":5},"Villa Rosario":{"countryName":"Panama","stateName":"Panamá Oeste Province","name":"Villa Rosario","lat":8.77379,"lon":-79.87547,"geocoding":{},"distantMaxMiles":5},"Vista Alegre":{"countryName":"Panama","stateName":"Panamá Oeste Province","name":"Vista Alegre","lat":8.92772,"lon":-79.7028,"geocoding":{},"distantMaxMiles":5}}},"Panamá Province":{"countryName":"Panama","name":"Panamá Province","isoCode":"8","lat":9.1196751,"lon":-79.2902133,"geocoding":{},"distantMaxMiles":5,"cities":{"Alcalde Díaz":{"countryName":"Panama","stateName":"Panamá Province","name":"Alcalde Díaz","lat":9.12016,"lon":-79.55641,"geocoding":{},"distantMaxMiles":5},"Ancón":{"countryName":"Panama","stateName":"Panamá Province","name":"Ancón","lat":8.96015,"lon":-79.5514,"geocoding":{},"distantMaxMiles":5},"Brujas":{"countryName":"Panama","stateName":"Panamá Province","name":"Brujas","lat":8.58536,"lon":-78.53008,"geocoding":{},"distantMaxMiles":5},"Cabra Número Uno":{"countryName":"Panama","stateName":"Panamá Province","name":"Cabra Número Uno","lat":9.10863,"lon":-79.33694,"geocoding":{},"distantMaxMiles":5},"Caimitillo":{"countryName":"Panama","stateName":"Panamá Province","name":"Caimitillo","lat":9.15559,"lon":-79.53974,"geocoding":{},"distantMaxMiles":5},"Calzada Larga":{"countryName":"Panama","stateName":"Panamá Province","name":"Calzada Larga","lat":9.17272,"lon":-79.56212,"geocoding":{},"distantMaxMiles":5},"Cañita":{"countryName":"Panama","stateName":"Panamá Province","name":"Cañita","lat":9.22236,"lon":-78.89509,"geocoding":{},"distantMaxMiles":5},"Cerro Azul":{"countryName":"Panama","stateName":"Panamá Province","name":"Cerro Azul","lat":9.15735,"lon":-79.42097,"geocoding":{},"distantMaxMiles":5},"Chepillo":{"countryName":"Panama","stateName":"Panamá Province","name":"Chepillo","lat":8.95396,"lon":-79.12856,"geocoding":{},"distantMaxMiles":5},"Chepo":{"countryName":"Panama","stateName":"Panamá Province","name":"Chepo","lat":9.17019,"lon":-79.10083,"geocoding":{},"distantMaxMiles":5},"Chilibre":{"countryName":"Panama","stateName":"Panamá Province","name":"Chilibre","lat":9.15093,"lon":-79.62098,"geocoding":{},"distantMaxMiles":5},"Chimán":{"countryName":"Panama","stateName":"Panamá Province","name":"Chimán","lat":8.69125,"lon":-78.6357,"geocoding":{},"distantMaxMiles":5},"Contadora":{"countryName":"Panama","stateName":"Panamá Province","name":"Contadora","lat":8.62483,"lon":-79.03748,"geocoding":{},"distantMaxMiles":5},"Curundú":{"countryName":"Panama","stateName":"Panamá Province","name":"Curundú","lat":8.97092,"lon":-79.54612,"geocoding":{},"distantMaxMiles":5},"Distrito de Balboa":{"countryName":"Panama","stateName":"Panamá Province","name":"Distrito de Balboa","lat":8.46667,"lon":-79,"geocoding":{},"distantMaxMiles":5},"Distrito de Chepo":{"countryName":"Panama","stateName":"Panamá Province","name":"Distrito de Chepo","lat":9.17391,"lon":-78.70374,"geocoding":{},"distantMaxMiles":5},"Distrito de Chimán":{"countryName":"Panama","stateName":"Panamá Province","name":"Distrito de Chimán","lat":8.76043,"lon":-78.5647,"geocoding":{},"distantMaxMiles":5},"Distrito de Panamá":{"countryName":"Panama","stateName":"Panamá Province","name":"Distrito de Panamá","lat":9.30612,"lon":-79.45246,"geocoding":{},"distantMaxMiles":5},"Distrito de Taboga":{"countryName":"Panama","stateName":"Panamá Province","name":"Distrito de Taboga","lat":8.78333,"lon":-79.55833,"geocoding":{},"distantMaxMiles":5},"El Chorrillo":{"countryName":"Panama","stateName":"Panamá Province","name":"El Chorrillo","lat":8.94964,"lon":-79.54715,"geocoding":{},"distantMaxMiles":5},"El Progreso":{"countryName":"Panama","stateName":"Panamá Province","name":"El Progreso","lat":9.26667,"lon":-79.11667,"geocoding":{},"distantMaxMiles":5},"Gonzalillo":{"countryName":"Panama","stateName":"Panamá Province","name":"Gonzalillo","lat":9.09183,"lon":-79.51928,"geocoding":{},"distantMaxMiles":5},"Howard":{"countryName":"Panama","stateName":"Panamá Province","name":"Howard","lat":8.93942,"lon":-79.59097,"geocoding":{},"distantMaxMiles":5},"Juan Díaz":{"countryName":"Panama","stateName":"Panamá Province","name":"Juan Díaz","lat":9.05,"lon":-79.45,"geocoding":{},"distantMaxMiles":5},"La Cabima":{"countryName":"Panama","stateName":"Panamá Province","name":"La Cabima","lat":9.11865,"lon":-79.5366,"geocoding":{},"distantMaxMiles":5},"La Colorada":{"countryName":"Panama","stateName":"Panamá Province","name":"La Colorada","lat":9.10224,"lon":-79.416,"geocoding":{},"distantMaxMiles":5},"La Ensenada":{"countryName":"Panama","stateName":"Panamá Province","name":"La Ensenada","lat":8.36618,"lon":-78.84606,"geocoding":{},"distantMaxMiles":5},"La Esmeralda":{"countryName":"Panama","stateName":"Panamá Province","name":"La Esmeralda","lat":8.26817,"lon":-78.9246,"geocoding":{},"distantMaxMiles":5},"La Guinea":{"countryName":"Panama","stateName":"Panamá Province","name":"La Guinea","lat":8.3425,"lon":-78.9343,"geocoding":{},"distantMaxMiles":5},"La Mesa":{"countryName":"Panama","stateName":"Panamá Province","name":"La Mesa","lat":9.17308,"lon":-79.27401,"geocoding":{},"distantMaxMiles":5},"Las Cumbres":{"countryName":"Panama","stateName":"Panamá Province","name":"Las Cumbres","lat":9.08916,"lon":-79.52809,"geocoding":{},"distantMaxMiles":5},"Las Margaritas":{"countryName":"Panama","stateName":"Panamá Province","name":"Las Margaritas","lat":9.18426,"lon":-79.0873,"geocoding":{},"distantMaxMiles":5},"Los Lotes":{"countryName":"Panama","stateName":"Panamá Province","name":"Los Lotes","lat":9.12425,"lon":-79.28929,"geocoding":{},"distantMaxMiles":5},"Lídice":{"countryName":"Panama","stateName":"Panamá Province","name":"Lídice","lat":8.74869,"lon":-79.90974,"geocoding":{},"distantMaxMiles":5},"Nueva Esperanza":{"countryName":"Panama","stateName":"Panamá Province","name":"Nueva Esperanza","lat":9.1021,"lon":-79.33414,"geocoding":{},"distantMaxMiles":5},"Nuevo Belén":{"countryName":"Panama","stateName":"Panamá Province","name":"Nuevo Belén","lat":9.07939,"lon":-79.39556,"geocoding":{},"distantMaxMiles":5},"Pacora":{"countryName":"Panama","stateName":"Panamá Province","name":"Pacora","lat":9.07937,"lon":-79.28997,"geocoding":{},"distantMaxMiles":5},"Panamá":{"countryName":"Panama","stateName":"Panamá Province","name":"Panamá","lat":8.9936,"lon":-79.51973,"geocoding":{},"distantMaxMiles":5},"Parque Lefevre":{"countryName":"Panama","stateName":"Panamá Province","name":"Parque Lefevre","lat":9.01667,"lon":-79.48333,"geocoding":{},"distantMaxMiles":5},"Pedregal":{"countryName":"Panama","stateName":"Panamá Province","name":"Pedregal","lat":9.06667,"lon":-79.43333,"geocoding":{},"distantMaxMiles":5},"Pásiga":{"countryName":"Panama","stateName":"Panamá Province","name":"Pásiga","lat":8.93647,"lon":-78.90917,"geocoding":{},"distantMaxMiles":5},"Río Abajo":{"countryName":"Panama","stateName":"Panamá Province","name":"Río Abajo","lat":9.01667,"lon":-79.5,"geocoding":{},"distantMaxMiles":5},"San Antonio":{"countryName":"Panama","stateName":"Panamá Province","name":"San Antonio","lat":9.1729,"lon":-79.54743,"geocoding":{},"distantMaxMiles":5},"San Felipe":{"countryName":"Panama","stateName":"Panamá Province","name":"San Felipe","lat":8.95118,"lon":-79.53726,"geocoding":{},"distantMaxMiles":5},"San Miguel":{"countryName":"Panama","stateName":"Panamá Province","name":"San Miguel","lat":8.45685,"lon":-78.93695,"geocoding":{},"distantMaxMiles":5},"San Miguelito":{"countryName":"Panama","stateName":"Panamá Province","name":"San Miguelito","lat":9.05032,"lon":-79.47068,"geocoding":{},"distantMaxMiles":5},"San Vicente":{"countryName":"Panama","stateName":"Panamá Province","name":"San Vicente","lat":9.11445,"lon":-79.59755,"geocoding":{},"distantMaxMiles":5},"Tocumen":{"countryName":"Panama","stateName":"Panamá Province","name":"Tocumen","lat":9.08939,"lon":-79.3831,"geocoding":{},"distantMaxMiles":5},"Tortí":{"countryName":"Panama","stateName":"Panamá Province","name":"Tortí","lat":8.92132,"lon":-78.40546,"geocoding":{},"distantMaxMiles":5},"Unión Santeña":{"countryName":"Panama","stateName":"Panamá Province","name":"Unión Santeña","lat":8.83525,"lon":-78.65104,"geocoding":{},"distantMaxMiles":5},"Unión de Azuero":{"countryName":"Panama","stateName":"Panamá Province","name":"Unión de Azuero","lat":9.15256,"lon":-79.17005,"geocoding":{},"distantMaxMiles":5},"Villa Unida":{"countryName":"Panama","stateName":"Panamá Province","name":"Villa Unida","lat":9.18908,"lon":-79.62452,"geocoding":{},"distantMaxMiles":5},"Vista Hermosa":{"countryName":"Panama","stateName":"Panamá Province","name":"Vista Hermosa","lat":9.11178,"lon":-79.36113,"geocoding":{},"distantMaxMiles":5}}},"Veraguas Province":{"countryName":"Panama","name":"Veraguas Province","isoCode":"9","lat":8.1231033,"lon":-81.0754657,"geocoding":{},"distantMaxMiles":5,"cities":{"Alto de Jesús":{"countryName":"Panama","stateName":"Veraguas Province","name":"Alto de Jesús","lat":8.26152,"lon":-81.48412,"geocoding":{},"distantMaxMiles":5},"Arenas":{"countryName":"Panama","stateName":"Veraguas Province","name":"Arenas","lat":7.36865,"lon":-80.86268,"geocoding":{},"distantMaxMiles":5},"Atalaya":{"countryName":"Panama","stateName":"Veraguas Province","name":"Atalaya","lat":8.04213,"lon":-80.92528,"geocoding":{},"distantMaxMiles":5},"Barnizal":{"countryName":"Panama","stateName":"Veraguas Province","name":"Barnizal","lat":8.4046,"lon":-80.77765,"geocoding":{},"distantMaxMiles":5},"Bisvalles":{"countryName":"Panama","stateName":"Veraguas Province","name":"Bisvalles","lat":8.18298,"lon":-81.22092,"geocoding":{},"distantMaxMiles":5},"Boquerón":{"countryName":"Panama","stateName":"Veraguas Province","name":"Boquerón","lat":8.24414,"lon":-80.85897,"geocoding":{},"distantMaxMiles":5},"Boró":{"countryName":"Panama","stateName":"Veraguas Province","name":"Boró","lat":8.16933,"lon":-81.30071,"geocoding":{},"distantMaxMiles":5},"Calabacito":{"countryName":"Panama","stateName":"Veraguas Province","name":"Calabacito","lat":8.24817,"lon":-81.08187,"geocoding":{},"distantMaxMiles":5},"Calidonia":{"countryName":"Panama","stateName":"Veraguas Province","name":"Calidonia","lat":7.95756,"lon":-81.38633,"geocoding":{},"distantMaxMiles":5},"Calobre":{"countryName":"Panama","stateName":"Veraguas Province","name":"Calobre","lat":8.31886,"lon":-80.84067,"geocoding":{},"distantMaxMiles":5},"Calovébora":{"countryName":"Panama","stateName":"Veraguas Province","name":"Calovébora","lat":8.78703,"lon":-81.21056,"geocoding":{},"distantMaxMiles":5},"Canto del Llano":{"countryName":"Panama","stateName":"Veraguas Province","name":"Canto del Llano","lat":8.12472,"lon":-80.96374,"geocoding":{},"distantMaxMiles":5},"Cañazas":{"countryName":"Panama","stateName":"Veraguas Province","name":"Cañazas","lat":8.32004,"lon":-81.21152,"geocoding":{},"distantMaxMiles":5},"Corozal":{"countryName":"Panama","stateName":"Veraguas Province","name":"Corozal","lat":8.07712,"lon":-81.4399,"geocoding":{},"distantMaxMiles":5},"Distrito de Atalaya":{"countryName":"Panama","stateName":"Veraguas Province","name":"Distrito de Atalaya","lat":8.02899,"lon":-80.91739,"geocoding":{},"distantMaxMiles":5},"Distrito de Calobre":{"countryName":"Panama","stateName":"Veraguas Province","name":"Distrito de Calobre","lat":8.39684,"lon":-80.85124,"geocoding":{},"distantMaxMiles":5},"Distrito de Cañazas":{"countryName":"Panama","stateName":"Veraguas Province","name":"Distrito de Cañazas","lat":8.35596,"lon":-81.28633,"geocoding":{},"distantMaxMiles":5},"Distrito de La Mesa":{"countryName":"Panama","stateName":"Veraguas Province","name":"Distrito de La Mesa","lat":8.10976,"lon":-81.17767,"geocoding":{},"distantMaxMiles":5},"Distrito de Las Palmas":{"countryName":"Panama","stateName":"Veraguas Province","name":"Distrito de Las Palmas","lat":8.14532,"lon":-81.42849,"geocoding":{},"distantMaxMiles":5},"Distrito de Montijo":{"countryName":"Panama","stateName":"Veraguas Province","name":"Distrito de Montijo","lat":7.95316,"lon":-81.05301,"geocoding":{},"distantMaxMiles":5},"Distrito de Río de Jesús":{"countryName":"Panama","stateName":"Veraguas Province","name":"Distrito de Río de Jesús","lat":7.91438,"lon":-81.16133,"geocoding":{},"distantMaxMiles":5},"Distrito de San Francisco":{"countryName":"Panama","stateName":"Veraguas Province","name":"Distrito de San Francisco","lat":8.26965,"lon":-81.00108,"geocoding":{},"distantMaxMiles":5},"Distrito de Santa Fé":{"countryName":"Panama","stateName":"Veraguas Province","name":"Distrito de Santa Fé","lat":8.72063,"lon":-80.95858,"geocoding":{},"distantMaxMiles":5},"Distrito de Santiago":{"countryName":"Panama","stateName":"Veraguas Province","name":"Distrito de Santiago","lat":8.12425,"lon":-80.87827,"geocoding":{},"distantMaxMiles":5},"Distrito de Soná":{"countryName":"Panama","stateName":"Veraguas Province","name":"Distrito de Soná","lat":7.84378,"lon":-81.36612,"geocoding":{},"distantMaxMiles":5},"El Alto":{"countryName":"Panama","stateName":"Veraguas Province","name":"El Alto","lat":8.51191,"lon":-81.03646,"geocoding":{},"distantMaxMiles":5},"El Barrito":{"countryName":"Panama","stateName":"Veraguas Province","name":"El Barrito","lat":7.96059,"lon":-80.94801,"geocoding":{},"distantMaxMiles":5},"El Coclá":{"countryName":"Panama","stateName":"Veraguas Province","name":"El Coclá","lat":8.32143,"lon":-80.92069,"geocoding":{},"distantMaxMiles":5},"El Espino de Santa Rosa":{"countryName":"Panama","stateName":"Veraguas Province","name":"El Espino de Santa Rosa","lat":8.09286,"lon":-80.8238,"geocoding":{},"distantMaxMiles":5},"El Marañón":{"countryName":"Panama","stateName":"Veraguas Province","name":"El Marañón","lat":8.03582,"lon":-81.21489,"geocoding":{},"distantMaxMiles":5},"El María":{"countryName":"Panama","stateName":"Veraguas Province","name":"El María","lat":8.02905,"lon":-81.44384,"geocoding":{},"distantMaxMiles":5},"El Pantano":{"countryName":"Panama","stateName":"Veraguas Province","name":"El Pantano","lat":8.53755,"lon":-81.06941,"geocoding":{},"distantMaxMiles":5},"El Peñón":{"countryName":"Panama","stateName":"Veraguas Province","name":"El Peñón","lat":8.35,"lon":-80.9762,"geocoding":{},"distantMaxMiles":5},"El Picador":{"countryName":"Panama","stateName":"Veraguas Province","name":"El Picador","lat":8.37803,"lon":-81.25621,"geocoding":{},"distantMaxMiles":5},"El Potrero":{"countryName":"Panama","stateName":"Veraguas Province","name":"El Potrero","lat":8.37692,"lon":-80.79434,"geocoding":{},"distantMaxMiles":5},"El Pájaro":{"countryName":"Panama","stateName":"Veraguas Province","name":"El Pájaro","lat":7.95342,"lon":-81.12154,"geocoding":{},"distantMaxMiles":5},"El Rincón":{"countryName":"Panama","stateName":"Veraguas Province","name":"El Rincón","lat":8.18422,"lon":-81.43333,"geocoding":{},"distantMaxMiles":5},"El Uvito":{"countryName":"Panama","stateName":"Veraguas Province","name":"El Uvito","lat":8.11648,"lon":-80.98461,"geocoding":{},"distantMaxMiles":5},"Guarumal":{"countryName":"Panama","stateName":"Veraguas Province","name":"Guarumal","lat":7.79404,"lon":-81.25904,"geocoding":{},"distantMaxMiles":5},"La Colorada":{"countryName":"Panama","stateName":"Veraguas Province","name":"La Colorada","lat":8.01319,"lon":-80.9859,"geocoding":{},"distantMaxMiles":5},"La Garceana":{"countryName":"Panama","stateName":"Veraguas Province","name":"La Garceana","lat":7.93708,"lon":-81.01643,"geocoding":{},"distantMaxMiles":5},"La Laguna":{"countryName":"Panama","stateName":"Veraguas Province","name":"La Laguna","lat":8.33882,"lon":-80.72949,"geocoding":{},"distantMaxMiles":5},"La Loma":{"countryName":"Panama","stateName":"Veraguas Province","name":"La Loma","lat":7.43708,"lon":-80.89118,"geocoding":{},"distantMaxMiles":5},"La Mesa":{"countryName":"Panama","stateName":"Veraguas Province","name":"La Mesa","lat":8.14707,"lon":-81.18114,"geocoding":{},"distantMaxMiles":5},"La Montañuela":{"countryName":"Panama","stateName":"Veraguas Province","name":"La Montañuela","lat":8.02487,"lon":-80.86325,"geocoding":{},"distantMaxMiles":5},"La Peña":{"countryName":"Panama","stateName":"Veraguas Province","name":"La Peña","lat":8.12784,"lon":-81.02693,"geocoding":{},"distantMaxMiles":5},"La Raya de Calobre":{"countryName":"Panama","stateName":"Veraguas Province","name":"La Raya de Calobre","lat":8.2163,"lon":-80.82729,"geocoding":{},"distantMaxMiles":5},"La Raya de Santa María":{"countryName":"Panama","stateName":"Veraguas Province","name":"La Raya de Santa María","lat":8.16429,"lon":-80.82143,"geocoding":{},"distantMaxMiles":5},"La Yeguada":{"countryName":"Panama","stateName":"Veraguas Province","name":"La Yeguada","lat":8.4306,"lon":-80.85752,"geocoding":{},"distantMaxMiles":5},"Las Guías Abajo":{"countryName":"Panama","stateName":"Veraguas Province","name":"Las Guías Abajo","lat":8.19451,"lon":-80.75494,"geocoding":{},"distantMaxMiles":5},"Las Huacas":{"countryName":"Panama","stateName":"Veraguas Province","name":"Las Huacas","lat":7.90167,"lon":-81.14056,"geocoding":{},"distantMaxMiles":5},"Las Palmas":{"countryName":"Panama","stateName":"Veraguas Province","name":"Las Palmas","lat":8.13564,"lon":-81.45674,"geocoding":{},"distantMaxMiles":5},"Leones Arriba":{"countryName":"Panama","stateName":"Veraguas Province","name":"Leones Arriba","lat":7.75415,"lon":-81.11556,"geocoding":{},"distantMaxMiles":5},"Llano Grande":{"countryName":"Panama","stateName":"Veraguas Province","name":"Llano Grande","lat":8.07473,"lon":-81.13626,"geocoding":{},"distantMaxMiles":5},"Lolá":{"countryName":"Panama","stateName":"Veraguas Province","name":"Lolá","lat":8.09326,"lon":-81.47163,"geocoding":{},"distantMaxMiles":5},"Los Algarrobos":{"countryName":"Panama","stateName":"Veraguas Province","name":"Los Algarrobos","lat":8.10898,"lon":-81.01355,"geocoding":{},"distantMaxMiles":5},"Los Castillos":{"countryName":"Panama","stateName":"Veraguas Province","name":"Los Castillos","lat":8.02326,"lon":-81.11941,"geocoding":{},"distantMaxMiles":5},"Los Higos":{"countryName":"Panama","stateName":"Veraguas Province","name":"Los Higos","lat":8.20553,"lon":-80.86022,"geocoding":{},"distantMaxMiles":5},"Mariato District":{"countryName":"Panama","stateName":"Veraguas Province","name":"Mariato District","lat":7.6781,"lon":-81.00409,"geocoding":{},"distantMaxMiles":5},"Monjarás":{"countryName":"Panama","stateName":"Veraguas Province","name":"Monjarás","lat":8.36942,"lon":-80.86667,"geocoding":{},"distantMaxMiles":5},"Montijo":{"countryName":"Panama","stateName":"Veraguas Province","name":"Montijo","lat":7.98858,"lon":-81.05643,"geocoding":{},"distantMaxMiles":5},"Piedras Gordas":{"countryName":"Panama","stateName":"Veraguas Province","name":"Piedras Gordas","lat":8.52419,"lon":-80.91152,"geocoding":{},"distantMaxMiles":5},"Ponuga":{"countryName":"Panama","stateName":"Veraguas Province","name":"Ponuga","lat":7.88245,"lon":-80.9788,"geocoding":{},"distantMaxMiles":5},"Puerto Vidal":{"countryName":"Panama","stateName":"Veraguas Province","name":"Puerto Vidal","lat":8.04834,"lon":-81.60499,"geocoding":{},"distantMaxMiles":5},"Quebrada de Oro":{"countryName":"Panama","stateName":"Veraguas Province","name":"Quebrada de Oro","lat":8.03548,"lon":-81.38692,"geocoding":{},"distantMaxMiles":5},"Rodeo Viejo":{"countryName":"Panama","stateName":"Veraguas Province","name":"Rodeo Viejo","lat":8.11205,"lon":-81.31684,"geocoding":{},"distantMaxMiles":5},"Río Grande":{"countryName":"Panama","stateName":"Veraguas Province","name":"Río Grande","lat":7.71907,"lon":-81.33423,"geocoding":{},"distantMaxMiles":5},"Río de Jesús":{"countryName":"Panama","stateName":"Veraguas Province","name":"Río de Jesús","lat":7.97882,"lon":-81.16162,"geocoding":{},"distantMaxMiles":5},"San Bartolo":{"countryName":"Panama","stateName":"Veraguas Province","name":"San Bartolo","lat":8.21063,"lon":-81.27572,"geocoding":{},"distantMaxMiles":5},"San Francisco":{"countryName":"Panama","stateName":"Veraguas Province","name":"San Francisco","lat":8.06667,"lon":-81.36667,"geocoding":{},"distantMaxMiles":5},"San José":{"countryName":"Panama","stateName":"Veraguas Province","name":"San José","lat":8.46704,"lon":-80.80514,"geocoding":{},"distantMaxMiles":5},"San Juan":{"countryName":"Panama","stateName":"Veraguas Province","name":"San Juan","lat":8.30311,"lon":-81.01575,"geocoding":{},"distantMaxMiles":5},"San Marcelo":{"countryName":"Panama","stateName":"Veraguas Province","name":"San Marcelo","lat":8.27252,"lon":-81.15988,"geocoding":{},"distantMaxMiles":5},"San Pedro del Espino":{"countryName":"Panama","stateName":"Veraguas Province","name":"San Pedro del Espino","lat":8.14011,"lon":-81.08663,"geocoding":{},"distantMaxMiles":5},"Santa Fé":{"countryName":"Panama","stateName":"Veraguas Province","name":"Santa Fé","lat":8.51063,"lon":-81.07802,"geocoding":{},"distantMaxMiles":5},"Santiago de Veraguas":{"countryName":"Panama","stateName":"Veraguas Province","name":"Santiago de Veraguas","lat":8.1,"lon":-80.98333,"geocoding":{},"distantMaxMiles":5},"Soná":{"countryName":"Panama","stateName":"Veraguas Province","name":"Soná","lat":8.01223,"lon":-81.32163,"geocoding":{},"distantMaxMiles":5},"Tebario":{"countryName":"Panama","stateName":"Veraguas Province","name":"Tebario","lat":7.71369,"lon":-80.97825,"geocoding":{},"distantMaxMiles":5},"Utirá":{"countryName":"Panama","stateName":"Veraguas Province","name":"Utirá","lat":7.97208,"lon":-81.21777,"geocoding":{},"distantMaxMiles":5},"Viguí":{"countryName":"Panama","stateName":"Veraguas Province","name":"Viguí","lat":8.33921,"lon":-81.49823,"geocoding":{},"distantMaxMiles":5},"Zapotillo":{"countryName":"Panama","stateName":"Veraguas Province","name":"Zapotillo","lat":8.00532,"lon":-81.50653,"geocoding":{},"distantMaxMiles":5}}}}}