{"name":"Switzerland","isoCode":"CH","lat":47,"lon":8,"geocoding":{},"distantMaxMiles":5,"states":{"Aargau":{"countryName":"Switzerland","name":"Aargau","isoCode":"AG","lat":47.3876664,"lon":8.2554295,"geocoding":{},"distantMaxMiles":5,"cities":{"Aarau":{"countryName":"Switzerland","stateName":"Aargau","name":"Aarau","lat":47.39254,"lon":8.04422,"geocoding":{},"distantMaxMiles":5},"Aarburg":{"countryName":"Switzerland","stateName":"Aargau","name":"Aarburg","lat":47.32067,"lon":7.89986,"geocoding":{},"distantMaxMiles":5},"Aristau":{"countryName":"Switzerland","stateName":"Aargau","name":"Aristau","lat":47.28692,"lon":8.36356,"geocoding":{},"distantMaxMiles":5},"Auw":{"countryName":"Switzerland","stateName":"Aargau","name":"Auw","lat":47.21082,"lon":8.36583,"geocoding":{},"distantMaxMiles":5},"Bad Zurzach":{"countryName":"Switzerland","stateName":"Aargau","name":"Bad Zurzach","lat":47.58764,"lon":8.29365,"geocoding":{},"distantMaxMiles":5},"Baden":{"countryName":"Switzerland","stateName":"Aargau","name":"Baden","lat":47.47333,"lon":8.30592,"geocoding":{},"distantMaxMiles":5},"Berikon":{"countryName":"Switzerland","stateName":"Aargau","name":"Berikon","lat":47.35155,"lon":8.37232,"geocoding":{},"distantMaxMiles":5},"Besenbüren":{"countryName":"Switzerland","stateName":"Aargau","name":"Besenbüren","lat":47.31439,"lon":8.34586,"geocoding":{},"distantMaxMiles":5},"Bezirk Aarau":{"countryName":"Switzerland","stateName":"Aargau","name":"Bezirk Aarau","lat":47.37706,"lon":8.05235,"geocoding":{},"distantMaxMiles":5},"Bezirk Baden":{"countryName":"Switzerland","stateName":"Aargau","name":"Bezirk Baden","lat":47.4566,"lon":8.30059,"geocoding":{},"distantMaxMiles":5},"Bezirk Bremgarten":{"countryName":"Switzerland","stateName":"Aargau","name":"Bezirk Bremgarten","lat":47.34927,"lon":8.33343,"geocoding":{},"distantMaxMiles":5},"Bezirk Brugg":{"countryName":"Switzerland","stateName":"Aargau","name":"Bezirk Brugg","lat":47.47776,"lon":8.17798,"geocoding":{},"distantMaxMiles":5},"Bezirk Kulm":{"countryName":"Switzerland","stateName":"Aargau","name":"Bezirk Kulm","lat":47.28757,"lon":8.13302,"geocoding":{},"distantMaxMiles":5},"Bezirk Laufenburg":{"countryName":"Switzerland","stateName":"Aargau","name":"Bezirk Laufenburg","lat":47.51844,"lon":8.03878,"geocoding":{},"distantMaxMiles":5},"Bezirk Lenzburg":{"countryName":"Switzerland","stateName":"Aargau","name":"Bezirk Lenzburg","lat":47.37184,"lon":8.1891,"geocoding":{},"distantMaxMiles":5},"Bezirk Muri":{"countryName":"Switzerland","stateName":"Aargau","name":"Bezirk Muri","lat":47.25233,"lon":8.35362,"geocoding":{},"distantMaxMiles":5},"Bezirk Rheinfelden":{"countryName":"Switzerland","stateName":"Aargau","name":"Bezirk Rheinfelden","lat":47.54048,"lon":7.83331,"geocoding":{},"distantMaxMiles":5},"Bezirk Zofingen":{"countryName":"Switzerland","stateName":"Aargau","name":"Bezirk Zofingen","lat":47.28864,"lon":7.95697,"geocoding":{},"distantMaxMiles":5},"Bezirk Zurzach":{"countryName":"Switzerland","stateName":"Aargau","name":"Bezirk Zurzach","lat":47.56182,"lon":8.2802,"geocoding":{},"distantMaxMiles":5},"Birmenstorf":{"countryName":"Switzerland","stateName":"Aargau","name":"Birmenstorf","lat":47.46152,"lon":8.24816,"geocoding":{},"distantMaxMiles":5},"Birr":{"countryName":"Switzerland","stateName":"Aargau","name":"Birr","lat":47.43432,"lon":8.20891,"geocoding":{},"distantMaxMiles":5},"Boniswil":{"countryName":"Switzerland","stateName":"Aargau","name":"Boniswil","lat":47.31725,"lon":8.18963,"geocoding":{},"distantMaxMiles":5},"Bremgarten":{"countryName":"Switzerland","stateName":"Aargau","name":"Bremgarten","lat":47.35109,"lon":8.34214,"geocoding":{},"distantMaxMiles":5},"Brittnau":{"countryName":"Switzerland","stateName":"Aargau","name":"Brittnau","lat":47.25954,"lon":7.94689,"geocoding":{},"distantMaxMiles":5},"Brugg":{"countryName":"Switzerland","stateName":"Aargau","name":"Brugg","lat":47.48096,"lon":8.20869,"geocoding":{},"distantMaxMiles":5},"Buchs":{"countryName":"Switzerland","stateName":"Aargau","name":"Buchs","lat":47.39358,"lon":8.08233,"geocoding":{},"distantMaxMiles":5},"Buttwil":{"countryName":"Switzerland","stateName":"Aargau","name":"Buttwil","lat":47.26828,"lon":8.31064,"geocoding":{},"distantMaxMiles":5},"Densbüren":{"countryName":"Switzerland","stateName":"Aargau","name":"Densbüren","lat":47.4526,"lon":8.0533,"geocoding":{},"distantMaxMiles":5},"Dottikon":{"countryName":"Switzerland","stateName":"Aargau","name":"Dottikon","lat":47.38437,"lon":8.23981,"geocoding":{},"distantMaxMiles":5},"Dürrenäsch":{"countryName":"Switzerland","stateName":"Aargau","name":"Dürrenäsch","lat":47.32094,"lon":8.15874,"geocoding":{},"distantMaxMiles":5},"Egliswil":{"countryName":"Switzerland","stateName":"Aargau","name":"Egliswil","lat":47.34922,"lon":8.18553,"geocoding":{},"distantMaxMiles":5},"Ehrendingen":{"countryName":"Switzerland","stateName":"Aargau","name":"Ehrendingen","lat":47.5025,"lon":8.34729,"geocoding":{},"distantMaxMiles":5},"Eiken":{"countryName":"Switzerland","stateName":"Aargau","name":"Eiken","lat":47.53361,"lon":7.98801,"geocoding":{},"distantMaxMiles":5},"Endingen":{"countryName":"Switzerland","stateName":"Aargau","name":"Endingen","lat":47.53742,"lon":8.29036,"geocoding":{},"distantMaxMiles":5},"Frick":{"countryName":"Switzerland","stateName":"Aargau","name":"Frick","lat":47.51169,"lon":8.02471,"geocoding":{},"distantMaxMiles":5},"Gebenstorf":{"countryName":"Switzerland","stateName":"Aargau","name":"Gebenstorf","lat":47.48136,"lon":8.23949,"geocoding":{},"distantMaxMiles":5},"Gipf-Oberfrick":{"countryName":"Switzerland","stateName":"Aargau","name":"Gipf-Oberfrick","lat":47.49875,"lon":8.00497,"geocoding":{},"distantMaxMiles":5},"Gontenschwil":{"countryName":"Switzerland","stateName":"Aargau","name":"Gontenschwil","lat":47.27166,"lon":8.14396,"geocoding":{},"distantMaxMiles":5},"Gränichen":{"countryName":"Switzerland","stateName":"Aargau","name":"Gränichen","lat":47.3593,"lon":8.10243,"geocoding":{},"distantMaxMiles":5},"Hausen":{"countryName":"Switzerland","stateName":"Aargau","name":"Hausen","lat":47.46396,"lon":8.20988,"geocoding":{},"distantMaxMiles":5},"Hägglingen":{"countryName":"Switzerland","stateName":"Aargau","name":"Hägglingen","lat":47.38851,"lon":8.25285,"geocoding":{},"distantMaxMiles":5},"Jonen":{"countryName":"Switzerland","stateName":"Aargau","name":"Jonen","lat":47.2975,"lon":8.39282,"geocoding":{},"distantMaxMiles":5},"Kaiseraugst":{"countryName":"Switzerland","stateName":"Aargau","name":"Kaiseraugst","lat":47.53966,"lon":7.72605,"geocoding":{},"distantMaxMiles":5},"Kaisten":{"countryName":"Switzerland","stateName":"Aargau","name":"Kaisten","lat":47.5416,"lon":8.04337,"geocoding":{},"distantMaxMiles":5},"Killwangen":{"countryName":"Switzerland","stateName":"Aargau","name":"Killwangen","lat":47.43223,"lon":8.35097,"geocoding":{},"distantMaxMiles":5},"Klingnau":{"countryName":"Switzerland","stateName":"Aargau","name":"Klingnau","lat":47.58361,"lon":8.2488,"geocoding":{},"distantMaxMiles":5},"Koblenz":{"countryName":"Switzerland","stateName":"Aargau","name":"Koblenz","lat":47.60972,"lon":8.2375,"geocoding":{},"distantMaxMiles":5},"Kölliken":{"countryName":"Switzerland","stateName":"Aargau","name":"Kölliken","lat":47.33337,"lon":8.02237,"geocoding":{},"distantMaxMiles":5},"Künten":{"countryName":"Switzerland","stateName":"Aargau","name":"Künten","lat":47.38887,"lon":8.33045,"geocoding":{},"distantMaxMiles":5},"Küttigen":{"countryName":"Switzerland","stateName":"Aargau","name":"Küttigen","lat":47.41484,"lon":8.04979,"geocoding":{},"distantMaxMiles":5},"Laufenburg":{"countryName":"Switzerland","stateName":"Aargau","name":"Laufenburg","lat":47.55985,"lon":8.06225,"geocoding":{},"distantMaxMiles":5},"Lauffohr (Brugg)":{"countryName":"Switzerland","stateName":"Aargau","name":"Lauffohr (Brugg)","lat":47.50154,"lon":8.23122,"geocoding":{},"distantMaxMiles":5},"Leibstadt":{"countryName":"Switzerland","stateName":"Aargau","name":"Leibstadt","lat":47.5879,"lon":8.17611,"geocoding":{},"distantMaxMiles":5},"Lenzburg":{"countryName":"Switzerland","stateName":"Aargau","name":"Lenzburg","lat":47.38853,"lon":8.17503,"geocoding":{},"distantMaxMiles":5},"Magden":{"countryName":"Switzerland","stateName":"Aargau","name":"Magden","lat":47.52868,"lon":7.81128,"geocoding":{},"distantMaxMiles":5},"Meisterschwanden":{"countryName":"Switzerland","stateName":"Aargau","name":"Meisterschwanden","lat":47.29489,"lon":8.22867,"geocoding":{},"distantMaxMiles":5},"Mellingen":{"countryName":"Switzerland","stateName":"Aargau","name":"Mellingen","lat":47.41903,"lon":8.27331,"geocoding":{},"distantMaxMiles":5},"Menziken":{"countryName":"Switzerland","stateName":"Aargau","name":"Menziken","lat":47.23965,"lon":8.18996,"geocoding":{},"distantMaxMiles":5},"Merenschwand":{"countryName":"Switzerland","stateName":"Aargau","name":"Merenschwand","lat":47.25944,"lon":8.37633,"geocoding":{},"distantMaxMiles":5},"Muhen":{"countryName":"Switzerland","stateName":"Aargau","name":"Muhen","lat":47.33578,"lon":8.05536,"geocoding":{},"distantMaxMiles":5},"Mumpf":{"countryName":"Switzerland","stateName":"Aargau","name":"Mumpf","lat":47.54563,"lon":7.92123,"geocoding":{},"distantMaxMiles":5},"Murgenthal":{"countryName":"Switzerland","stateName":"Aargau","name":"Murgenthal","lat":47.27145,"lon":7.83935,"geocoding":{},"distantMaxMiles":5},"Muri":{"countryName":"Switzerland","stateName":"Aargau","name":"Muri","lat":47.27428,"lon":8.33854,"geocoding":{},"distantMaxMiles":5},"Möhlin":{"countryName":"Switzerland","stateName":"Aargau","name":"Möhlin","lat":47.55915,"lon":7.84329,"geocoding":{},"distantMaxMiles":5},"Neuenhof":{"countryName":"Switzerland","stateName":"Aargau","name":"Neuenhof","lat":47.44985,"lon":8.32682,"geocoding":{},"distantMaxMiles":5},"Niederlenz":{"countryName":"Switzerland","stateName":"Aargau","name":"Niederlenz","lat":47.40079,"lon":8.1764,"geocoding":{},"distantMaxMiles":5},"Niederrohrdorf":{"countryName":"Switzerland","stateName":"Aargau","name":"Niederrohrdorf","lat":47.42409,"lon":8.30404,"geocoding":{},"distantMaxMiles":5},"Oberentfelden":{"countryName":"Switzerland","stateName":"Aargau","name":"Oberentfelden","lat":47.35639,"lon":8.04594,"geocoding":{},"distantMaxMiles":5},"Oberlunkhofen":{"countryName":"Switzerland","stateName":"Aargau","name":"Oberlunkhofen","lat":47.31244,"lon":8.39242,"geocoding":{},"distantMaxMiles":5},"Oberrohrdorf":{"countryName":"Switzerland","stateName":"Aargau","name":"Oberrohrdorf","lat":47.41833,"lon":8.31983,"geocoding":{},"distantMaxMiles":5},"Oberrüti":{"countryName":"Switzerland","stateName":"Aargau","name":"Oberrüti","lat":47.16673,"lon":8.39441,"geocoding":{},"distantMaxMiles":5},"Obersiggenthal":{"countryName":"Switzerland","stateName":"Aargau","name":"Obersiggenthal","lat":47.4875,"lon":8.29652,"geocoding":{},"distantMaxMiles":5},"Oftringen":{"countryName":"Switzerland","stateName":"Aargau","name":"Oftringen","lat":47.31382,"lon":7.92533,"geocoding":{},"distantMaxMiles":5},"Othmarsingen":{"countryName":"Switzerland","stateName":"Aargau","name":"Othmarsingen","lat":47.40125,"lon":8.21383,"geocoding":{},"distantMaxMiles":5},"Reinach":{"countryName":"Switzerland","stateName":"Aargau","name":"Reinach","lat":47.25732,"lon":8.18091,"geocoding":{},"distantMaxMiles":5},"Rheinfelden":{"countryName":"Switzerland","stateName":"Aargau","name":"Rheinfelden","lat":47.55437,"lon":7.79403,"geocoding":{},"distantMaxMiles":5},"Rothrist":{"countryName":"Switzerland","stateName":"Aargau","name":"Rothrist","lat":47.30508,"lon":7.89196,"geocoding":{},"distantMaxMiles":5},"Rudolfstetten":{"countryName":"Switzerland","stateName":"Aargau","name":"Rudolfstetten","lat":47.37101,"lon":8.38083,"geocoding":{},"distantMaxMiles":5},"Rupperswil":{"countryName":"Switzerland","stateName":"Aargau","name":"Rupperswil","lat":47.40131,"lon":8.12877,"geocoding":{},"distantMaxMiles":5},"Safenwil":{"countryName":"Switzerland","stateName":"Aargau","name":"Safenwil","lat":47.32163,"lon":7.98254,"geocoding":{},"distantMaxMiles":5},"Sarmenstorf":{"countryName":"Switzerland","stateName":"Aargau","name":"Sarmenstorf","lat":47.31109,"lon":8.2495,"geocoding":{},"distantMaxMiles":5},"Schafisheim":{"countryName":"Switzerland","stateName":"Aargau","name":"Schafisheim","lat":47.37664,"lon":8.14263,"geocoding":{},"distantMaxMiles":5},"Schinznach Bad":{"countryName":"Switzerland","stateName":"Aargau","name":"Schinznach Bad","lat":47.44992,"lon":8.16833,"geocoding":{},"distantMaxMiles":5},"Schinznach Dorf":{"countryName":"Switzerland","stateName":"Aargau","name":"Schinznach Dorf","lat":47.4465,"lon":8.14089,"geocoding":{},"distantMaxMiles":5},"Schwaderloch":{"countryName":"Switzerland","stateName":"Aargau","name":"Schwaderloch","lat":47.58541,"lon":8.14455,"geocoding":{},"distantMaxMiles":5},"Schöftland":{"countryName":"Switzerland","stateName":"Aargau","name":"Schöftland","lat":47.3059,"lon":8.05119,"geocoding":{},"distantMaxMiles":5},"Seengen":{"countryName":"Switzerland","stateName":"Aargau","name":"Seengen","lat":47.32503,"lon":8.20724,"geocoding":{},"distantMaxMiles":5},"Seon":{"countryName":"Switzerland","stateName":"Aargau","name":"Seon","lat":47.34848,"lon":8.16072,"geocoding":{},"distantMaxMiles":5},"Sins":{"countryName":"Switzerland","stateName":"Aargau","name":"Sins","lat":47.19296,"lon":8.39384,"geocoding":{},"distantMaxMiles":5},"Spreitenbach":{"countryName":"Switzerland","stateName":"Aargau","name":"Spreitenbach","lat":47.42285,"lon":8.36792,"geocoding":{},"distantMaxMiles":5},"Staffelbach":{"countryName":"Switzerland","stateName":"Aargau","name":"Staffelbach","lat":47.28395,"lon":8.04208,"geocoding":{},"distantMaxMiles":5},"Staufen":{"countryName":"Switzerland","stateName":"Aargau","name":"Staufen","lat":47.38197,"lon":8.16681,"geocoding":{},"distantMaxMiles":5},"Stein":{"countryName":"Switzerland","stateName":"Aargau","name":"Stein","lat":47.54403,"lon":7.95256,"geocoding":{},"distantMaxMiles":5},"Strengelbach":{"countryName":"Switzerland","stateName":"Aargau","name":"Strengelbach","lat":47.27917,"lon":7.92895,"geocoding":{},"distantMaxMiles":5},"Suhr":{"countryName":"Switzerland","stateName":"Aargau","name":"Suhr","lat":47.37172,"lon":8.07967,"geocoding":{},"distantMaxMiles":5},"Sulz":{"countryName":"Switzerland","stateName":"Aargau","name":"Sulz","lat":47.53602,"lon":8.09628,"geocoding":{},"distantMaxMiles":5},"Tegerfelden":{"countryName":"Switzerland","stateName":"Aargau","name":"Tegerfelden","lat":47.55809,"lon":8.28914,"geocoding":{},"distantMaxMiles":5},"Teufenthal":{"countryName":"Switzerland","stateName":"Aargau","name":"Teufenthal","lat":47.32896,"lon":8.11777,"geocoding":{},"distantMaxMiles":5},"Turgi":{"countryName":"Switzerland","stateName":"Aargau","name":"Turgi","lat":47.49201,"lon":8.25412,"geocoding":{},"distantMaxMiles":5},"Uerkheim":{"countryName":"Switzerland","stateName":"Aargau","name":"Uerkheim","lat":47.30353,"lon":8.0232,"geocoding":{},"distantMaxMiles":5},"Unterkulm":{"countryName":"Switzerland","stateName":"Aargau","name":"Unterkulm","lat":47.30998,"lon":8.11371,"geocoding":{},"distantMaxMiles":5},"Unterlunkhofen":{"countryName":"Switzerland","stateName":"Aargau","name":"Unterlunkhofen","lat":47.3212,"lon":8.38102,"geocoding":{},"distantMaxMiles":5},"Untersiggenthal":{"countryName":"Switzerland","stateName":"Aargau","name":"Untersiggenthal","lat":47.50213,"lon":8.25554,"geocoding":{},"distantMaxMiles":5},"Veltheim":{"countryName":"Switzerland","stateName":"Aargau","name":"Veltheim","lat":47.43796,"lon":8.14722,"geocoding":{},"distantMaxMiles":5},"Villigen":{"countryName":"Switzerland","stateName":"Aargau","name":"Villigen","lat":47.52682,"lon":8.21486,"geocoding":{},"distantMaxMiles":5},"Villmergen":{"countryName":"Switzerland","stateName":"Aargau","name":"Villmergen","lat":47.35009,"lon":8.24762,"geocoding":{},"distantMaxMiles":5},"Villnachern":{"countryName":"Switzerland","stateName":"Aargau","name":"Villnachern","lat":47.47098,"lon":8.15975,"geocoding":{},"distantMaxMiles":5},"Vordemwald":{"countryName":"Switzerland","stateName":"Aargau","name":"Vordemwald","lat":47.27585,"lon":7.90114,"geocoding":{},"distantMaxMiles":5},"Waltenschwil":{"countryName":"Switzerland","stateName":"Aargau","name":"Waltenschwil","lat":47.33339,"lon":8.29791,"geocoding":{},"distantMaxMiles":5},"Wegenstetten":{"countryName":"Switzerland","stateName":"Aargau","name":"Wegenstetten","lat":47.49797,"lon":7.93141,"geocoding":{},"distantMaxMiles":5},"Wettingen":{"countryName":"Switzerland","stateName":"Aargau","name":"Wettingen","lat":47.47049,"lon":8.31636,"geocoding":{},"distantMaxMiles":5},"Windisch":{"countryName":"Switzerland","stateName":"Aargau","name":"Windisch","lat":47.47899,"lon":8.21842,"geocoding":{},"distantMaxMiles":5},"Wittnau":{"countryName":"Switzerland","stateName":"Aargau","name":"Wittnau","lat":47.48139,"lon":7.97577,"geocoding":{},"distantMaxMiles":5},"Wohlen":{"countryName":"Switzerland","stateName":"Aargau","name":"Wohlen","lat":47.35066,"lon":8.27517,"geocoding":{},"distantMaxMiles":5},"Wölflinswil":{"countryName":"Switzerland","stateName":"Aargau","name":"Wölflinswil","lat":47.4607,"lon":7.99835,"geocoding":{},"distantMaxMiles":5},"Würenlingen":{"countryName":"Switzerland","stateName":"Aargau","name":"Würenlingen","lat":47.53356,"lon":8.25666,"geocoding":{},"distantMaxMiles":5},"Würenlos":{"countryName":"Switzerland","stateName":"Aargau","name":"Würenlos","lat":47.44205,"lon":8.36261,"geocoding":{},"distantMaxMiles":5},"Zofingen":{"countryName":"Switzerland","stateName":"Aargau","name":"Zofingen","lat":47.28779,"lon":7.94586,"geocoding":{},"distantMaxMiles":5}}},"Appenzell Ausserrhoden":{"countryName":"Switzerland","name":"Appenzell Ausserrhoden","isoCode":"AR","lat":47.366481,"lon":9.3000916,"geocoding":{},"distantMaxMiles":5,"cities":{"Bezirk Hinterland":{"countryName":"Switzerland","stateName":"Appenzell Ausserrhoden","name":"Bezirk Hinterland","lat":47.3647,"lon":9.2735,"geocoding":{},"distantMaxMiles":5},"Bezirk Mittelland":{"countryName":"Switzerland","stateName":"Appenzell Ausserrhoden","name":"Bezirk Mittelland","lat":47.377,"lon":9.43469,"geocoding":{},"distantMaxMiles":5},"Bezirk Vorderland":{"countryName":"Switzerland","stateName":"Appenzell Ausserrhoden","name":"Bezirk Vorderland","lat":47.44167,"lon":9.53869,"geocoding":{},"distantMaxMiles":5},"Bühler":{"countryName":"Switzerland","stateName":"Appenzell Ausserrhoden","name":"Bühler","lat":47.37348,"lon":9.42507,"geocoding":{},"distantMaxMiles":5},"Gais":{"countryName":"Switzerland","stateName":"Appenzell Ausserrhoden","name":"Gais","lat":47.3615,"lon":9.45356,"geocoding":{},"distantMaxMiles":5},"Heiden":{"countryName":"Switzerland","stateName":"Appenzell Ausserrhoden","name":"Heiden","lat":47.44255,"lon":9.53293,"geocoding":{},"distantMaxMiles":5},"Herisau":{"countryName":"Switzerland","stateName":"Appenzell Ausserrhoden","name":"Herisau","lat":47.38615,"lon":9.27916,"geocoding":{},"distantMaxMiles":5},"Rehetobel":{"countryName":"Switzerland","stateName":"Appenzell Ausserrhoden","name":"Rehetobel","lat":47.42611,"lon":9.483,"geocoding":{},"distantMaxMiles":5},"Schwellbrunn":{"countryName":"Switzerland","stateName":"Appenzell Ausserrhoden","name":"Schwellbrunn","lat":47.35255,"lon":9.24894,"geocoding":{},"distantMaxMiles":5},"Speicher":{"countryName":"Switzerland","stateName":"Appenzell Ausserrhoden","name":"Speicher","lat":47.4109,"lon":9.44335,"geocoding":{},"distantMaxMiles":5},"Teufen":{"countryName":"Switzerland","stateName":"Appenzell Ausserrhoden","name":"Teufen","lat":47.3908,"lon":9.38644,"geocoding":{},"distantMaxMiles":5},"Trogen":{"countryName":"Switzerland","stateName":"Appenzell Ausserrhoden","name":"Trogen","lat":47.40782,"lon":9.46498,"geocoding":{},"distantMaxMiles":5},"Urnäsch":{"countryName":"Switzerland","stateName":"Appenzell Ausserrhoden","name":"Urnäsch","lat":47.31669,"lon":9.2795,"geocoding":{},"distantMaxMiles":5},"Waldstatt":{"countryName":"Switzerland","stateName":"Appenzell Ausserrhoden","name":"Waldstatt","lat":47.35627,"lon":9.28345,"geocoding":{},"distantMaxMiles":5},"Walzenhausen":{"countryName":"Switzerland","stateName":"Appenzell Ausserrhoden","name":"Walzenhausen","lat":47.44867,"lon":9.60495,"geocoding":{},"distantMaxMiles":5}}},"Appenzell Innerrhoden":{"countryName":"Switzerland","name":"Appenzell Innerrhoden","isoCode":"AI","lat":47.3161925,"lon":9.4316573,"geocoding":{},"distantMaxMiles":5,"cities":{"Appenzell":{"countryName":"Switzerland","stateName":"Appenzell Innerrhoden","name":"Appenzell","lat":47.33103,"lon":9.40996,"geocoding":{},"distantMaxMiles":5},"Gonten":{"countryName":"Switzerland","stateName":"Appenzell Innerrhoden","name":"Gonten","lat":47.32725,"lon":9.34705,"geocoding":{},"distantMaxMiles":5},"Haslen":{"countryName":"Switzerland","stateName":"Appenzell Innerrhoden","name":"Haslen","lat":47.36931,"lon":9.36752,"geocoding":{},"distantMaxMiles":5},"Oberegg":{"countryName":"Switzerland","stateName":"Appenzell Innerrhoden","name":"Oberegg","lat":47.42531,"lon":9.55134,"geocoding":{},"distantMaxMiles":5}}},"Basel-Land":{"countryName":"Switzerland","name":"Basel-Land","isoCode":"BL","lat":47.4418122,"lon":7.7644002,"geocoding":{},"distantMaxMiles":5,"cities":{"Aesch":{"countryName":"Switzerland","stateName":"Basel-Land","name":"Aesch","lat":47.47104,"lon":7.5973,"geocoding":{},"distantMaxMiles":5},"Allschwil":{"countryName":"Switzerland","stateName":"Basel-Land","name":"Allschwil","lat":47.55074,"lon":7.53599,"geocoding":{},"distantMaxMiles":5},"Arisdorf":{"countryName":"Switzerland","stateName":"Basel-Land","name":"Arisdorf","lat":47.51323,"lon":7.76515,"geocoding":{},"distantMaxMiles":5},"Arlesheim":{"countryName":"Switzerland","stateName":"Basel-Land","name":"Arlesheim","lat":47.49412,"lon":7.61979,"geocoding":{},"distantMaxMiles":5},"Bezirk Arlesheim":{"countryName":"Switzerland","stateName":"Basel-Land","name":"Bezirk Arlesheim","lat":47.51668,"lon":7.58733,"geocoding":{},"distantMaxMiles":5},"Bezirk Laufen":{"countryName":"Switzerland","stateName":"Basel-Land","name":"Bezirk Laufen","lat":47.42324,"lon":7.4875,"geocoding":{},"distantMaxMiles":5},"Bezirk Liestal":{"countryName":"Switzerland","stateName":"Basel-Land","name":"Bezirk Liestal","lat":47.48124,"lon":7.72714,"geocoding":{},"distantMaxMiles":5},"Bezirk Sissach":{"countryName":"Switzerland","stateName":"Basel-Land","name":"Bezirk Sissach","lat":47.44237,"lon":7.84871,"geocoding":{},"distantMaxMiles":5},"Bezirk Waldenburg":{"countryName":"Switzerland","stateName":"Basel-Land","name":"Bezirk Waldenburg","lat":47.39367,"lon":7.74137,"geocoding":{},"distantMaxMiles":5},"Binningen":{"countryName":"Switzerland","stateName":"Basel-Land","name":"Binningen","lat":47.54021,"lon":7.56932,"geocoding":{},"distantMaxMiles":5},"Birsfelden":{"countryName":"Switzerland","stateName":"Basel-Land","name":"Birsfelden","lat":47.5529,"lon":7.62322,"geocoding":{},"distantMaxMiles":5},"Bottmingen":{"countryName":"Switzerland","stateName":"Basel-Land","name":"Bottmingen","lat":47.52343,"lon":7.57211,"geocoding":{},"distantMaxMiles":5},"Brislach":{"countryName":"Switzerland","stateName":"Basel-Land","name":"Brislach","lat":47.41763,"lon":7.5434,"geocoding":{},"distantMaxMiles":5},"Bubendorf":{"countryName":"Switzerland","stateName":"Basel-Land","name":"Bubendorf","lat":47.44586,"lon":7.73759,"geocoding":{},"distantMaxMiles":5},"Buus":{"countryName":"Switzerland","stateName":"Basel-Land","name":"Buus","lat":47.50635,"lon":7.86414,"geocoding":{},"distantMaxMiles":5},"Diegten":{"countryName":"Switzerland","stateName":"Basel-Land","name":"Diegten","lat":47.4138,"lon":7.81085,"geocoding":{},"distantMaxMiles":5},"Ettingen":{"countryName":"Switzerland","stateName":"Basel-Land","name":"Ettingen","lat":47.48225,"lon":7.54654,"geocoding":{},"distantMaxMiles":5},"Frenkendorf":{"countryName":"Switzerland","stateName":"Basel-Land","name":"Frenkendorf","lat":47.50686,"lon":7.71648,"geocoding":{},"distantMaxMiles":5},"Füllinsdorf":{"countryName":"Switzerland","stateName":"Basel-Land","name":"Füllinsdorf","lat":47.50688,"lon":7.73129,"geocoding":{},"distantMaxMiles":5},"Gelterkinden":{"countryName":"Switzerland","stateName":"Basel-Land","name":"Gelterkinden","lat":47.46497,"lon":7.85174,"geocoding":{},"distantMaxMiles":5},"Grellingen":{"countryName":"Switzerland","stateName":"Basel-Land","name":"Grellingen","lat":47.44231,"lon":7.58906,"geocoding":{},"distantMaxMiles":5},"Hölstein":{"countryName":"Switzerland","stateName":"Basel-Land","name":"Hölstein","lat":47.4229,"lon":7.77041,"geocoding":{},"distantMaxMiles":5},"Itingen":{"countryName":"Switzerland","stateName":"Basel-Land","name":"Itingen","lat":47.46651,"lon":7.78502,"geocoding":{},"distantMaxMiles":5},"Langenbruck":{"countryName":"Switzerland","stateName":"Basel-Land","name":"Langenbruck","lat":47.34917,"lon":7.76802,"geocoding":{},"distantMaxMiles":5},"Laufen":{"countryName":"Switzerland","stateName":"Basel-Land","name":"Laufen","lat":47.42193,"lon":7.49946,"geocoding":{},"distantMaxMiles":5},"Lausen":{"countryName":"Switzerland","stateName":"Basel-Land","name":"Lausen","lat":47.47139,"lon":7.7603,"geocoding":{},"distantMaxMiles":5},"Liesberg":{"countryName":"Switzerland","stateName":"Basel-Land","name":"Liesberg","lat":47.40398,"lon":7.42787,"geocoding":{},"distantMaxMiles":5},"Liestal":{"countryName":"Switzerland","stateName":"Basel-Land","name":"Liestal","lat":47.48455,"lon":7.73446,"geocoding":{},"distantMaxMiles":5},"Läufelfingen":{"countryName":"Switzerland","stateName":"Basel-Land","name":"Läufelfingen","lat":47.39457,"lon":7.85578,"geocoding":{},"distantMaxMiles":5},"Muttenz":{"countryName":"Switzerland","stateName":"Basel-Land","name":"Muttenz","lat":47.52271,"lon":7.64511,"geocoding":{},"distantMaxMiles":5},"Münchenstein":{"countryName":"Switzerland","stateName":"Basel-Land","name":"Münchenstein","lat":47.51848,"lon":7.60966,"geocoding":{},"distantMaxMiles":5},"Oberdorf":{"countryName":"Switzerland","stateName":"Basel-Land","name":"Oberdorf","lat":47.39353,"lon":7.75169,"geocoding":{},"distantMaxMiles":5},"Oberwil":{"countryName":"Switzerland","stateName":"Basel-Land","name":"Oberwil","lat":47.51407,"lon":7.55786,"geocoding":{},"distantMaxMiles":5},"Ormalingen":{"countryName":"Switzerland","stateName":"Basel-Land","name":"Ormalingen","lat":47.46936,"lon":7.87248,"geocoding":{},"distantMaxMiles":5},"Pfeffingen":{"countryName":"Switzerland","stateName":"Basel-Land","name":"Pfeffingen","lat":47.45984,"lon":7.58975,"geocoding":{},"distantMaxMiles":5},"Pratteln":{"countryName":"Switzerland","stateName":"Basel-Land","name":"Pratteln","lat":47.52071,"lon":7.69356,"geocoding":{},"distantMaxMiles":5},"Reigoldswil":{"countryName":"Switzerland","stateName":"Basel-Land","name":"Reigoldswil","lat":47.39824,"lon":7.68718,"geocoding":{},"distantMaxMiles":5},"Röschenz":{"countryName":"Switzerland","stateName":"Basel-Land","name":"Röschenz","lat":47.42366,"lon":7.48024,"geocoding":{},"distantMaxMiles":5},"Schönenbuch":{"countryName":"Switzerland","stateName":"Basel-Land","name":"Schönenbuch","lat":47.53853,"lon":7.50572,"geocoding":{},"distantMaxMiles":5},"Seltisberg":{"countryName":"Switzerland","stateName":"Basel-Land","name":"Seltisberg","lat":47.46249,"lon":7.72039,"geocoding":{},"distantMaxMiles":5},"Sissach":{"countryName":"Switzerland","stateName":"Basel-Land","name":"Sissach","lat":47.46408,"lon":7.80888,"geocoding":{},"distantMaxMiles":5},"Therwil":{"countryName":"Switzerland","stateName":"Basel-Land","name":"Therwil","lat":47.49941,"lon":7.55669,"geocoding":{},"distantMaxMiles":5},"Wahlen":{"countryName":"Switzerland","stateName":"Basel-Land","name":"Wahlen","lat":47.40226,"lon":7.51511,"geocoding":{},"distantMaxMiles":5},"Waldenburg":{"countryName":"Switzerland","stateName":"Basel-Land","name":"Waldenburg","lat":47.38333,"lon":7.75,"geocoding":{},"distantMaxMiles":5},"Zunzgen":{"countryName":"Switzerland","stateName":"Basel-Land","name":"Zunzgen","lat":47.44925,"lon":7.80789,"geocoding":{},"distantMaxMiles":5},"Zwingen":{"countryName":"Switzerland","stateName":"Basel-Land","name":"Zwingen","lat":47.43825,"lon":7.53027,"geocoding":{},"distantMaxMiles":5}}},"Basel-Stadt":{"countryName":"Switzerland","name":"Basel-Stadt","isoCode":"BS","lat":47.566667,"lon":7.6,"geocoding":{},"distantMaxMiles":5,"cities":{"Basel":{"countryName":"Switzerland","stateName":"Basel-Stadt","name":"Basel","lat":47.554722,"lon":7.590556,"geocoding":{},"distantMaxMiles":5},"Bettingen":{"countryName":"Switzerland","stateName":"Basel-Stadt","name":"Bettingen","lat":47.571389,"lon":7.664167,"geocoding":{},"distantMaxMiles":5},"Riehen":{"countryName":"Switzerland","stateName":"Basel-Stadt","name":"Riehen","lat":47.583333,"lon":7.633333,"geocoding":{},"distantMaxMiles":5}}},"Bern":{"countryName":"Switzerland","name":"Bern","isoCode":"BE","lat":46.7988621,"lon":7.7080701,"geocoding":{},"distantMaxMiles":5,"cities":{"Aarberg":{"countryName":"Switzerland","stateName":"Bern","name":"Aarberg","lat":47.04439,"lon":7.27578,"geocoding":{},"distantMaxMiles":5},"Aarwangen":{"countryName":"Switzerland","stateName":"Bern","name":"Aarwangen","lat":47.23845,"lon":7.76854,"geocoding":{},"distantMaxMiles":5},"Adelboden":{"countryName":"Switzerland","stateName":"Bern","name":"Adelboden","lat":46.49142,"lon":7.56031,"geocoding":{},"distantMaxMiles":5},"Aeschi b. Spiez":{"countryName":"Switzerland","stateName":"Bern","name":"Aeschi b. Spiez","lat":46.65848,"lon":7.6965,"geocoding":{},"distantMaxMiles":5},"Arch":{"countryName":"Switzerland","stateName":"Bern","name":"Arch","lat":47.16533,"lon":7.43139,"geocoding":{},"distantMaxMiles":5},"Attiswil":{"countryName":"Switzerland","stateName":"Bern","name":"Attiswil","lat":47.24673,"lon":7.61353,"geocoding":{},"distantMaxMiles":5},"Beatenberg":{"countryName":"Switzerland","stateName":"Bern","name":"Beatenberg","lat":46.69896,"lon":7.79428,"geocoding":{},"distantMaxMiles":5},"Bellmund":{"countryName":"Switzerland","stateName":"Bern","name":"Bellmund","lat":47.10852,"lon":7.24608,"geocoding":{},"distantMaxMiles":5},"Belp":{"countryName":"Switzerland","stateName":"Bern","name":"Belp","lat":46.89129,"lon":7.49825,"geocoding":{},"distantMaxMiles":5},"Bern":{"countryName":"Switzerland","stateName":"Bern","name":"Bern","lat":46.94809,"lon":7.44744,"geocoding":{},"distantMaxMiles":5},"Bern-Mittelland District":{"countryName":"Switzerland","stateName":"Bern","name":"Bern-Mittelland District","lat":46.92526,"lon":7.49024,"geocoding":{},"distantMaxMiles":5},"Biel/Bienne":{"countryName":"Switzerland","stateName":"Bern","name":"Biel/Bienne","lat":47.13713,"lon":7.24608,"geocoding":{},"distantMaxMiles":5},"Biel/Bienne District":{"countryName":"Switzerland","stateName":"Bern","name":"Biel/Bienne District","lat":47.12725,"lon":7.26174,"geocoding":{},"distantMaxMiles":5},"Biglen":{"countryName":"Switzerland","stateName":"Bern","name":"Biglen","lat":46.92629,"lon":7.62508,"geocoding":{},"distantMaxMiles":5},"Blumenstein":{"countryName":"Switzerland","stateName":"Bern","name":"Blumenstein","lat":46.7421,"lon":7.52136,"geocoding":{},"distantMaxMiles":5},"Bolligen":{"countryName":"Switzerland","stateName":"Bern","name":"Bolligen","lat":46.9751,"lon":7.49697,"geocoding":{},"distantMaxMiles":5},"Boltigen":{"countryName":"Switzerland","stateName":"Bern","name":"Boltigen","lat":46.62847,"lon":7.39054,"geocoding":{},"distantMaxMiles":5},"Bowil":{"countryName":"Switzerland","stateName":"Bern","name":"Bowil","lat":46.89304,"lon":7.69757,"geocoding":{},"distantMaxMiles":5},"Brienz":{"countryName":"Switzerland","stateName":"Bern","name":"Brienz","lat":46.7545,"lon":8.03847,"geocoding":{},"distantMaxMiles":5},"Brügg":{"countryName":"Switzerland","stateName":"Bern","name":"Brügg","lat":47.1237,"lon":7.27887,"geocoding":{},"distantMaxMiles":5},"Buchholterberg":{"countryName":"Switzerland","stateName":"Bern","name":"Buchholterberg","lat":46.81351,"lon":7.67463,"geocoding":{},"distantMaxMiles":5},"Burgdorf":{"countryName":"Switzerland","stateName":"Bern","name":"Burgdorf","lat":47.05901,"lon":7.62786,"geocoding":{},"distantMaxMiles":5},"Burgistein":{"countryName":"Switzerland","stateName":"Bern","name":"Burgistein","lat":46.78464,"lon":7.49988,"geocoding":{},"distantMaxMiles":5},"Bäriswil":{"countryName":"Switzerland","stateName":"Bern","name":"Bäriswil","lat":47.01947,"lon":7.52709,"geocoding":{},"distantMaxMiles":5},"Bätterkinden":{"countryName":"Switzerland","stateName":"Bern","name":"Bätterkinden","lat":47.13164,"lon":7.53817,"geocoding":{},"distantMaxMiles":5},"Bévilard":{"countryName":"Switzerland","stateName":"Bern","name":"Bévilard","lat":47.23711,"lon":7.28325,"geocoding":{},"distantMaxMiles":5},"Bönigen":{"countryName":"Switzerland","stateName":"Bern","name":"Bönigen","lat":46.68736,"lon":7.8935,"geocoding":{},"distantMaxMiles":5},"Corgémont":{"countryName":"Switzerland","stateName":"Bern","name":"Corgémont","lat":47.19457,"lon":7.14517,"geocoding":{},"distantMaxMiles":5},"Court":{"countryName":"Switzerland","stateName":"Bern","name":"Court","lat":47.23956,"lon":7.33655,"geocoding":{},"distantMaxMiles":5},"Courtelary":{"countryName":"Switzerland","stateName":"Bern","name":"Courtelary","lat":47.17822,"lon":7.07236,"geocoding":{},"distantMaxMiles":5},"Diemtigen":{"countryName":"Switzerland","stateName":"Bern","name":"Diemtigen","lat":46.64928,"lon":7.56477,"geocoding":{},"distantMaxMiles":5},"Därligen":{"countryName":"Switzerland","stateName":"Bern","name":"Därligen","lat":46.66175,"lon":7.80808,"geocoding":{},"distantMaxMiles":5},"Dürrenroth":{"countryName":"Switzerland","stateName":"Bern","name":"Dürrenroth","lat":47.08953,"lon":7.7917,"geocoding":{},"distantMaxMiles":5},"Eggiwil":{"countryName":"Switzerland","stateName":"Bern","name":"Eggiwil","lat":46.87575,"lon":7.79567,"geocoding":{},"distantMaxMiles":5},"Emmental District":{"countryName":"Switzerland","stateName":"Bern","name":"Emmental District","lat":47.04425,"lon":7.66176,"geocoding":{},"distantMaxMiles":5},"Eriswil":{"countryName":"Switzerland","stateName":"Bern","name":"Eriswil","lat":47.07816,"lon":7.85149,"geocoding":{},"distantMaxMiles":5},"Erlach":{"countryName":"Switzerland","stateName":"Bern","name":"Erlach","lat":47.0422,"lon":7.09728,"geocoding":{},"distantMaxMiles":5},"Erlenbach im Simmental":{"countryName":"Switzerland","stateName":"Bern","name":"Erlenbach im Simmental","lat":46.66021,"lon":7.55445,"geocoding":{},"distantMaxMiles":5},"Ersigen":{"countryName":"Switzerland","stateName":"Bern","name":"Ersigen","lat":47.09368,"lon":7.59507,"geocoding":{},"distantMaxMiles":5},"Evilard":{"countryName":"Switzerland","stateName":"Bern","name":"Evilard","lat":47.15046,"lon":7.23895,"geocoding":{},"distantMaxMiles":5},"Ferenbalm":{"countryName":"Switzerland","stateName":"Bern","name":"Ferenbalm","lat":46.9488,"lon":7.21124,"geocoding":{},"distantMaxMiles":5},"Fraubrunnen":{"countryName":"Switzerland","stateName":"Bern","name":"Fraubrunnen","lat":47.0862,"lon":7.52727,"geocoding":{},"distantMaxMiles":5},"Frauenkappelen":{"countryName":"Switzerland","stateName":"Bern","name":"Frauenkappelen","lat":46.95425,"lon":7.33835,"geocoding":{},"distantMaxMiles":5},"Frutigen":{"countryName":"Switzerland","stateName":"Bern","name":"Frutigen","lat":46.58723,"lon":7.64945,"geocoding":{},"distantMaxMiles":5},"Frutigen-Niedersimmental District":{"countryName":"Switzerland","stateName":"Bern","name":"Frutigen-Niedersimmental District","lat":46.60236,"lon":7.62292,"geocoding":{},"distantMaxMiles":5},"Grindelwald":{"countryName":"Switzerland","stateName":"Bern","name":"Grindelwald","lat":46.62396,"lon":8.03601,"geocoding":{},"distantMaxMiles":5},"Grossaffoltern":{"countryName":"Switzerland","stateName":"Bern","name":"Grossaffoltern","lat":47.06534,"lon":7.35689,"geocoding":{},"distantMaxMiles":5},"Gstaad":{"countryName":"Switzerland","stateName":"Bern","name":"Gstaad","lat":46.47215,"lon":7.28685,"geocoding":{},"distantMaxMiles":5},"Guggisberg":{"countryName":"Switzerland","stateName":"Bern","name":"Guggisberg","lat":46.76756,"lon":7.32946,"geocoding":{},"distantMaxMiles":5},"Heimberg":{"countryName":"Switzerland","stateName":"Bern","name":"Heimberg","lat":46.79482,"lon":7.60433,"geocoding":{},"distantMaxMiles":5},"Heimiswil":{"countryName":"Switzerland","stateName":"Bern","name":"Heimiswil","lat":47.06755,"lon":7.66665,"geocoding":{},"distantMaxMiles":5},"Hermiswil":{"countryName":"Switzerland","stateName":"Bern","name":"Hermiswil","lat":46.83125,"lon":7.47775,"geocoding":{},"distantMaxMiles":5},"Herzogenbuchsee":{"countryName":"Switzerland","stateName":"Bern","name":"Herzogenbuchsee","lat":47.18795,"lon":7.7062,"geocoding":{},"distantMaxMiles":5},"Hilterfingen":{"countryName":"Switzerland","stateName":"Bern","name":"Hilterfingen","lat":46.73521,"lon":7.66185,"geocoding":{},"distantMaxMiles":5},"Hindelbank":{"countryName":"Switzerland","stateName":"Bern","name":"Hindelbank","lat":47.0427,"lon":7.54143,"geocoding":{},"distantMaxMiles":5},"Huttwil":{"countryName":"Switzerland","stateName":"Bern","name":"Huttwil","lat":47.11502,"lon":7.86209,"geocoding":{},"distantMaxMiles":5},"Ins":{"countryName":"Switzerland","stateName":"Bern","name":"Ins","lat":47.00584,"lon":7.10609,"geocoding":{},"distantMaxMiles":5},"Interlaken":{"countryName":"Switzerland","stateName":"Bern","name":"Interlaken","lat":46.68387,"lon":7.86638,"geocoding":{},"distantMaxMiles":5},"Interlaken-Oberhasli District":{"countryName":"Switzerland","stateName":"Bern","name":"Interlaken-Oberhasli District","lat":46.68931,"lon":7.98869,"geocoding":{},"distantMaxMiles":5},"Jegenstorf":{"countryName":"Switzerland","stateName":"Bern","name":"Jegenstorf","lat":47.04802,"lon":7.50787,"geocoding":{},"distantMaxMiles":5},"Jura bernois":{"countryName":"Switzerland","stateName":"Bern","name":"Jura bernois","lat":47.21892,"lon":7.21981,"geocoding":{},"distantMaxMiles":5},"Kallnach":{"countryName":"Switzerland","stateName":"Bern","name":"Kallnach","lat":47.02032,"lon":7.23545,"geocoding":{},"distantMaxMiles":5},"Kandersteg":{"countryName":"Switzerland","stateName":"Bern","name":"Kandersteg","lat":46.49467,"lon":7.67326,"geocoding":{},"distantMaxMiles":5},"Kappelen":{"countryName":"Switzerland","stateName":"Bern","name":"Kappelen","lat":47.06015,"lon":7.2686,"geocoding":{},"distantMaxMiles":5},"Kehrsatz":{"countryName":"Switzerland","stateName":"Bern","name":"Kehrsatz","lat":46.91035,"lon":7.47096,"geocoding":{},"distantMaxMiles":5},"Kirchberg":{"countryName":"Switzerland","stateName":"Bern","name":"Kirchberg","lat":47.08538,"lon":7.58288,"geocoding":{},"distantMaxMiles":5},"Kirchlindach":{"countryName":"Switzerland","stateName":"Bern","name":"Kirchlindach","lat":46.99965,"lon":7.41735,"geocoding":{},"distantMaxMiles":5},"Konolfingen":{"countryName":"Switzerland","stateName":"Bern","name":"Konolfingen","lat":46.87909,"lon":7.62013,"geocoding":{},"distantMaxMiles":5},"Koppigen":{"countryName":"Switzerland","stateName":"Bern","name":"Koppigen","lat":47.13125,"lon":7.60525,"geocoding":{},"distantMaxMiles":5},"Krauchthal":{"countryName":"Switzerland","stateName":"Bern","name":"Krauchthal","lat":47.00964,"lon":7.5664,"geocoding":{},"distantMaxMiles":5},"Köniz":{"countryName":"Switzerland","stateName":"Bern","name":"Köniz","lat":46.92436,"lon":7.41457,"geocoding":{},"distantMaxMiles":5},"La Neuveville":{"countryName":"Switzerland","stateName":"Bern","name":"La Neuveville","lat":47.06592,"lon":7.09717,"geocoding":{},"distantMaxMiles":5},"Langenthal":{"countryName":"Switzerland","stateName":"Bern","name":"Langenthal","lat":47.21526,"lon":7.79607,"geocoding":{},"distantMaxMiles":5},"Langnau":{"countryName":"Switzerland","stateName":"Bern","name":"Langnau","lat":46.93936,"lon":7.78738,"geocoding":{},"distantMaxMiles":5},"Laupen":{"countryName":"Switzerland","stateName":"Bern","name":"Laupen","lat":46.90214,"lon":7.23973,"geocoding":{},"distantMaxMiles":5},"Lauperswil":{"countryName":"Switzerland","stateName":"Bern","name":"Lauperswil","lat":46.96564,"lon":7.74214,"geocoding":{},"distantMaxMiles":5},"Lauterbrunnen":{"countryName":"Switzerland","stateName":"Bern","name":"Lauterbrunnen","lat":46.59307,"lon":7.90938,"geocoding":{},"distantMaxMiles":5},"Lengnau":{"countryName":"Switzerland","stateName":"Bern","name":"Lengnau","lat":47.18155,"lon":7.36814,"geocoding":{},"distantMaxMiles":5},"Lenk":{"countryName":"Switzerland","stateName":"Bern","name":"Lenk","lat":46.45826,"lon":7.44298,"geocoding":{},"distantMaxMiles":5},"Leuzigen":{"countryName":"Switzerland","stateName":"Bern","name":"Leuzigen","lat":47.17458,"lon":7.45775,"geocoding":{},"distantMaxMiles":5},"Linden":{"countryName":"Switzerland","stateName":"Bern","name":"Linden","lat":46.8469,"lon":7.67831,"geocoding":{},"distantMaxMiles":5},"Lotzwil":{"countryName":"Switzerland","stateName":"Bern","name":"Lotzwil","lat":47.19135,"lon":7.79102,"geocoding":{},"distantMaxMiles":5},"Lyss":{"countryName":"Switzerland","stateName":"Bern","name":"Lyss","lat":47.0741,"lon":7.30655,"geocoding":{},"distantMaxMiles":5},"Lyssach":{"countryName":"Switzerland","stateName":"Bern","name":"Lyssach","lat":47.06445,"lon":7.58228,"geocoding":{},"distantMaxMiles":5},"Lützelflüh":{"countryName":"Switzerland","stateName":"Bern","name":"Lützelflüh","lat":47.00757,"lon":7.69165,"geocoding":{},"distantMaxMiles":5},"Madiswil":{"countryName":"Switzerland","stateName":"Bern","name":"Madiswil","lat":47.16463,"lon":7.79858,"geocoding":{},"distantMaxMiles":5},"Malleray":{"countryName":"Switzerland","stateName":"Bern","name":"Malleray","lat":47.23839,"lon":7.27286,"geocoding":{},"distantMaxMiles":5},"Matten":{"countryName":"Switzerland","stateName":"Bern","name":"Matten","lat":46.67833,"lon":7.86889,"geocoding":{},"distantMaxMiles":5},"Meinisberg":{"countryName":"Switzerland","stateName":"Bern","name":"Meinisberg","lat":47.15965,"lon":7.34801,"geocoding":{},"distantMaxMiles":5},"Meiringen":{"countryName":"Switzerland","stateName":"Bern","name":"Meiringen","lat":46.72709,"lon":8.1872,"geocoding":{},"distantMaxMiles":5},"Melchnau":{"countryName":"Switzerland","stateName":"Bern","name":"Melchnau","lat":47.18213,"lon":7.85128,"geocoding":{},"distantMaxMiles":5},"Moutier":{"countryName":"Switzerland","stateName":"Bern","name":"Moutier","lat":47.27818,"lon":7.36951,"geocoding":{},"distantMaxMiles":5},"Muri":{"countryName":"Switzerland","stateName":"Bern","name":"Muri","lat":46.93122,"lon":7.48658,"geocoding":{},"distantMaxMiles":5},"Mühleberg":{"countryName":"Switzerland","stateName":"Bern","name":"Mühleberg","lat":46.95466,"lon":7.26102,"geocoding":{},"distantMaxMiles":5},"Mühlethurnen":{"countryName":"Switzerland","stateName":"Bern","name":"Mühlethurnen","lat":46.81345,"lon":7.50881,"geocoding":{},"distantMaxMiles":5},"Münchenbuchsee":{"countryName":"Switzerland","stateName":"Bern","name":"Münchenbuchsee","lat":47.02175,"lon":7.45036,"geocoding":{},"distantMaxMiles":5},"Münchenwiler":{"countryName":"Switzerland","stateName":"Bern","name":"Münchenwiler","lat":46.91334,"lon":7.12556,"geocoding":{},"distantMaxMiles":5},"Münsingen":{"countryName":"Switzerland","stateName":"Bern","name":"Münsingen","lat":46.87298,"lon":7.561,"geocoding":{},"distantMaxMiles":5},"Müntschemier":{"countryName":"Switzerland","stateName":"Bern","name":"Müntschemier","lat":46.99548,"lon":7.14626,"geocoding":{},"distantMaxMiles":5},"Nidau":{"countryName":"Switzerland","stateName":"Bern","name":"Nidau","lat":47.12545,"lon":7.24033,"geocoding":{},"distantMaxMiles":5},"Niederbipp":{"countryName":"Switzerland","stateName":"Bern","name":"Niederbipp","lat":47.27175,"lon":7.69583,"geocoding":{},"distantMaxMiles":5},"Oberaargau":{"countryName":"Switzerland","stateName":"Bern","name":"Oberaargau","lat":47.19202,"lon":7.74553,"geocoding":{},"distantMaxMiles":5},"Oberbipp":{"countryName":"Switzerland","stateName":"Bern","name":"Oberbipp","lat":47.2607,"lon":7.66359,"geocoding":{},"distantMaxMiles":5},"Oberburg":{"countryName":"Switzerland","stateName":"Bern","name":"Oberburg","lat":47.03665,"lon":7.62745,"geocoding":{},"distantMaxMiles":5},"Oberdiessbach":{"countryName":"Switzerland","stateName":"Bern","name":"Oberdiessbach","lat":46.84117,"lon":7.6173,"geocoding":{},"distantMaxMiles":5},"Obersimmental-Saanen District":{"countryName":"Switzerland","stateName":"Bern","name":"Obersimmental-Saanen District","lat":46.47932,"lon":7.35803,"geocoding":{},"distantMaxMiles":5},"Orpund":{"countryName":"Switzerland","stateName":"Bern","name":"Orpund","lat":47.13891,"lon":7.30775,"geocoding":{},"distantMaxMiles":5},"Orvin":{"countryName":"Switzerland","stateName":"Bern","name":"Orvin","lat":47.16068,"lon":7.21368,"geocoding":{},"distantMaxMiles":5},"Pieterlen":{"countryName":"Switzerland","stateName":"Bern","name":"Pieterlen","lat":47.17501,"lon":7.33791,"geocoding":{},"distantMaxMiles":5},"Péry":{"countryName":"Switzerland","stateName":"Bern","name":"Péry","lat":47.19398,"lon":7.24913,"geocoding":{},"distantMaxMiles":5},"Radelfingen":{"countryName":"Switzerland","stateName":"Bern","name":"Radelfingen","lat":47.02146,"lon":7.27178,"geocoding":{},"distantMaxMiles":5},"Reconvilier":{"countryName":"Switzerland","stateName":"Bern","name":"Reconvilier","lat":47.23431,"lon":7.22239,"geocoding":{},"distantMaxMiles":5},"Riggisberg":{"countryName":"Switzerland","stateName":"Bern","name":"Riggisberg","lat":46.81028,"lon":7.48014,"geocoding":{},"distantMaxMiles":5},"Ringgenberg":{"countryName":"Switzerland","stateName":"Bern","name":"Ringgenberg","lat":46.70114,"lon":7.89445,"geocoding":{},"distantMaxMiles":5},"Roggwil":{"countryName":"Switzerland","stateName":"Bern","name":"Roggwil","lat":47.24119,"lon":7.82141,"geocoding":{},"distantMaxMiles":5},"Rohrbach":{"countryName":"Switzerland","stateName":"Bern","name":"Rohrbach","lat":47.13521,"lon":7.81334,"geocoding":{},"distantMaxMiles":5},"Rubigen":{"countryName":"Switzerland","stateName":"Bern","name":"Rubigen","lat":46.89868,"lon":7.5446,"geocoding":{},"distantMaxMiles":5},"Rüderswil":{"countryName":"Switzerland","stateName":"Bern","name":"Rüderswil","lat":46.98374,"lon":7.72167,"geocoding":{},"distantMaxMiles":5},"Rüeggisberg":{"countryName":"Switzerland","stateName":"Bern","name":"Rüeggisberg","lat":46.82216,"lon":7.4389,"geocoding":{},"distantMaxMiles":5},"Rüschegg":{"countryName":"Switzerland","stateName":"Bern","name":"Rüschegg","lat":46.77977,"lon":7.39167,"geocoding":{},"distantMaxMiles":5},"Saanen":{"countryName":"Switzerland","stateName":"Bern","name":"Saanen","lat":46.48945,"lon":7.26003,"geocoding":{},"distantMaxMiles":5},"Saint-Imier":{"countryName":"Switzerland","stateName":"Bern","name":"Saint-Imier","lat":47.15284,"lon":6.99692,"geocoding":{},"distantMaxMiles":5},"Sankt Stephan":{"countryName":"Switzerland","stateName":"Bern","name":"Sankt Stephan","lat":46.50827,"lon":7.39559,"geocoding":{},"distantMaxMiles":5},"Schüpfen":{"countryName":"Switzerland","stateName":"Bern","name":"Schüpfen","lat":47.03661,"lon":7.37723,"geocoding":{},"distantMaxMiles":5},"Seeberg":{"countryName":"Switzerland","stateName":"Bern","name":"Seeberg","lat":47.15585,"lon":7.66567,"geocoding":{},"distantMaxMiles":5},"Seedorf":{"countryName":"Switzerland","stateName":"Bern","name":"Seedorf","lat":47.03445,"lon":7.31249,"geocoding":{},"distantMaxMiles":5},"Seeland District":{"countryName":"Switzerland","stateName":"Bern","name":"Seeland District","lat":47.06635,"lon":7.26333,"geocoding":{},"distantMaxMiles":5},"Seftigen":{"countryName":"Switzerland","stateName":"Bern","name":"Seftigen","lat":46.78765,"lon":7.53937,"geocoding":{},"distantMaxMiles":5},"Signau":{"countryName":"Switzerland","stateName":"Bern","name":"Signau","lat":46.91944,"lon":7.72418,"geocoding":{},"distantMaxMiles":5},"Sigriswil":{"countryName":"Switzerland","stateName":"Bern","name":"Sigriswil","lat":46.71656,"lon":7.71335,"geocoding":{},"distantMaxMiles":5},"Spiez":{"countryName":"Switzerland","stateName":"Bern","name":"Spiez","lat":46.68473,"lon":7.69111,"geocoding":{},"distantMaxMiles":5},"Steffisburg":{"countryName":"Switzerland","stateName":"Bern","name":"Steffisburg","lat":46.77807,"lon":7.63249,"geocoding":{},"distantMaxMiles":5},"Stettlen":{"countryName":"Switzerland","stateName":"Bern","name":"Stettlen","lat":46.95835,"lon":7.52508,"geocoding":{},"distantMaxMiles":5},"Sumiswald":{"countryName":"Switzerland","stateName":"Bern","name":"Sumiswald","lat":47.02747,"lon":7.74526,"geocoding":{},"distantMaxMiles":5},"Tavannes":{"countryName":"Switzerland","stateName":"Bern","name":"Tavannes","lat":47.22079,"lon":7.19759,"geocoding":{},"distantMaxMiles":5},"Thierachern":{"countryName":"Switzerland","stateName":"Bern","name":"Thierachern","lat":46.75319,"lon":7.57442,"geocoding":{},"distantMaxMiles":5},"Thun":{"countryName":"Switzerland","stateName":"Bern","name":"Thun","lat":46.75118,"lon":7.62166,"geocoding":{},"distantMaxMiles":5},"Thun District":{"countryName":"Switzerland","stateName":"Bern","name":"Thun District","lat":46.7629,"lon":7.62503,"geocoding":{},"distantMaxMiles":5},"Toffen":{"countryName":"Switzerland","stateName":"Bern","name":"Toffen","lat":46.86031,"lon":7.49216,"geocoding":{},"distantMaxMiles":5},"Trachselwald":{"countryName":"Switzerland","stateName":"Bern","name":"Trachselwald","lat":47.01699,"lon":7.73639,"geocoding":{},"distantMaxMiles":5},"Tramelan":{"countryName":"Switzerland","stateName":"Bern","name":"Tramelan","lat":47.22298,"lon":7.10287,"geocoding":{},"distantMaxMiles":5},"Trub":{"countryName":"Switzerland","stateName":"Bern","name":"Trub","lat":46.94168,"lon":7.87996,"geocoding":{},"distantMaxMiles":5},"Trubschachen":{"countryName":"Switzerland","stateName":"Bern","name":"Trubschachen","lat":46.92228,"lon":7.8452,"geocoding":{},"distantMaxMiles":5},"Täuffelen":{"countryName":"Switzerland","stateName":"Bern","name":"Täuffelen","lat":47.0663,"lon":7.19883,"geocoding":{},"distantMaxMiles":5},"Uetendorf":{"countryName":"Switzerland","stateName":"Bern","name":"Uetendorf","lat":46.77392,"lon":7.57251,"geocoding":{},"distantMaxMiles":5},"Unterseen":{"countryName":"Switzerland","stateName":"Bern","name":"Unterseen","lat":46.6853,"lon":7.84722,"geocoding":{},"distantMaxMiles":5},"Urtenen":{"countryName":"Switzerland","stateName":"Bern","name":"Urtenen","lat":47.02667,"lon":7.50081,"geocoding":{},"distantMaxMiles":5},"Uttigen":{"countryName":"Switzerland","stateName":"Bern","name":"Uttigen","lat":46.79435,"lon":7.57789,"geocoding":{},"distantMaxMiles":5},"Utzenstorf":{"countryName":"Switzerland","stateName":"Bern","name":"Utzenstorf","lat":47.13248,"lon":7.55355,"geocoding":{},"distantMaxMiles":5},"Vechigen":{"countryName":"Switzerland","stateName":"Bern","name":"Vechigen","lat":46.94616,"lon":7.56065,"geocoding":{},"distantMaxMiles":5},"Walkringen":{"countryName":"Switzerland","stateName":"Bern","name":"Walkringen","lat":46.94856,"lon":7.6204,"geocoding":{},"distantMaxMiles":5},"Wangen an der Aare":{"countryName":"Switzerland","stateName":"Bern","name":"Wangen an der Aare","lat":47.23208,"lon":7.65253,"geocoding":{},"distantMaxMiles":5},"Wattenwil":{"countryName":"Switzerland","stateName":"Bern","name":"Wattenwil","lat":46.76973,"lon":7.50835,"geocoding":{},"distantMaxMiles":5},"Wichtrach":{"countryName":"Switzerland","stateName":"Bern","name":"Wichtrach","lat":46.8501,"lon":7.57748,"geocoding":{},"distantMaxMiles":5},"Wiedlisbach":{"countryName":"Switzerland","stateName":"Bern","name":"Wiedlisbach","lat":47.25194,"lon":7.6461,"geocoding":{},"distantMaxMiles":5},"Wilderswil":{"countryName":"Switzerland","stateName":"Bern","name":"Wilderswil","lat":46.66369,"lon":7.86175,"geocoding":{},"distantMaxMiles":5},"Wimmis":{"countryName":"Switzerland","stateName":"Bern","name":"Wimmis","lat":46.67587,"lon":7.63972,"geocoding":{},"distantMaxMiles":5},"Wohlen":{"countryName":"Switzerland","stateName":"Bern","name":"Wohlen","lat":46.97118,"lon":7.35685,"geocoding":{},"distantMaxMiles":5},"Worb":{"countryName":"Switzerland","stateName":"Bern","name":"Worb","lat":46.92984,"lon":7.56306,"geocoding":{},"distantMaxMiles":5},"Worben":{"countryName":"Switzerland","stateName":"Bern","name":"Worben","lat":47.10279,"lon":7.29518,"geocoding":{},"distantMaxMiles":5},"Wynau":{"countryName":"Switzerland","stateName":"Bern","name":"Wynau","lat":47.2557,"lon":7.81626,"geocoding":{},"distantMaxMiles":5},"Wynigen":{"countryName":"Switzerland","stateName":"Bern","name":"Wynigen","lat":47.10586,"lon":7.66681,"geocoding":{},"distantMaxMiles":5},"Wyssachen":{"countryName":"Switzerland","stateName":"Bern","name":"Wyssachen","lat":47.07851,"lon":7.82922,"geocoding":{},"distantMaxMiles":5},"Zollikofen":{"countryName":"Switzerland","stateName":"Bern","name":"Zollikofen","lat":46.99905,"lon":7.45809,"geocoding":{},"distantMaxMiles":5},"Zweisimmen":{"countryName":"Switzerland","stateName":"Bern","name":"Zweisimmen","lat":46.55539,"lon":7.37302,"geocoding":{},"distantMaxMiles":5},"Zäziwil":{"countryName":"Switzerland","stateName":"Bern","name":"Zäziwil","lat":46.90196,"lon":7.66185,"geocoding":{},"distantMaxMiles":5}}},"Fribourg":{"countryName":"Switzerland","name":"Fribourg","isoCode":"FR","lat":46.6816748,"lon":7.1172635,"geocoding":{},"distantMaxMiles":5,"cities":{"Alterswil":{"countryName":"Switzerland","stateName":"Fribourg","name":"Alterswil","lat":46.79587,"lon":7.25877,"geocoding":{},"distantMaxMiles":5},"Attalens":{"countryName":"Switzerland","stateName":"Fribourg","name":"Attalens","lat":46.50555,"lon":6.85039,"geocoding":{},"distantMaxMiles":5},"Avry-sur-Matran":{"countryName":"Switzerland","stateName":"Fribourg","name":"Avry-sur-Matran","lat":46.78753,"lon":7.06735,"geocoding":{},"distantMaxMiles":5},"Bas-Vully":{"countryName":"Switzerland","stateName":"Fribourg","name":"Bas-Vully","lat":46.96194,"lon":7.11251,"geocoding":{},"distantMaxMiles":5},"Belfaux":{"countryName":"Switzerland","stateName":"Fribourg","name":"Belfaux","lat":46.82171,"lon":7.10674,"geocoding":{},"distantMaxMiles":5},"Broc":{"countryName":"Switzerland","stateName":"Fribourg","name":"Broc","lat":46.60513,"lon":7.09891,"geocoding":{},"distantMaxMiles":5},"Broye District":{"countryName":"Switzerland","stateName":"Fribourg","name":"Broye District","lat":46.82212,"lon":6.90249,"geocoding":{},"distantMaxMiles":5},"Bulle":{"countryName":"Switzerland","stateName":"Fribourg","name":"Bulle","lat":46.61797,"lon":7.0569,"geocoding":{},"distantMaxMiles":5},"Bösingen":{"countryName":"Switzerland","stateName":"Fribourg","name":"Bösingen","lat":46.89229,"lon":7.2277,"geocoding":{},"distantMaxMiles":5},"Charmey":{"countryName":"Switzerland","stateName":"Fribourg","name":"Charmey","lat":46.61957,"lon":7.16486,"geocoding":{},"distantMaxMiles":5},"Châtel-Saint-Denis":{"countryName":"Switzerland","stateName":"Fribourg","name":"Châtel-Saint-Denis","lat":46.52691,"lon":6.90083,"geocoding":{},"distantMaxMiles":5},"Corminboeuf":{"countryName":"Switzerland","stateName":"Fribourg","name":"Corminboeuf","lat":46.81029,"lon":7.10535,"geocoding":{},"distantMaxMiles":5},"Courgevaux":{"countryName":"Switzerland","stateName":"Fribourg","name":"Courgevaux","lat":46.90648,"lon":7.11215,"geocoding":{},"distantMaxMiles":5},"Cugy":{"countryName":"Switzerland","stateName":"Fribourg","name":"Cugy","lat":46.81479,"lon":6.88888,"geocoding":{},"distantMaxMiles":5},"Domdidier":{"countryName":"Switzerland","stateName":"Fribourg","name":"Domdidier","lat":46.86716,"lon":7.01337,"geocoding":{},"distantMaxMiles":5},"Düdingen":{"countryName":"Switzerland","stateName":"Fribourg","name":"Düdingen","lat":46.84916,"lon":7.1915,"geocoding":{},"distantMaxMiles":5},"Ecublens":{"countryName":"Switzerland","stateName":"Fribourg","name":"Ecublens","lat":46.60735,"lon":6.80895,"geocoding":{},"distantMaxMiles":5},"Ependes":{"countryName":"Switzerland","stateName":"Fribourg","name":"Ependes","lat":46.75368,"lon":7.14609,"geocoding":{},"distantMaxMiles":5},"Estavayer-le-Lac":{"countryName":"Switzerland","stateName":"Fribourg","name":"Estavayer-le-Lac","lat":46.84876,"lon":6.8465,"geocoding":{},"distantMaxMiles":5},"Flamatt":{"countryName":"Switzerland","stateName":"Fribourg","name":"Flamatt","lat":46.88994,"lon":7.32204,"geocoding":{},"distantMaxMiles":5},"Fribourg":{"countryName":"Switzerland","stateName":"Fribourg","name":"Fribourg","lat":46.80237,"lon":7.15128,"geocoding":{},"distantMaxMiles":5},"Giffers":{"countryName":"Switzerland","stateName":"Fribourg","name":"Giffers","lat":46.7623,"lon":7.20845,"geocoding":{},"distantMaxMiles":5},"Givisiez":{"countryName":"Switzerland","stateName":"Fribourg","name":"Givisiez","lat":46.81201,"lon":7.12639,"geocoding":{},"distantMaxMiles":5},"Glâne District":{"countryName":"Switzerland","stateName":"Fribourg","name":"Glâne District","lat":46.66667,"lon":6.91667,"geocoding":{},"distantMaxMiles":5},"Grolley":{"countryName":"Switzerland","stateName":"Fribourg","name":"Grolley","lat":46.8336,"lon":7.07116,"geocoding":{},"distantMaxMiles":5},"Gruyère District":{"countryName":"Switzerland","stateName":"Fribourg","name":"Gruyère District","lat":46.60753,"lon":7.10741,"geocoding":{},"distantMaxMiles":5},"Gruyères":{"countryName":"Switzerland","stateName":"Fribourg","name":"Gruyères","lat":46.58338,"lon":7.08207,"geocoding":{},"distantMaxMiles":5},"Heitenried":{"countryName":"Switzerland","stateName":"Fribourg","name":"Heitenried","lat":46.82762,"lon":7.29944,"geocoding":{},"distantMaxMiles":5},"Kerzers":{"countryName":"Switzerland","stateName":"Fribourg","name":"Kerzers","lat":46.97586,"lon":7.1957,"geocoding":{},"distantMaxMiles":5},"La Roche":{"countryName":"Switzerland","stateName":"Fribourg","name":"La Roche","lat":46.6962,"lon":7.13721,"geocoding":{},"distantMaxMiles":5},"La Tour-de-Trême":{"countryName":"Switzerland","stateName":"Fribourg","name":"La Tour-de-Trême","lat":46.61061,"lon":7.06496,"geocoding":{},"distantMaxMiles":5},"Lake District":{"countryName":"Switzerland","stateName":"Fribourg","name":"Lake District","lat":46.91016,"lon":7.14088,"geocoding":{},"distantMaxMiles":5},"Marly":{"countryName":"Switzerland","stateName":"Fribourg","name":"Marly","lat":46.77611,"lon":7.16459,"geocoding":{},"distantMaxMiles":5},"Marsens":{"countryName":"Switzerland","stateName":"Fribourg","name":"Marsens","lat":46.65644,"lon":7.05948,"geocoding":{},"distantMaxMiles":5},"Murten/Morat":{"countryName":"Switzerland","stateName":"Fribourg","name":"Murten/Morat","lat":46.92827,"lon":7.11715,"geocoding":{},"distantMaxMiles":5},"Mézières":{"countryName":"Switzerland","stateName":"Fribourg","name":"Mézières","lat":46.67958,"lon":6.9263,"geocoding":{},"distantMaxMiles":5},"Oberschrot":{"countryName":"Switzerland","stateName":"Fribourg","name":"Oberschrot","lat":46.74126,"lon":7.28149,"geocoding":{},"distantMaxMiles":5},"Plaffeien":{"countryName":"Switzerland","stateName":"Fribourg","name":"Plaffeien","lat":46.74198,"lon":7.28666,"geocoding":{},"distantMaxMiles":5},"Praroman":{"countryName":"Switzerland","stateName":"Fribourg","name":"Praroman","lat":46.75145,"lon":7.17778,"geocoding":{},"distantMaxMiles":5},"Rechthalten":{"countryName":"Switzerland","stateName":"Fribourg","name":"Rechthalten","lat":46.76766,"lon":7.24028,"geocoding":{},"distantMaxMiles":5},"Riaz":{"countryName":"Switzerland","stateName":"Fribourg","name":"Riaz","lat":46.64224,"lon":7.06183,"geocoding":{},"distantMaxMiles":5},"Romont":{"countryName":"Switzerland","stateName":"Fribourg","name":"Romont","lat":46.69652,"lon":6.91898,"geocoding":{},"distantMaxMiles":5},"Rue":{"countryName":"Switzerland","stateName":"Fribourg","name":"Rue","lat":46.61916,"lon":6.82225,"geocoding":{},"distantMaxMiles":5},"Sankt Antoni":{"countryName":"Switzerland","stateName":"Fribourg","name":"Sankt Antoni","lat":46.82207,"lon":7.26091,"geocoding":{},"distantMaxMiles":5},"Sarine District":{"countryName":"Switzerland","stateName":"Fribourg","name":"Sarine District","lat":46.78435,"lon":7.09993,"geocoding":{},"distantMaxMiles":5},"Schmitten":{"countryName":"Switzerland","stateName":"Fribourg","name":"Schmitten","lat":46.8575,"lon":7.25031,"geocoding":{},"distantMaxMiles":5},"Sense District":{"countryName":"Switzerland","stateName":"Fribourg","name":"Sense District","lat":46.80132,"lon":7.26028,"geocoding":{},"distantMaxMiles":5},"Sâles":{"countryName":"Switzerland","stateName":"Fribourg","name":"Sâles","lat":46.63473,"lon":6.97336,"geocoding":{},"distantMaxMiles":5},"Tafers":{"countryName":"Switzerland","stateName":"Fribourg","name":"Tafers","lat":46.81483,"lon":7.21852,"geocoding":{},"distantMaxMiles":5},"Treyvaux":{"countryName":"Switzerland","stateName":"Fribourg","name":"Treyvaux","lat":46.72796,"lon":7.13769,"geocoding":{},"distantMaxMiles":5},"Ueberstorf":{"countryName":"Switzerland","stateName":"Fribourg","name":"Ueberstorf","lat":46.86587,"lon":7.30998,"geocoding":{},"distantMaxMiles":5},"Veveyse District":{"countryName":"Switzerland","stateName":"Fribourg","name":"Veveyse District","lat":46.55083,"lon":6.91085,"geocoding":{},"distantMaxMiles":5},"Villars-sur-Glâne":{"countryName":"Switzerland","stateName":"Fribourg","name":"Villars-sur-Glâne","lat":46.79054,"lon":7.11717,"geocoding":{},"distantMaxMiles":5},"Villaz-Saint-Pierre":{"countryName":"Switzerland","stateName":"Fribourg","name":"Villaz-Saint-Pierre","lat":46.72074,"lon":6.95638,"geocoding":{},"distantMaxMiles":5},"Vuadens":{"countryName":"Switzerland","stateName":"Fribourg","name":"Vuadens","lat":46.61545,"lon":7.01732,"geocoding":{},"distantMaxMiles":5}}},"Geneva":{"countryName":"Switzerland","name":"Geneva","isoCode":"GE","lat":46.2180073,"lon":6.1216925,"geocoding":{},"distantMaxMiles":5,"cities":{"Aire-la-Ville":{"countryName":"Switzerland","stateName":"Geneva","name":"Aire-la-Ville","lat":46.19057,"lon":6.04287,"geocoding":{},"distantMaxMiles":5},"Anières":{"countryName":"Switzerland","stateName":"Geneva","name":"Anières","lat":46.27673,"lon":6.22204,"geocoding":{},"distantMaxMiles":5},"Bellevue":{"countryName":"Switzerland","stateName":"Geneva","name":"Bellevue","lat":46.25739,"lon":6.15475,"geocoding":{},"distantMaxMiles":5},"Bernex":{"countryName":"Switzerland","stateName":"Geneva","name":"Bernex","lat":46.1765,"lon":6.07544,"geocoding":{},"distantMaxMiles":5},"Carouge":{"countryName":"Switzerland","stateName":"Geneva","name":"Carouge","lat":46.18096,"lon":6.13921,"geocoding":{},"distantMaxMiles":5},"Chancy":{"countryName":"Switzerland","stateName":"Geneva","name":"Chancy","lat":46.15003,"lon":5.97153,"geocoding":{},"distantMaxMiles":5},"Chêne-Bougeries":{"countryName":"Switzerland","stateName":"Geneva","name":"Chêne-Bougeries","lat":46.19843,"lon":6.18642,"geocoding":{},"distantMaxMiles":5},"Chêne-Bourg":{"countryName":"Switzerland","stateName":"Geneva","name":"Chêne-Bourg","lat":46.19534,"lon":6.19406,"geocoding":{},"distantMaxMiles":5},"Confignon":{"countryName":"Switzerland","stateName":"Geneva","name":"Confignon","lat":46.17341,"lon":6.08437,"geocoding":{},"distantMaxMiles":5},"Corsier":{"countryName":"Switzerland","stateName":"Geneva","name":"Corsier","lat":46.26297,"lon":6.22461,"geocoding":{},"distantMaxMiles":5},"Dardagny":{"countryName":"Switzerland","stateName":"Geneva","name":"Dardagny","lat":46.19564,"lon":5.99497,"geocoding":{},"distantMaxMiles":5},"Genève":{"countryName":"Switzerland","stateName":"Geneva","name":"Genève","lat":46.20222,"lon":6.14569,"geocoding":{},"distantMaxMiles":5},"Jussy":{"countryName":"Switzerland","stateName":"Geneva","name":"Jussy","lat":46.2359,"lon":6.26701,"geocoding":{},"distantMaxMiles":5},"Lancy":{"countryName":"Switzerland","stateName":"Geneva","name":"Lancy","lat":46.18981,"lon":6.11441,"geocoding":{},"distantMaxMiles":5},"Le Grand-Saconnex":{"countryName":"Switzerland","stateName":"Geneva","name":"Le Grand-Saconnex","lat":46.23188,"lon":6.12091,"geocoding":{},"distantMaxMiles":5},"Les Avanchets":{"countryName":"Switzerland","stateName":"Geneva","name":"Les Avanchets","lat":46.22168,"lon":6.10814,"geocoding":{},"distantMaxMiles":5},"Meinier":{"countryName":"Switzerland","stateName":"Geneva","name":"Meinier","lat":46.24706,"lon":6.23423,"geocoding":{},"distantMaxMiles":5},"Meyrin":{"countryName":"Switzerland","stateName":"Geneva","name":"Meyrin","lat":46.23424,"lon":6.08025,"geocoding":{},"distantMaxMiles":5},"Onex":{"countryName":"Switzerland","stateName":"Geneva","name":"Onex","lat":46.18396,"lon":6.10237,"geocoding":{},"distantMaxMiles":5},"Plan-les-Ouates":{"countryName":"Switzerland","stateName":"Geneva","name":"Plan-les-Ouates","lat":46.16789,"lon":6.11664,"geocoding":{},"distantMaxMiles":5},"Puplinge":{"countryName":"Switzerland","stateName":"Geneva","name":"Puplinge","lat":46.21043,"lon":6.23114,"geocoding":{},"distantMaxMiles":5},"Satigny":{"countryName":"Switzerland","stateName":"Geneva","name":"Satigny","lat":46.21462,"lon":6.03553,"geocoding":{},"distantMaxMiles":5},"Thônex":{"countryName":"Switzerland","stateName":"Geneva","name":"Thônex","lat":46.18815,"lon":6.19904,"geocoding":{},"distantMaxMiles":5},"Troinex":{"countryName":"Switzerland","stateName":"Geneva","name":"Troinex","lat":46.16313,"lon":6.14745,"geocoding":{},"distantMaxMiles":5},"Vandœuvres":{"countryName":"Switzerland","stateName":"Geneva","name":"Vandœuvres","lat":46.22179,"lon":6.20285,"geocoding":{},"distantMaxMiles":5},"Vernier":{"countryName":"Switzerland","stateName":"Geneva","name":"Vernier","lat":46.21702,"lon":6.08497,"geocoding":{},"distantMaxMiles":5},"Versoix":{"countryName":"Switzerland","stateName":"Geneva","name":"Versoix","lat":46.28382,"lon":6.16214,"geocoding":{},"distantMaxMiles":5},"Veyrier":{"countryName":"Switzerland","stateName":"Geneva","name":"Veyrier","lat":46.16699,"lon":6.18436,"geocoding":{},"distantMaxMiles":5}}},"Glarus":{"countryName":"Switzerland","name":"Glarus","isoCode":"GL","lat":47.0411232,"lon":9.0679,"geocoding":{},"distantMaxMiles":5,"cities":{"Bilten":{"countryName":"Switzerland","stateName":"Glarus","name":"Bilten","lat":47.14995,"lon":9.02551,"geocoding":{},"distantMaxMiles":5},"Ennenda":{"countryName":"Switzerland","stateName":"Glarus","name":"Ennenda","lat":47.03363,"lon":9.07888,"geocoding":{},"distantMaxMiles":5},"Glarus":{"countryName":"Switzerland","stateName":"Glarus","name":"Glarus","lat":47.04057,"lon":9.06804,"geocoding":{},"distantMaxMiles":5},"Linthal":{"countryName":"Switzerland","stateName":"Glarus","name":"Linthal","lat":46.92127,"lon":8.99799,"geocoding":{},"distantMaxMiles":5},"Luchsingen":{"countryName":"Switzerland","stateName":"Glarus","name":"Luchsingen","lat":46.9664,"lon":9.03715,"geocoding":{},"distantMaxMiles":5},"Mollis":{"countryName":"Switzerland","stateName":"Glarus","name":"Mollis","lat":47.08878,"lon":9.07242,"geocoding":{},"distantMaxMiles":5},"Netstal":{"countryName":"Switzerland","stateName":"Glarus","name":"Netstal","lat":47.06337,"lon":9.05734,"geocoding":{},"distantMaxMiles":5},"Niederurnen":{"countryName":"Switzerland","stateName":"Glarus","name":"Niederurnen","lat":47.12598,"lon":9.05428,"geocoding":{},"distantMaxMiles":5},"Näfels":{"countryName":"Switzerland","stateName":"Glarus","name":"Näfels","lat":47.09775,"lon":9.06361,"geocoding":{},"distantMaxMiles":5},"Oberurnen":{"countryName":"Switzerland","stateName":"Glarus","name":"Oberurnen","lat":47.11412,"lon":9.05866,"geocoding":{},"distantMaxMiles":5},"Schwanden":{"countryName":"Switzerland","stateName":"Glarus","name":"Schwanden","lat":46.99541,"lon":9.0701,"geocoding":{},"distantMaxMiles":5}}},"Graubünden":{"countryName":"Switzerland","name":"Graubünden","isoCode":"GR","lat":46.6569871,"lon":9.5780257,"geocoding":{},"distantMaxMiles":5,"cities":{"Arosa":{"countryName":"Switzerland","stateName":"Graubünden","name":"Arosa","lat":46.77793,"lon":9.67621,"geocoding":{},"distantMaxMiles":5},"Arvigo":{"countryName":"Switzerland","stateName":"Graubünden","name":"Arvigo","lat":46.30211,"lon":9.113,"geocoding":{},"distantMaxMiles":5},"Bonaduz":{"countryName":"Switzerland","stateName":"Graubünden","name":"Bonaduz","lat":46.81103,"lon":9.39821,"geocoding":{},"distantMaxMiles":5},"Breíl":{"countryName":"Switzerland","stateName":"Graubünden","name":"Breíl","lat":46.76986,"lon":9.06036,"geocoding":{},"distantMaxMiles":5},"Brusio":{"countryName":"Switzerland","stateName":"Graubünden","name":"Brusio","lat":46.25953,"lon":10.12385,"geocoding":{},"distantMaxMiles":5},"Buseno":{"countryName":"Switzerland","stateName":"Graubünden","name":"Buseno","lat":46.27381,"lon":9.10735,"geocoding":{},"distantMaxMiles":5},"Cauco":{"countryName":"Switzerland","stateName":"Graubünden","name":"Cauco","lat":46.33541,"lon":9.12129,"geocoding":{},"distantMaxMiles":5},"Cazis":{"countryName":"Switzerland","stateName":"Graubünden","name":"Cazis","lat":46.7194,"lon":9.43271,"geocoding":{},"distantMaxMiles":5},"Celerina":{"countryName":"Switzerland","stateName":"Graubünden","name":"Celerina","lat":46.51217,"lon":9.85794,"geocoding":{},"distantMaxMiles":5},"Chur":{"countryName":"Switzerland","stateName":"Graubünden","name":"Chur","lat":46.84986,"lon":9.53287,"geocoding":{},"distantMaxMiles":5},"Churwalden":{"countryName":"Switzerland","stateName":"Graubünden","name":"Churwalden","lat":46.78143,"lon":9.54377,"geocoding":{},"distantMaxMiles":5},"Davos":{"countryName":"Switzerland","stateName":"Graubünden","name":"Davos","lat":46.80429,"lon":9.83723,"geocoding":{},"distantMaxMiles":5},"Disentis":{"countryName":"Switzerland","stateName":"Graubünden","name":"Disentis","lat":46.70341,"lon":8.8509,"geocoding":{},"distantMaxMiles":5},"Domat":{"countryName":"Switzerland","stateName":"Graubünden","name":"Domat","lat":46.83483,"lon":9.45075,"geocoding":{},"distantMaxMiles":5},"Felsberg":{"countryName":"Switzerland","stateName":"Graubünden","name":"Felsberg","lat":46.84566,"lon":9.47588,"geocoding":{},"distantMaxMiles":5},"Flims":{"countryName":"Switzerland","stateName":"Graubünden","name":"Flims","lat":46.83705,"lon":9.28458,"geocoding":{},"distantMaxMiles":5},"Grüsch":{"countryName":"Switzerland","stateName":"Graubünden","name":"Grüsch","lat":46.97965,"lon":9.64639,"geocoding":{},"distantMaxMiles":5},"Hinterrhein":{"countryName":"Switzerland","stateName":"Graubünden","name":"Hinterrhein","lat":46.53333,"lon":9.2,"geocoding":{},"distantMaxMiles":5},"Igis":{"countryName":"Switzerland","stateName":"Graubünden","name":"Igis","lat":46.94531,"lon":9.57218,"geocoding":{},"distantMaxMiles":5},"Ilanz":{"countryName":"Switzerland","stateName":"Graubünden","name":"Ilanz","lat":46.77413,"lon":9.20461,"geocoding":{},"distantMaxMiles":5},"Jenaz":{"countryName":"Switzerland","stateName":"Graubünden","name":"Jenaz","lat":46.92892,"lon":9.71275,"geocoding":{},"distantMaxMiles":5},"Klosters Serneus":{"countryName":"Switzerland","stateName":"Graubünden","name":"Klosters Serneus","lat":46.88918,"lon":9.83826,"geocoding":{},"distantMaxMiles":5},"La Punt Chamues-ch":{"countryName":"Switzerland","stateName":"Graubünden","name":"La Punt Chamues-ch","lat":46.57887,"lon":9.92015,"geocoding":{},"distantMaxMiles":5},"Laax":{"countryName":"Switzerland","stateName":"Graubünden","name":"Laax","lat":46.80452,"lon":9.25787,"geocoding":{},"distantMaxMiles":5},"Landquart":{"countryName":"Switzerland","stateName":"Graubünden","name":"Landquart","lat":46.95,"lon":9.56667,"geocoding":{},"distantMaxMiles":5},"Lenzerheide":{"countryName":"Switzerland","stateName":"Graubünden","name":"Lenzerheide","lat":46.72215,"lon":9.55905,"geocoding":{},"distantMaxMiles":5},"Luzein":{"countryName":"Switzerland","stateName":"Graubünden","name":"Luzein","lat":46.91957,"lon":9.7608,"geocoding":{},"distantMaxMiles":5},"Maienfeld":{"countryName":"Switzerland","stateName":"Graubünden","name":"Maienfeld","lat":47.00472,"lon":9.53115,"geocoding":{},"distantMaxMiles":5},"Malans":{"countryName":"Switzerland","stateName":"Graubünden","name":"Malans","lat":46.98096,"lon":9.57527,"geocoding":{},"distantMaxMiles":5},"Mesocco":{"countryName":"Switzerland","stateName":"Graubünden","name":"Mesocco","lat":46.3939,"lon":9.23333,"geocoding":{},"distantMaxMiles":5},"Pontresina":{"countryName":"Switzerland","stateName":"Graubünden","name":"Pontresina","lat":46.4955,"lon":9.90126,"geocoding":{},"distantMaxMiles":5},"Poschiavo":{"countryName":"Switzerland","stateName":"Graubünden","name":"Poschiavo","lat":46.32441,"lon":10.05823,"geocoding":{},"distantMaxMiles":5},"Region Albula":{"countryName":"Switzerland","stateName":"Graubünden","name":"Region Albula","lat":46.60255,"lon":9.6515,"geocoding":{},"distantMaxMiles":5},"Region Bernina":{"countryName":"Switzerland","stateName":"Graubünden","name":"Region Bernina","lat":46.33488,"lon":10.07349,"geocoding":{},"distantMaxMiles":5},"Region Engiadina Bassa / Val Müstair":{"countryName":"Switzerland","stateName":"Graubünden","name":"Region Engiadina Bassa / Val Müstair","lat":46.75212,"lon":10.26032,"geocoding":{},"distantMaxMiles":5},"Region Imboden":{"countryName":"Switzerland","stateName":"Graubünden","name":"Region Imboden","lat":46.84876,"lon":9.36225,"geocoding":{},"distantMaxMiles":5},"Region Landquart":{"countryName":"Switzerland","stateName":"Graubünden","name":"Region Landquart","lat":46.96403,"lon":9.56365,"geocoding":{},"distantMaxMiles":5},"Region Maloja":{"countryName":"Switzerland","stateName":"Graubünden","name":"Region Maloja","lat":46.47448,"lon":9.83138,"geocoding":{},"distantMaxMiles":5},"Region Moesa":{"countryName":"Switzerland","stateName":"Graubünden","name":"Region Moesa","lat":46.352,"lon":9.1787,"geocoding":{},"distantMaxMiles":5},"Region Plessur":{"countryName":"Switzerland","stateName":"Graubünden","name":"Region Plessur","lat":46.81819,"lon":9.62542,"geocoding":{},"distantMaxMiles":5},"Region Prättigau / Davos":{"countryName":"Switzerland","stateName":"Graubünden","name":"Region Prättigau / Davos","lat":46.86727,"lon":9.82014,"geocoding":{},"distantMaxMiles":5},"Region Surselva":{"countryName":"Switzerland","stateName":"Graubünden","name":"Region Surselva","lat":46.69564,"lon":9.04834,"geocoding":{},"distantMaxMiles":5},"Region Viamala":{"countryName":"Switzerland","stateName":"Graubünden","name":"Region Viamala","lat":46.58762,"lon":9.40035,"geocoding":{},"distantMaxMiles":5},"Rhäzüns":{"countryName":"Switzerland","stateName":"Graubünden","name":"Rhäzüns","lat":46.79891,"lon":9.39764,"geocoding":{},"distantMaxMiles":5},"Samedan":{"countryName":"Switzerland","stateName":"Graubünden","name":"Samedan","lat":46.53399,"lon":9.87276,"geocoding":{},"distantMaxMiles":5},"Scharans":{"countryName":"Switzerland","stateName":"Graubünden","name":"Scharans","lat":46.71814,"lon":9.45903,"geocoding":{},"distantMaxMiles":5},"Schiers":{"countryName":"Switzerland","stateName":"Graubünden","name":"Schiers","lat":46.96973,"lon":9.6872,"geocoding":{},"distantMaxMiles":5},"Scuol":{"countryName":"Switzerland","stateName":"Graubünden","name":"Scuol","lat":46.79671,"lon":10.29804,"geocoding":{},"distantMaxMiles":5},"Silvaplana":{"countryName":"Switzerland","stateName":"Graubünden","name":"Silvaplana","lat":46.4581,"lon":9.79514,"geocoding":{},"distantMaxMiles":5},"St. Moritz":{"countryName":"Switzerland","stateName":"Graubünden","name":"St. Moritz","lat":46.49937,"lon":9.84327,"geocoding":{},"distantMaxMiles":5},"Tamins":{"countryName":"Switzerland","stateName":"Graubünden","name":"Tamins","lat":46.82964,"lon":9.40648,"geocoding":{},"distantMaxMiles":5},"Thusis":{"countryName":"Switzerland","stateName":"Graubünden","name":"Thusis","lat":46.69724,"lon":9.43938,"geocoding":{},"distantMaxMiles":5},"Tiefencastel":{"countryName":"Switzerland","stateName":"Graubünden","name":"Tiefencastel","lat":46.66014,"lon":9.57883,"geocoding":{},"distantMaxMiles":5},"Trimmis":{"countryName":"Switzerland","stateName":"Graubünden","name":"Trimmis","lat":46.90075,"lon":9.5612,"geocoding":{},"distantMaxMiles":5},"Trun":{"countryName":"Switzerland","stateName":"Graubünden","name":"Trun","lat":46.74292,"lon":8.98716,"geocoding":{},"distantMaxMiles":5},"Untervaz":{"countryName":"Switzerland","stateName":"Graubünden","name":"Untervaz","lat":46.9275,"lon":9.53422,"geocoding":{},"distantMaxMiles":5},"Vals Platz":{"countryName":"Switzerland","stateName":"Graubünden","name":"Vals Platz","lat":46.61647,"lon":9.18025,"geocoding":{},"distantMaxMiles":5},"Zernez":{"countryName":"Switzerland","stateName":"Graubünden","name":"Zernez","lat":46.69862,"lon":10.09268,"geocoding":{},"distantMaxMiles":5},"Zizers":{"countryName":"Switzerland","stateName":"Graubünden","name":"Zizers","lat":46.93575,"lon":9.56491,"geocoding":{},"distantMaxMiles":5},"Zuoz":{"countryName":"Switzerland","stateName":"Graubünden","name":"Zuoz","lat":46.60206,"lon":9.95965,"geocoding":{},"distantMaxMiles":5}}},"Jura":{"countryName":"Switzerland","name":"Jura","isoCode":"JU","lat":47.3444474,"lon":7.1430608,"geocoding":{},"distantMaxMiles":5,"cities":{"Alle":{"countryName":"Switzerland","stateName":"Jura","name":"Alle","lat":47.42542,"lon":7.13018,"geocoding":{},"distantMaxMiles":5},"Bassecourt":{"countryName":"Switzerland","stateName":"Jura","name":"Bassecourt","lat":47.33808,"lon":7.24373,"geocoding":{},"distantMaxMiles":5},"Boncourt":{"countryName":"Switzerland","stateName":"Jura","name":"Boncourt","lat":47.49493,"lon":7.01297,"geocoding":{},"distantMaxMiles":5},"Courfaivre":{"countryName":"Switzerland","stateName":"Jura","name":"Courfaivre","lat":47.33461,"lon":7.28186,"geocoding":{},"distantMaxMiles":5},"Courgenay":{"countryName":"Switzerland","stateName":"Jura","name":"Courgenay","lat":47.40483,"lon":7.12522,"geocoding":{},"distantMaxMiles":5},"Courrendlin":{"countryName":"Switzerland","stateName":"Jura","name":"Courrendlin","lat":47.33853,"lon":7.37243,"geocoding":{},"distantMaxMiles":5},"Courroux":{"countryName":"Switzerland","stateName":"Jura","name":"Courroux","lat":47.36069,"lon":7.37371,"geocoding":{},"distantMaxMiles":5},"Courtételle":{"countryName":"Switzerland","stateName":"Jura","name":"Courtételle","lat":47.34074,"lon":7.31827,"geocoding":{},"distantMaxMiles":5},"Delémont":{"countryName":"Switzerland","stateName":"Jura","name":"Delémont","lat":47.36493,"lon":7.34453,"geocoding":{},"distantMaxMiles":5},"Delémont District":{"countryName":"Switzerland","stateName":"Jura","name":"Delémont District","lat":47.35434,"lon":7.33053,"geocoding":{},"distantMaxMiles":5},"Fontenais":{"countryName":"Switzerland","stateName":"Jura","name":"Fontenais","lat":47.40292,"lon":7.08108,"geocoding":{},"distantMaxMiles":5},"Franches-Montagnes District":{"countryName":"Switzerland","stateName":"Jura","name":"Franches-Montagnes District","lat":47.24935,"lon":7.04562,"geocoding":{},"distantMaxMiles":5},"Glovelier":{"countryName":"Switzerland","stateName":"Jura","name":"Glovelier","lat":47.33534,"lon":7.20556,"geocoding":{},"distantMaxMiles":5},"Le Noirmont":{"countryName":"Switzerland","stateName":"Jura","name":"Le Noirmont","lat":47.22464,"lon":6.95784,"geocoding":{},"distantMaxMiles":5},"Les Bois":{"countryName":"Switzerland","stateName":"Jura","name":"Les Bois","lat":47.17715,"lon":6.90498,"geocoding":{},"distantMaxMiles":5},"Les Breuleux":{"countryName":"Switzerland","stateName":"Jura","name":"Les Breuleux","lat":47.21099,"lon":7.00792,"geocoding":{},"distantMaxMiles":5},"Porrentruy":{"countryName":"Switzerland","stateName":"Jura","name":"Porrentruy","lat":47.41728,"lon":7.07573,"geocoding":{},"distantMaxMiles":5},"Porrentruy District":{"countryName":"Switzerland","stateName":"Jura","name":"Porrentruy District","lat":47.41475,"lon":7.07638,"geocoding":{},"distantMaxMiles":5},"Saignelégier":{"countryName":"Switzerland","stateName":"Jura","name":"Saignelégier","lat":47.25619,"lon":6.99648,"geocoding":{},"distantMaxMiles":5},"Vicques":{"countryName":"Switzerland","stateName":"Jura","name":"Vicques","lat":47.35,"lon":7.41342,"geocoding":{},"distantMaxMiles":5}}},"Lucerne":{"countryName":"Switzerland","name":"Lucerne","isoCode":"LU","lat":47.0795671,"lon":8.1662445,"geocoding":{},"distantMaxMiles":5,"cities":{"Adligenswil":{"countryName":"Switzerland","stateName":"Lucerne","name":"Adligenswil","lat":47.06521,"lon":8.36124,"geocoding":{},"distantMaxMiles":5},"Altishofen":{"countryName":"Switzerland","stateName":"Lucerne","name":"Altishofen","lat":47.19916,"lon":7.96964,"geocoding":{},"distantMaxMiles":5},"Ballwil":{"countryName":"Switzerland","stateName":"Lucerne","name":"Ballwil","lat":47.15371,"lon":8.32233,"geocoding":{},"distantMaxMiles":5},"Beromünster":{"countryName":"Switzerland","stateName":"Lucerne","name":"Beromünster","lat":47.20612,"lon":8.19265,"geocoding":{},"distantMaxMiles":5},"Buchrain":{"countryName":"Switzerland","stateName":"Lucerne","name":"Buchrain","lat":47.09625,"lon":8.34729,"geocoding":{},"distantMaxMiles":5},"Buttisholz":{"countryName":"Switzerland","stateName":"Lucerne","name":"Buttisholz","lat":47.11442,"lon":8.09425,"geocoding":{},"distantMaxMiles":5},"Büron":{"countryName":"Switzerland","stateName":"Lucerne","name":"Büron","lat":47.21192,"lon":8.0942,"geocoding":{},"distantMaxMiles":5},"Dagmersellen":{"countryName":"Switzerland","stateName":"Lucerne","name":"Dagmersellen","lat":47.21405,"lon":7.98519,"geocoding":{},"distantMaxMiles":5},"Ebikon":{"countryName":"Switzerland","stateName":"Lucerne","name":"Ebikon","lat":47.07937,"lon":8.34041,"geocoding":{},"distantMaxMiles":5},"Eich":{"countryName":"Switzerland","stateName":"Lucerne","name":"Eich","lat":47.15116,"lon":8.16695,"geocoding":{},"distantMaxMiles":5},"Emmen":{"countryName":"Switzerland","stateName":"Lucerne","name":"Emmen","lat":47.07819,"lon":8.27331,"geocoding":{},"distantMaxMiles":5},"Entlebuch":{"countryName":"Switzerland","stateName":"Lucerne","name":"Entlebuch","lat":46.99559,"lon":8.06354,"geocoding":{},"distantMaxMiles":5},"Entlebuch District":{"countryName":"Switzerland","stateName":"Lucerne","name":"Entlebuch District","lat":46.9259,"lon":8.01427,"geocoding":{},"distantMaxMiles":5},"Escholzmatt":{"countryName":"Switzerland","stateName":"Lucerne","name":"Escholzmatt","lat":46.9135,"lon":7.93426,"geocoding":{},"distantMaxMiles":5},"Ettiswil":{"countryName":"Switzerland","stateName":"Lucerne","name":"Ettiswil","lat":47.15031,"lon":8.01759,"geocoding":{},"distantMaxMiles":5},"Flühli":{"countryName":"Switzerland","stateName":"Lucerne","name":"Flühli","lat":46.88391,"lon":8.01558,"geocoding":{},"distantMaxMiles":5},"Geuensee":{"countryName":"Switzerland","stateName":"Lucerne","name":"Geuensee","lat":47.1997,"lon":8.10689,"geocoding":{},"distantMaxMiles":5},"Grosswangen":{"countryName":"Switzerland","stateName":"Lucerne","name":"Grosswangen","lat":47.1331,"lon":8.05041,"geocoding":{},"distantMaxMiles":5},"Gunzwil":{"countryName":"Switzerland","stateName":"Lucerne","name":"Gunzwil","lat":47.21072,"lon":8.17932,"geocoding":{},"distantMaxMiles":5},"Hasle":{"countryName":"Switzerland","stateName":"Lucerne","name":"Hasle","lat":46.97787,"lon":8.05326,"geocoding":{},"distantMaxMiles":5},"Hildisrieden":{"countryName":"Switzerland","stateName":"Lucerne","name":"Hildisrieden","lat":47.15068,"lon":8.22582,"geocoding":{},"distantMaxMiles":5},"Hitzkirch":{"countryName":"Switzerland","stateName":"Lucerne","name":"Hitzkirch","lat":47.22403,"lon":8.26425,"geocoding":{},"distantMaxMiles":5},"Hochdorf":{"countryName":"Switzerland","stateName":"Lucerne","name":"Hochdorf","lat":47.16841,"lon":8.29179,"geocoding":{},"distantMaxMiles":5},"Hochdorf District":{"countryName":"Switzerland","stateName":"Lucerne","name":"Hochdorf District","lat":47.17062,"lon":8.28702,"geocoding":{},"distantMaxMiles":5},"Hohenrain":{"countryName":"Switzerland","stateName":"Lucerne","name":"Hohenrain","lat":47.18083,"lon":8.31802,"geocoding":{},"distantMaxMiles":5},"Horw":{"countryName":"Switzerland","stateName":"Lucerne","name":"Horw","lat":47.01692,"lon":8.30956,"geocoding":{},"distantMaxMiles":5},"Inwil":{"countryName":"Switzerland","stateName":"Lucerne","name":"Inwil","lat":47.1253,"lon":8.34885,"geocoding":{},"distantMaxMiles":5},"Knutwil":{"countryName":"Switzerland","stateName":"Lucerne","name":"Knutwil","lat":47.19953,"lon":8.07315,"geocoding":{},"distantMaxMiles":5},"Kriens":{"countryName":"Switzerland","stateName":"Lucerne","name":"Kriens","lat":47.0311,"lon":8.28547,"geocoding":{},"distantMaxMiles":5},"Littau":{"countryName":"Switzerland","stateName":"Lucerne","name":"Littau","lat":47.05,"lon":8.26274,"geocoding":{},"distantMaxMiles":5},"Lucerne-Land District":{"countryName":"Switzerland","stateName":"Lucerne","name":"Lucerne-Land District","lat":47.04046,"lon":8.29271,"geocoding":{},"distantMaxMiles":5},"Lucerne-Stadt District":{"countryName":"Switzerland","stateName":"Lucerne","name":"Lucerne-Stadt District","lat":47.05334,"lon":8.31063,"geocoding":{},"distantMaxMiles":5},"Luthern":{"countryName":"Switzerland","stateName":"Lucerne","name":"Luthern","lat":47.05753,"lon":7.91692,"geocoding":{},"distantMaxMiles":5},"Luzern":{"countryName":"Switzerland","stateName":"Lucerne","name":"Luzern","lat":47.05048,"lon":8.30635,"geocoding":{},"distantMaxMiles":5},"Malters":{"countryName":"Switzerland","stateName":"Lucerne","name":"Malters","lat":47.03628,"lon":8.18193,"geocoding":{},"distantMaxMiles":5},"Mauensee":{"countryName":"Switzerland","stateName":"Lucerne","name":"Mauensee","lat":47.16703,"lon":8.06793,"geocoding":{},"distantMaxMiles":5},"Meggen":{"countryName":"Switzerland","stateName":"Lucerne","name":"Meggen","lat":47.04691,"lon":8.37467,"geocoding":{},"distantMaxMiles":5},"Meierskappel":{"countryName":"Switzerland","stateName":"Lucerne","name":"Meierskappel","lat":47.1247,"lon":8.44274,"geocoding":{},"distantMaxMiles":5},"Menznau":{"countryName":"Switzerland","stateName":"Lucerne","name":"Menznau","lat":47.08364,"lon":8.03971,"geocoding":{},"distantMaxMiles":5},"Nebikon":{"countryName":"Switzerland","stateName":"Lucerne","name":"Nebikon","lat":47.19185,"lon":7.97769,"geocoding":{},"distantMaxMiles":5},"Neudorf":{"countryName":"Switzerland","stateName":"Lucerne","name":"Neudorf","lat":47.17699,"lon":8.20911,"geocoding":{},"distantMaxMiles":5},"Neuenkirch":{"countryName":"Switzerland","stateName":"Lucerne","name":"Neuenkirch","lat":47.09989,"lon":8.20416,"geocoding":{},"distantMaxMiles":5},"Nottwil":{"countryName":"Switzerland","stateName":"Lucerne","name":"Nottwil","lat":47.13469,"lon":8.13774,"geocoding":{},"distantMaxMiles":5},"Oberkirch":{"countryName":"Switzerland","stateName":"Lucerne","name":"Oberkirch","lat":47.15642,"lon":8.11567,"geocoding":{},"distantMaxMiles":5},"Pfaffnau":{"countryName":"Switzerland","stateName":"Lucerne","name":"Pfaffnau","lat":47.22772,"lon":7.89719,"geocoding":{},"distantMaxMiles":5},"Reiden":{"countryName":"Switzerland","stateName":"Lucerne","name":"Reiden","lat":47.24719,"lon":7.97135,"geocoding":{},"distantMaxMiles":5},"Root":{"countryName":"Switzerland","stateName":"Lucerne","name":"Root","lat":47.11458,"lon":8.39021,"geocoding":{},"distantMaxMiles":5},"Ruswil":{"countryName":"Switzerland","stateName":"Lucerne","name":"Ruswil","lat":47.08425,"lon":8.12645,"geocoding":{},"distantMaxMiles":5},"Römerswil":{"countryName":"Switzerland","stateName":"Lucerne","name":"Römerswil","lat":47.16881,"lon":8.24528,"geocoding":{},"distantMaxMiles":5},"Schenkon":{"countryName":"Switzerland","stateName":"Lucerne","name":"Schenkon","lat":47.17765,"lon":8.13204,"geocoding":{},"distantMaxMiles":5},"Schwarzenberg":{"countryName":"Switzerland","stateName":"Lucerne","name":"Schwarzenberg","lat":47.01705,"lon":8.17261,"geocoding":{},"distantMaxMiles":5},"Schötz":{"countryName":"Switzerland","stateName":"Lucerne","name":"Schötz","lat":47.16896,"lon":7.9887,"geocoding":{},"distantMaxMiles":5},"Schüpfheim":{"countryName":"Switzerland","stateName":"Lucerne","name":"Schüpfheim","lat":46.95161,"lon":8.01723,"geocoding":{},"distantMaxMiles":5},"Sempach":{"countryName":"Switzerland","stateName":"Lucerne","name":"Sempach","lat":47.13577,"lon":8.19149,"geocoding":{},"distantMaxMiles":5},"Sursee":{"countryName":"Switzerland","stateName":"Lucerne","name":"Sursee","lat":47.17088,"lon":8.11113,"geocoding":{},"distantMaxMiles":5},"Sursee District":{"countryName":"Switzerland","stateName":"Lucerne","name":"Sursee District","lat":47.15591,"lon":8.13704,"geocoding":{},"distantMaxMiles":5},"Triengen":{"countryName":"Switzerland","stateName":"Lucerne","name":"Triengen","lat":47.23573,"lon":8.07652,"geocoding":{},"distantMaxMiles":5},"Udligenswil":{"countryName":"Switzerland","stateName":"Lucerne","name":"Udligenswil","lat":47.09005,"lon":8.40335,"geocoding":{},"distantMaxMiles":5},"Vitznau":{"countryName":"Switzerland","stateName":"Lucerne","name":"Vitznau","lat":47.01014,"lon":8.4842,"geocoding":{},"distantMaxMiles":5},"Wauwil":{"countryName":"Switzerland","stateName":"Lucerne","name":"Wauwil","lat":47.18457,"lon":8.021,"geocoding":{},"distantMaxMiles":5},"Weggis":{"countryName":"Switzerland","stateName":"Lucerne","name":"Weggis","lat":47.03208,"lon":8.43219,"geocoding":{},"distantMaxMiles":5},"Werthenstein":{"countryName":"Switzerland","stateName":"Lucerne","name":"Werthenstein","lat":47.05578,"lon":8.10182,"geocoding":{},"distantMaxMiles":5},"Wikon":{"countryName":"Switzerland","stateName":"Lucerne","name":"Wikon","lat":47.26339,"lon":7.96801,"geocoding":{},"distantMaxMiles":5},"Willisau":{"countryName":"Switzerland","stateName":"Lucerne","name":"Willisau","lat":47.12183,"lon":7.99418,"geocoding":{},"distantMaxMiles":5},"Willisau District":{"countryName":"Switzerland","stateName":"Lucerne","name":"Willisau District","lat":47.14097,"lon":7.95933,"geocoding":{},"distantMaxMiles":5},"Wolhusen":{"countryName":"Switzerland","stateName":"Lucerne","name":"Wolhusen","lat":47.05983,"lon":8.07389,"geocoding":{},"distantMaxMiles":5},"Zell":{"countryName":"Switzerland","stateName":"Lucerne","name":"Zell","lat":47.13673,"lon":7.92495,"geocoding":{},"distantMaxMiles":5}}},"Neuchâtel":{"countryName":"Switzerland","name":"Neuchâtel","isoCode":"NE","lat":46.9899874,"lon":6.9292732,"geocoding":{},"distantMaxMiles":5,"cities":{"Auvernier":{"countryName":"Switzerland","stateName":"Neuchâtel","name":"Auvernier","lat":46.97545,"lon":6.87903,"geocoding":{},"distantMaxMiles":5},"Bevaix":{"countryName":"Switzerland","stateName":"Neuchâtel","name":"Bevaix","lat":46.92958,"lon":6.8147,"geocoding":{},"distantMaxMiles":5},"Boudry":{"countryName":"Switzerland","stateName":"Neuchâtel","name":"Boudry","lat":46.94991,"lon":6.83757,"geocoding":{},"distantMaxMiles":5},"Boudry District":{"countryName":"Switzerland","stateName":"Neuchâtel","name":"Boudry District","lat":46.94594,"lon":6.82842,"geocoding":{},"distantMaxMiles":5},"Cernier":{"countryName":"Switzerland","stateName":"Neuchâtel","name":"Cernier","lat":47.05878,"lon":6.9004,"geocoding":{},"distantMaxMiles":5},"Chézard-Saint-Martin":{"countryName":"Switzerland","stateName":"Neuchâtel","name":"Chézard-Saint-Martin","lat":47.06629,"lon":6.93332,"geocoding":{},"distantMaxMiles":5},"Cornaux":{"countryName":"Switzerland","stateName":"Neuchâtel","name":"Cornaux","lat":47.0396,"lon":7.01872,"geocoding":{},"distantMaxMiles":5},"Cortaillod":{"countryName":"Switzerland","stateName":"Neuchâtel","name":"Cortaillod","lat":46.94306,"lon":6.8444,"geocoding":{},"distantMaxMiles":5},"Couvet":{"countryName":"Switzerland","stateName":"Neuchâtel","name":"Couvet","lat":46.92525,"lon":6.6327,"geocoding":{},"distantMaxMiles":5},"Dombresson":{"countryName":"Switzerland","stateName":"Neuchâtel","name":"Dombresson","lat":47.07192,"lon":6.9592,"geocoding":{},"distantMaxMiles":5},"Fleurier":{"countryName":"Switzerland","stateName":"Neuchâtel","name":"Fleurier","lat":46.90224,"lon":6.58253,"geocoding":{},"distantMaxMiles":5},"Fontainemelon":{"countryName":"Switzerland","stateName":"Neuchâtel","name":"Fontainemelon","lat":47.05495,"lon":6.8868,"geocoding":{},"distantMaxMiles":5},"Gorgier":{"countryName":"Switzerland","stateName":"Neuchâtel","name":"Gorgier","lat":46.90143,"lon":6.77985,"geocoding":{},"distantMaxMiles":5},"Grand-Savagnier":{"countryName":"Switzerland","stateName":"Neuchâtel","name":"Grand-Savagnier","lat":47.05101,"lon":6.95489,"geocoding":{},"distantMaxMiles":5},"La Chaux-de-Fonds":{"countryName":"Switzerland","stateName":"Neuchâtel","name":"La Chaux-de-Fonds","lat":47.09993,"lon":6.82586,"geocoding":{},"distantMaxMiles":5},"La Chaux-de-Fonds District":{"countryName":"Switzerland","stateName":"Neuchâtel","name":"La Chaux-de-Fonds District","lat":47.12159,"lon":6.84064,"geocoding":{},"distantMaxMiles":5},"Le Landeron":{"countryName":"Switzerland","stateName":"Neuchâtel","name":"Le Landeron","lat":47.05702,"lon":7.07052,"geocoding":{},"distantMaxMiles":5},"Le Locle":{"countryName":"Switzerland","stateName":"Neuchâtel","name":"Le Locle","lat":47.05619,"lon":6.74913,"geocoding":{},"distantMaxMiles":5},"Le Locle District":{"countryName":"Switzerland","stateName":"Neuchâtel","name":"Le Locle District","lat":47.01927,"lon":6.69635,"geocoding":{},"distantMaxMiles":5},"Les Brenets":{"countryName":"Switzerland","stateName":"Neuchâtel","name":"Les Brenets","lat":47.06774,"lon":6.70478,"geocoding":{},"distantMaxMiles":5},"Les Geneveys-sur-Coffrane":{"countryName":"Switzerland","stateName":"Neuchâtel","name":"Les Geneveys-sur-Coffrane","lat":47.01528,"lon":6.8513,"geocoding":{},"distantMaxMiles":5},"Les Ponts-de-Martel":{"countryName":"Switzerland","stateName":"Neuchâtel","name":"Les Ponts-de-Martel","lat":46.99735,"lon":6.73059,"geocoding":{},"distantMaxMiles":5},"Marin-Epagnier":{"countryName":"Switzerland","stateName":"Neuchâtel","name":"Marin-Epagnier","lat":47.01017,"lon":6.99941,"geocoding":{},"distantMaxMiles":5},"Neuchâtel":{"countryName":"Switzerland","stateName":"Neuchâtel","name":"Neuchâtel","lat":46.99179,"lon":6.931,"geocoding":{},"distantMaxMiles":5},"Neuchâtel District":{"countryName":"Switzerland","stateName":"Neuchâtel","name":"Neuchâtel District","lat":47.01799,"lon":6.99337,"geocoding":{},"distantMaxMiles":5},"Peseux":{"countryName":"Switzerland","stateName":"Neuchâtel","name":"Peseux","lat":46.98704,"lon":6.88903,"geocoding":{},"distantMaxMiles":5},"Saint-Aubin-Sauges":{"countryName":"Switzerland","stateName":"Neuchâtel","name":"Saint-Aubin-Sauges","lat":46.89419,"lon":6.77251,"geocoding":{},"distantMaxMiles":5},"Saint-Blaise":{"countryName":"Switzerland","stateName":"Neuchâtel","name":"Saint-Blaise","lat":47.01511,"lon":6.98832,"geocoding":{},"distantMaxMiles":5},"Travers":{"countryName":"Switzerland","stateName":"Neuchâtel","name":"Travers","lat":46.94018,"lon":6.67595,"geocoding":{},"distantMaxMiles":5},"Val-de-Ruz District":{"countryName":"Switzerland","stateName":"Neuchâtel","name":"Val-de-Ruz District","lat":47.04008,"lon":6.90829,"geocoding":{},"distantMaxMiles":5},"Val-de-Travers District":{"countryName":"Switzerland","stateName":"Neuchâtel","name":"Val-de-Travers District","lat":46.90357,"lon":6.5631,"geocoding":{},"distantMaxMiles":5}}},"Nidwalden":{"countryName":"Switzerland","name":"Nidwalden","isoCode":"NW","lat":46.9267016,"lon":8.3849982,"geocoding":{},"distantMaxMiles":5,"cities":{"Beckenried":{"countryName":"Switzerland","stateName":"Nidwalden","name":"Beckenried","lat":46.96653,"lon":8.47575,"geocoding":{},"distantMaxMiles":5},"Buochs":{"countryName":"Switzerland","stateName":"Nidwalden","name":"Buochs","lat":46.97398,"lon":8.42279,"geocoding":{},"distantMaxMiles":5},"Dallenwil":{"countryName":"Switzerland","stateName":"Nidwalden","name":"Dallenwil","lat":46.9242,"lon":8.38785,"geocoding":{},"distantMaxMiles":5},"Emmetten":{"countryName":"Switzerland","stateName":"Nidwalden","name":"Emmetten","lat":46.95658,"lon":8.51467,"geocoding":{},"distantMaxMiles":5},"Ennetbürgen":{"countryName":"Switzerland","stateName":"Nidwalden","name":"Ennetbürgen","lat":46.98423,"lon":8.41003,"geocoding":{},"distantMaxMiles":5},"Hergiswil":{"countryName":"Switzerland","stateName":"Nidwalden","name":"Hergiswil","lat":46.98429,"lon":8.30944,"geocoding":{},"distantMaxMiles":5},"Stans":{"countryName":"Switzerland","stateName":"Nidwalden","name":"Stans","lat":46.95805,"lon":8.36609,"geocoding":{},"distantMaxMiles":5},"Stansstad":{"countryName":"Switzerland","stateName":"Nidwalden","name":"Stansstad","lat":46.9768,"lon":8.33553,"geocoding":{},"distantMaxMiles":5},"Wolfenschiessen":{"countryName":"Switzerland","stateName":"Nidwalden","name":"Wolfenschiessen","lat":46.90322,"lon":8.39423,"geocoding":{},"distantMaxMiles":5}}},"Obwalden":{"countryName":"Switzerland","name":"Obwalden","isoCode":"OW","lat":46.877858,"lon":8.251249,"geocoding":{},"distantMaxMiles":5,"cities":{"Alpnach":{"countryName":"Switzerland","stateName":"Obwalden","name":"Alpnach","lat":46.94227,"lon":8.2718,"geocoding":{},"distantMaxMiles":5},"Engelberg":{"countryName":"Switzerland","stateName":"Obwalden","name":"Engelberg","lat":46.82107,"lon":8.40133,"geocoding":{},"distantMaxMiles":5},"Giswil":{"countryName":"Switzerland","stateName":"Obwalden","name":"Giswil","lat":46.83333,"lon":8.18065,"geocoding":{},"distantMaxMiles":5},"Kerns":{"countryName":"Switzerland","stateName":"Obwalden","name":"Kerns","lat":46.90121,"lon":8.27514,"geocoding":{},"distantMaxMiles":5},"Lungern":{"countryName":"Switzerland","stateName":"Obwalden","name":"Lungern","lat":46.78578,"lon":8.15984,"geocoding":{},"distantMaxMiles":5},"Sachseln":{"countryName":"Switzerland","stateName":"Obwalden","name":"Sachseln","lat":46.86718,"lon":8.23344,"geocoding":{},"distantMaxMiles":5},"Sarnen":{"countryName":"Switzerland","stateName":"Obwalden","name":"Sarnen","lat":46.89611,"lon":8.24531,"geocoding":{},"distantMaxMiles":5}}},"Schaffhausen":{"countryName":"Switzerland","name":"Schaffhausen","isoCode":"SH","lat":47.7009364,"lon":8.568004,"geocoding":{},"distantMaxMiles":5,"cities":{"Beringen":{"countryName":"Switzerland","stateName":"Schaffhausen","name":"Beringen","lat":47.69763,"lon":8.57431,"geocoding":{},"distantMaxMiles":5},"Bezirk Oberklettgau":{"countryName":"Switzerland","stateName":"Schaffhausen","name":"Bezirk Oberklettgau","lat":47.69893,"lon":8.51774,"geocoding":{},"distantMaxMiles":5},"Bezirk Reiat":{"countryName":"Switzerland","stateName":"Schaffhausen","name":"Bezirk Reiat","lat":47.74752,"lon":8.70821,"geocoding":{},"distantMaxMiles":5},"Bezirk Schaffhausen":{"countryName":"Switzerland","stateName":"Schaffhausen","name":"Bezirk Schaffhausen","lat":47.6944,"lon":8.63525,"geocoding":{},"distantMaxMiles":5},"Bezirk Schleitheim":{"countryName":"Switzerland","stateName":"Schaffhausen","name":"Bezirk Schleitheim","lat":47.75,"lon":8.51111,"geocoding":{},"distantMaxMiles":5},"Bezirk Stein":{"countryName":"Switzerland","stateName":"Schaffhausen","name":"Bezirk Stein","lat":47.66429,"lon":8.84683,"geocoding":{},"distantMaxMiles":5},"Bezirk Unterklettgau":{"countryName":"Switzerland","stateName":"Schaffhausen","name":"Bezirk Unterklettgau","lat":47.68,"lon":8.46333,"geocoding":{},"distantMaxMiles":5},"Hallau":{"countryName":"Switzerland","stateName":"Schaffhausen","name":"Hallau","lat":47.69648,"lon":8.45827,"geocoding":{},"distantMaxMiles":5},"Löhningen":{"countryName":"Switzerland","stateName":"Schaffhausen","name":"Löhningen","lat":47.70121,"lon":8.55236,"geocoding":{},"distantMaxMiles":5},"Neuhausen":{"countryName":"Switzerland","stateName":"Schaffhausen","name":"Neuhausen","lat":47.68579,"lon":8.61474,"geocoding":{},"distantMaxMiles":5},"Neunkirch":{"countryName":"Switzerland","stateName":"Schaffhausen","name":"Neunkirch","lat":47.69012,"lon":8.49981,"geocoding":{},"distantMaxMiles":5},"Ramsen":{"countryName":"Switzerland","stateName":"Schaffhausen","name":"Ramsen","lat":47.70797,"lon":8.80949,"geocoding":{},"distantMaxMiles":5},"Schaffhausen":{"countryName":"Switzerland","stateName":"Schaffhausen","name":"Schaffhausen","lat":47.69732,"lon":8.63493,"geocoding":{},"distantMaxMiles":5},"Schleitheim":{"countryName":"Switzerland","stateName":"Schaffhausen","name":"Schleitheim","lat":47.74818,"lon":8.48213,"geocoding":{},"distantMaxMiles":5},"Stein am Rhein":{"countryName":"Switzerland","stateName":"Schaffhausen","name":"Stein am Rhein","lat":47.65933,"lon":8.85964,"geocoding":{},"distantMaxMiles":5},"Stetten":{"countryName":"Switzerland","stateName":"Schaffhausen","name":"Stetten","lat":47.74025,"lon":8.66298,"geocoding":{},"distantMaxMiles":5},"Thayngen":{"countryName":"Switzerland","stateName":"Schaffhausen","name":"Thayngen","lat":47.74717,"lon":8.70724,"geocoding":{},"distantMaxMiles":5},"Wilchingen":{"countryName":"Switzerland","stateName":"Schaffhausen","name":"Wilchingen","lat":47.66745,"lon":8.46774,"geocoding":{},"distantMaxMiles":5}}},"Schwyz":{"countryName":"Switzerland","name":"Schwyz","isoCode":"SZ","lat":47.0207138,"lon":8.6529884,"geocoding":{},