{"name":"Burkina Faso","isoCode":"BF","lat":13,"lon":-2,"geocoding":{},"distantMaxMiles":5,"states":{"Balé Province":{"countryName":"Burkina Faso","name":"Balé Province","isoCode":"BAL","lat":11.7820602,"lon":-3.0175712,"geocoding":{},"distantMaxMiles":5,"cities":{}},"Bam Province":{"countryName":"Burkina Faso","name":"Bam Province","isoCode":"BAM","lat":13.446133,"lon":-1.5983959,"geocoding":{},"distantMaxMiles":5,"cities":{}},"Banwa Province":{"countryName":"Burkina Faso","name":"Banwa Province","isoCode":"BAN","lat":12.1323053,"lon":-4.1513764,"geocoding":{},"distantMaxMiles":5,"cities":{}},"Bazèga Province":{"countryName":"Burkina Faso","name":"Bazèga Province","isoCode":"BAZ","lat":11.9767692,"lon":-1.443469,"geocoding":{},"distantMaxMiles":5,"cities":{}},"Boucle du Mouhoun Region":{"countryName":"Burkina Faso","name":"Boucle du Mouhoun Region","isoCode":"01","lat":12.4166,"lon":-3.4195527,"geocoding":{},"distantMaxMiles":5,"cities":{"Barani":{"countryName":"Burkina Faso","stateName":"Boucle du Mouhoun Region","name":"Barani","lat":13.1691,"lon":-3.8899,"geocoding":{},"distantMaxMiles":5},"Boromo":{"countryName":"Burkina Faso","stateName":"Boucle du Mouhoun Region","name":"Boromo","lat":11.74542,"lon":-2.93006,"geocoding":{},"distantMaxMiles":5},"Dédougou":{"countryName":"Burkina Faso","stateName":"Boucle du Mouhoun Region","name":"Dédougou","lat":12.46338,"lon":-3.46075,"geocoding":{},"distantMaxMiles":5},"Nouna":{"countryName":"Burkina Faso","stateName":"Boucle du Mouhoun Region","name":"Nouna","lat":12.72939,"lon":-3.86305,"geocoding":{},"distantMaxMiles":5},"Province de la Kossi":{"countryName":"Burkina Faso","stateName":"Boucle du Mouhoun Region","name":"Province de la Kossi","lat":12.91667,"lon":-3.83333,"geocoding":{},"distantMaxMiles":5},"Province des Balé":{"countryName":"Burkina Faso","stateName":"Boucle du Mouhoun Region","name":"Province des Balé","lat":11.71667,"lon":-3.05,"geocoding":{},"distantMaxMiles":5},"Province des Banwa":{"countryName":"Burkina Faso","stateName":"Boucle du Mouhoun Region","name":"Province des Banwa","lat":12.16667,"lon":-4.16667,"geocoding":{},"distantMaxMiles":5},"Province du Mouhoun":{"countryName":"Burkina Faso","stateName":"Boucle du Mouhoun Region","name":"Province du Mouhoun","lat":12.25,"lon":-3.41667,"geocoding":{},"distantMaxMiles":5},"Province du Nayala":{"countryName":"Burkina Faso","stateName":"Boucle du Mouhoun Region","name":"Province du Nayala","lat":12.66667,"lon":-3,"geocoding":{},"distantMaxMiles":5},"Province du Sourou":{"countryName":"Burkina Faso","stateName":"Boucle du Mouhoun Region","name":"Province du Sourou","lat":13.25,"lon":-3,"geocoding":{},"distantMaxMiles":5},"Salanso":{"countryName":"Burkina Faso","stateName":"Boucle du Mouhoun Region","name":"Salanso","lat":12.17423,"lon":-4.08477,"geocoding":{},"distantMaxMiles":5},"Toma":{"countryName":"Burkina Faso","stateName":"Boucle du Mouhoun Region","name":"Toma","lat":12.75844,"lon":-2.89879,"geocoding":{},"distantMaxMiles":5},"Tougan":{"countryName":"Burkina Faso","stateName":"Boucle du Mouhoun Region","name":"Tougan","lat":13.0725,"lon":-3.0694,"geocoding":{},"distantMaxMiles":5}}},"Bougouriba Province":{"countryName":"Burkina Faso","name":"Bougouriba Province","isoCode":"BGR","lat":10.8722646,"lon":-3.3388917,"geocoding":{},"distantMaxMiles":5,"cities":{}},"Boulgou":{"countryName":"Burkina Faso","name":"Boulgou","isoCode":"BLG","lat":11.4336766,"lon":-0.3748354,"geocoding":{},"distantMaxMiles":5,"cities":{}},"Cascades Region":{"countryName":"Burkina Faso","name":"Cascades Region","isoCode":"02","lat":10.4072992,"lon":-4.5624426,"geocoding":{},"distantMaxMiles":5,"cities":{"Banfora":{"countryName":"Burkina Faso","stateName":"Cascades Region","name":"Banfora","lat":10.63333,"lon":-4.76667,"geocoding":{},"distantMaxMiles":5},"Province de la Comoé":{"countryName":"Burkina Faso","stateName":"Cascades Region","name":"Province de la Comoé","lat":10.33333,"lon":-4.41667,"geocoding":{},"distantMaxMiles":5},"Province de la Léraba":{"countryName":"Burkina Faso","stateName":"Cascades Region","name":"Province de la Léraba","lat":10.66667,"lon":-5.2,"geocoding":{},"distantMaxMiles":5},"Sindou":{"countryName":"Burkina Faso","stateName":"Cascades Region","name":"Sindou","lat":10.66667,"lon":-5.16667,"geocoding":{},"distantMaxMiles":5}}},"Centre":{"countryName":"Burkina Faso","name":"Centre","isoCode":"03","geocoding":{},"distantMaxMiles":5,"cities":{"Kadiogo Province":{"countryName":"Burkina Faso","stateName":"Centre","name":"Kadiogo Province","lat":12.33333,"lon":-1.5,"geocoding":{},"distantMaxMiles":5},"Ouagadougou":{"countryName":"Burkina Faso","stateName":"Centre","name":"Ouagadougou","lat":12.36566,"lon":-1.53388,"geocoding":{},"distantMaxMiles":5}}},"Centre-Est Region":{"countryName":"Burkina Faso","name":"Centre-Est Region","isoCode":"04","lat":11.5247674,"lon":-0.1494988,"geocoding":{},"distantMaxMiles":5,"cities":{"Garango":{"countryName":"Burkina Faso","stateName":"Centre-Est Region","name":"Garango","lat":11.8,"lon":-0.55056,"geocoding":{},"distantMaxMiles":5},"Koupéla":{"countryName":"Burkina Faso","stateName":"Centre-Est Region","name":"Koupéla","lat":12.17864,"lon":-0.35103,"geocoding":{},"distantMaxMiles":5},"Kouritenga Province":{"countryName":"Burkina Faso","stateName":"Centre-Est Region","name":"Kouritenga Province","lat":12.2,"lon":-0.3,"geocoding":{},"distantMaxMiles":5},"Ouargaye":{"countryName":"Burkina Faso","stateName":"Centre-Est Region","name":"Ouargaye","lat":11.50202,"lon":0.05886,"geocoding":{},"distantMaxMiles":5},"Province du Boulgou":{"countryName":"Burkina Faso","stateName":"Centre-Est Region","name":"Province du Boulgou","lat":11.5,"lon":-0.41667,"geocoding":{},"distantMaxMiles":5},"Province du Koulpélogo":{"countryName":"Burkina Faso","stateName":"Centre-Est Region","name":"Province du Koulpélogo","lat":11.41667,"lon":0.16667,"geocoding":{},"distantMaxMiles":5},"Tenkodogo":{"countryName":"Burkina Faso","stateName":"Centre-Est Region","name":"Tenkodogo","lat":11.78,"lon":-0.36972,"geocoding":{},"distantMaxMiles":5}}},"Centre-Nord Region":{"countryName":"Burkina Faso","name":"Centre-Nord Region","isoCode":"05","lat":13.1724464,"lon":-0.9056623,"geocoding":{},"distantMaxMiles":5,"cities":{"Boulsa":{"countryName":"Burkina Faso","stateName":"Centre-Nord Region","name":"Boulsa","lat":12.66664,"lon":-0.57469,"geocoding":{},"distantMaxMiles":5},"Kaya":{"countryName":"Burkina Faso","stateName":"Centre-Nord Region","name":"Kaya","lat":13.09167,"lon":-1.08444,"geocoding":{},"distantMaxMiles":5},"Kongoussi":{"countryName":"Burkina Faso","stateName":"Centre-Nord Region","name":"Kongoussi","lat":13.32583,"lon":-1.53472,"geocoding":{},"distantMaxMiles":5},"Province du Bam":{"countryName":"Burkina Faso","stateName":"Centre-Nord Region","name":"Province du Bam","lat":13.46667,"lon":-1.58333,"geocoding":{},"distantMaxMiles":5},"Province du Namentenga":{"countryName":"Burkina Faso","stateName":"Centre-Nord Region","name":"Province du Namentenga","lat":13.25,"lon":-0.5,"geocoding":{},"distantMaxMiles":5},"Province du Sanmatenga":{"countryName":"Burkina Faso","stateName":"Centre-Nord Region","name":"Province du Sanmatenga","lat":13.25,"lon":-1.08333,"geocoding":{},"distantMaxMiles":5}}},"Centre-Ouest Region":{"countryName":"Burkina Faso","name":"Centre-Ouest Region","isoCode":"06","lat":11.8798466,"lon":-2.302446,"geocoding":{},"distantMaxMiles":5,"cities":{"Goulouré":{"countryName":"Burkina Faso","stateName":"Centre-Ouest Region","name":"Goulouré","lat":12.23484,"lon":-1.93394,"geocoding":{},"distantMaxMiles":5},"Kokologo":{"countryName":"Burkina Faso","stateName":"Centre-Ouest Region","name":"Kokologo","lat":12.19392,"lon":-1.87687,"geocoding":{},"distantMaxMiles":5},"Koudougou":{"countryName":"Burkina Faso","stateName":"Centre-Ouest Region","name":"Koudougou","lat":12.25263,"lon":-2.36272,"geocoding":{},"distantMaxMiles":5},"Léo":{"countryName":"Burkina Faso","stateName":"Centre-Ouest Region","name":"Léo","lat":11.10033,"lon":-2.10654,"geocoding":{},"distantMaxMiles":5},"Pitmoaga":{"countryName":"Burkina Faso","stateName":"Centre-Ouest Region","name":"Pitmoaga","lat":12.24564,"lon":-1.88148,"geocoding":{},"distantMaxMiles":5},"Province de la Sissili":{"countryName":"Burkina Faso","stateName":"Centre-Ouest Region","name":"Province de la Sissili","lat":11.33333,"lon":-2.25,"geocoding":{},"distantMaxMiles":5},"Province du Boulkiemdé":{"countryName":"Burkina Faso","stateName":"Centre-Ouest Region","name":"Province du Boulkiemdé","lat":12.33333,"lon":-2.16667,"geocoding":{},"distantMaxMiles":5},"Province du Sanguié":{"countryName":"Burkina Faso","stateName":"Centre-Ouest Region","name":"Province du Sanguié","lat":12.16667,"lon":-2.66667,"geocoding":{},"distantMaxMiles":5},"Province du Ziro":{"countryName":"Burkina Faso","stateName":"Centre-Ouest Region","name":"Province du Ziro","lat":11.58333,"lon":-1.91667,"geocoding":{},"distantMaxMiles":5},"Réo":{"countryName":"Burkina Faso","stateName":"Centre-Ouest Region","name":"Réo","lat":12.31963,"lon":-2.47094,"geocoding":{},"distantMaxMiles":5},"Sapouy":{"countryName":"Burkina Faso","stateName":"Centre-Ouest Region","name":"Sapouy","lat":11.55444,"lon":-1.77361,"geocoding":{},"distantMaxMiles":5}}},"Centre-Sud Region":{"countryName":"Burkina Faso","name":"Centre-Sud Region","isoCode":"07","lat":11.5228911,"lon":-1.0586135,"geocoding":{},"distantMaxMiles":5,"cities":{"Bazega Province":{"countryName":"Burkina Faso","stateName":"Centre-Sud Region","name":"Bazega Province","lat":11.91667,"lon":-1.5,"geocoding":{},"distantMaxMiles":5},"Kombissiri":{"countryName":"Burkina Faso","stateName":"Centre-Sud Region","name":"Kombissiri","lat":12.06884,"lon":-1.33644,"geocoding":{},"distantMaxMiles":5},"Manga":{"countryName":"Burkina Faso","stateName":"Centre-Sud Region","name":"Manga","lat":11.66361,"lon":-1.07306,"geocoding":{},"distantMaxMiles":5},"Nahouri Province":{"countryName":"Burkina Faso","stateName":"Centre-Sud Region","name":"Nahouri Province","lat":11.25,"lon":-1.25,"geocoding":{},"distantMaxMiles":5},"Pô":{"countryName":"Burkina Faso","stateName":"Centre-Sud Region","name":"Pô","lat":11.16972,"lon":-1.145,"geocoding":{},"distantMaxMiles":5},"Zoundweogo Province":{"countryName":"Burkina Faso","stateName":"Centre-Sud Region","name":"Zoundweogo Province","lat":11.58333,"lon":-1,"geocoding":{},"distantMaxMiles":5}}},"Comoé Province":{"countryName":"Burkina Faso","name":"Comoé Province","isoCode":"COM","lat":10.4072992,"lon":-4.5624426,"geocoding":{},"distantMaxMiles":5,"cities":{}},"Est Region":{"countryName":"Burkina Faso","name":"Est Region","isoCode":"08","lat":12.4365526,"lon":0.9056623,"geocoding":{},"distantMaxMiles":5,"cities":{"Bogandé":{"countryName":"Burkina Faso","stateName":"Est Region","name":"Bogandé","lat":12.9704,"lon":-0.14953,"geocoding":{},"distantMaxMiles":5},"Diapaga":{"countryName":"Burkina Faso","stateName":"Est Region","name":"Diapaga","lat":12.07305,"lon":1.78838,"geocoding":{},"distantMaxMiles":5},"Fada N'gourma":{"countryName":"Burkina Faso","stateName":"Est Region","name":"Fada N'gourma","lat":12.06157,"lon":0.35843,"geocoding":{},"distantMaxMiles":5},"Gayéri":{"countryName":"Burkina Faso","stateName":"Est Region","name":"Gayéri","lat":12.64824,"lon":0.49314,"geocoding":{},"distantMaxMiles":5},"Gnagna Province":{"countryName":"Burkina Faso","stateName":"Est Region","name":"Gnagna Province","lat":12.9188,"lon":0.0392,"geocoding":{},"distantMaxMiles":5},"Pama":{"countryName":"Burkina Faso","stateName":"Est Region","name":"Pama","lat":11.24972,"lon":0.7075,"geocoding":{},"distantMaxMiles":5},"Province de la Komandjoari":{"countryName":"Burkina Faso","stateName":"Est Region","name":"Province de la Komandjoari","lat":12.66667,"lon":0.66667,"geocoding":{},"distantMaxMiles":5},"Province de la Kompienga":{"countryName":"Burkina Faso","stateName":"Est Region","name":"Province de la Kompienga","lat":11.41667,"lon":0.91667,"geocoding":{},"distantMaxMiles":5},"Province de la Tapoa":{"countryName":"Burkina Faso","stateName":"Est Region","name":"Province de la Tapoa","lat":12,"lon":1.75,"geocoding":{},"distantMaxMiles":5},"Province du Gourma":{"countryName":"Burkina Faso","stateName":"Est Region","name":"Province du Gourma","lat":12.08333,"lon":0.5,"geocoding":{},"distantMaxMiles":5}}},"Ganzourgou Province":{"countryName":"Burkina Faso","name":"Ganzourgou Province","isoCode":"GAN","lat":12.2537648,"lon":-0.7532809,"geocoding":{},"distantMaxMiles":5,"cities":{}},"Gnagna Province":{"countryName":"Burkina Faso","name":"Gnagna Province","isoCode":"GNA","lat":12.8974992,"lon":0.0746767,"geocoding":{},"distantMaxMiles":5,"cities":{}},"Gourma Province":{"countryName":"Burkina Faso","name":"Gourma Province","isoCode":"GOU","lat":12.1624473,"lon":0.6773046,"geocoding":{},"distantMaxMiles":5,"cities":{}},"Hauts-Bassins Region":{"countryName":"Burkina Faso","name":"Hauts-Bassins Region","isoCode":"09","lat":11.4942003,"lon":-4.2333355,"geocoding":{},"distantMaxMiles":5,"cities":{"Bobo-Dioulasso":{"countryName":"Burkina Faso","stateName":"Hauts-Bassins Region","name":"Bobo-Dioulasso","lat":11.17715,"lon":-4.2979,"geocoding":{},"distantMaxMiles":5},"Houndé":{"countryName":"Burkina Faso","stateName":"Hauts-Bassins Region","name":"Houndé","lat":11.5,"lon":-3.51667,"geocoding":{},"distantMaxMiles":5},"Province du Houet":{"countryName":"Burkina Faso","stateName":"Hauts-Bassins Region","name":"Province du Houet","lat":11.33333,"lon":-4.25,"geocoding":{},"distantMaxMiles":5},"Province du Kénédougou":{"countryName":"Burkina Faso","stateName":"Hauts-Bassins Region","name":"Province du Kénédougou","lat":11.41667,"lon":-5,"geocoding":{},"distantMaxMiles":5},"Province du Tuy":{"countryName":"Burkina Faso","stateName":"Hauts-Bassins Region","name":"Province du Tuy","lat":11.41667,"lon":-3.41667,"geocoding":{},"distantMaxMiles":5}}},"Houet Province":{"countryName":"Burkina Faso","name":"Houet Province","isoCode":"HOU","lat":11.1320447,"lon":-4.2333355,"geocoding":{},"distantMaxMiles":5,"cities":{}},"Ioba Province":{"countryName":"Burkina Faso","name":"Ioba Province","isoCode":"IOB","lat":11.0562034,"lon":-3.0175712,"geocoding":{},"distantMaxMiles":5,"cities":{}},"Kadiogo Province":{"countryName":"Burkina Faso","name":"Kadiogo Province","isoCode":"KAD","lat":12.3425897,"lon":-1.443469,"geocoding":{},"distantMaxMiles":5,"cities":{}},"Komondjari Province":{"countryName":"Burkina Faso","name":"Komondjari Province","isoCode":"KMD","lat":12.7126527,"lon":0.6773046,"geocoding":{},"distantMaxMiles":5,"cities":{}},"Kompienga Province":{"countryName":"Burkina Faso","name":"Kompienga Province","isoCode":"KMP","lat":11.5238362,"lon":0.7532809,"geocoding":{},"distantMaxMiles":5,"cities":{}},"Kossi Province":{"countryName":"Burkina Faso","name":"Kossi Province","isoCode":"KOS","lat":12.960458,"lon":-3.9062688,"geocoding":{},"distantMaxMiles":5,"cities":{}},"Koulpélogo Province":{"countryName":"Burkina Faso","name":"Koulpélogo Province","isoCode":"KOP","lat":11.5247674,"lon":0.1494988,"geocoding":{},"distantMaxMiles":5,"cities":{}},"Kouritenga Province":{"countryName":"Burkina Faso","name":"Kouritenga Province","isoCode":"KOT","lat":12.1631813,"lon":-0.2244662,"geocoding":{},"distantMaxMiles":5,"cities":{}},"Kourwéogo Province":{"countryName":"Burkina Faso","name":"Kourwéogo Province","isoCode":"KOW","lat":12.7077495,"lon":-1.7538817,"geocoding":{},"distantMaxMiles":5,"cities":{}},"Kénédougou Province":{"countryName":"Burkina Faso","name":"Kénédougou Province","isoCode":"KEN","lat":11.3919395,"lon":-4.976654,"geocoding":{},"distantMaxMiles":5,"cities":{}},"Loroum Province":{"countryName":"Burkina Faso","name":"Loroum Province","isoCode":"LOR","lat":13.8129814,"lon":-2.0665197,"geocoding":{},"distantMaxMiles":5,"cities":{}},"Léraba Province":{"countryName":"Burkina Faso","name":"Léraba Province","isoCode":"LER","lat":10.6648785,"lon":-5.3102505,"geocoding":{},"distantMaxMiles":5,"cities":{}},"Mouhoun":{"countryName":"Burkina Faso","name":"Mouhoun","isoCode":"MOU","lat":12.1432381,"lon":-3.3388917,"geocoding":{},"distantMaxMiles":5,"cities":{}},"Nahouri Province":{"countryName":"Burkina Faso","name":"Nahouri Province","isoCode":"NAO","lat":11.2502267,"lon":-1.135302,"geocoding":{},"distantMaxMiles":5,"cities":{}},"Namentenga Province":{"countryName":"Burkina Faso","name":"Namentenga Province","isoCode":"NAM","lat":13.0812584,"lon":-0.5257823,"geocoding":{},"distantMaxMiles":5,"cities":{}},"Nayala Province":{"countryName":"Burkina Faso","name":"Nayala Province","isoCode":"NAY","lat":12.6964558,"lon":-3.0175712,"geocoding":{},"distantMaxMiles":5,"cities":{}},"Nord Region, Burkina Faso":{"countryName":"Burkina Faso","name":"Nord Region, Burkina Faso","isoCode":"10","lat":13.718252,"lon":-2.302446,"geocoding":{},"distantMaxMiles":5,"cities":{"Gourcy":{"countryName":"Burkina Faso","stateName":"Nord Region, Burkina Faso","name":"Gourcy","lat":13.20776,"lon":-2.35893,"geocoding":{},"distantMaxMiles":5},"Ouahigouya":{"countryName":"Burkina Faso","stateName":"Nord Region, Burkina Faso","name":"Ouahigouya","lat":13.58278,"lon":-2.42158,"geocoding":{},"distantMaxMiles":5},"Province du Loroum":{"countryName":"Burkina Faso","stateName":"Nord Region, Burkina Faso","name":"Province du Loroum","lat":13.91667,"lon":-2.16667,"geocoding":{},"distantMaxMiles":5},"Province du Passoré":{"countryName":"Burkina Faso","stateName":"Nord Region, Burkina Faso","name":"Province du Passoré","lat":12.91667,"lon":-2.16667,"geocoding":{},"distantMaxMiles":5},"Province du Yatenga":{"countryName":"Burkina Faso","stateName":"Nord Region, Burkina Faso","name":"Province du Yatenga","lat":13.58333,"lon":-2.41667,"geocoding":{},"distantMaxMiles":5},"Province du Zondoma":{"countryName":"Burkina Faso","stateName":"Nord Region, Burkina Faso","name":"Province du Zondoma","lat":13.18333,"lon":-2.36667,"geocoding":{},"distantMaxMiles":5},"Titao":{"countryName":"Burkina Faso","stateName":"Nord Region, Burkina Faso","name":"Titao","lat":13.76667,"lon":-2.06667,"geocoding":{},"distantMaxMiles":5},"Yako":{"countryName":"Burkina Faso","stateName":"Nord Region, Burkina Faso","name":"Yako","lat":12.9591,"lon":-2.26075,"geocoding":{},"distantMaxMiles":5}}},"Noumbiel Province":{"countryName":"Burkina Faso","name":"Noumbiel Province","isoCode":"NOU","lat":9.8440946,"lon":-2.9775558,"geocoding":{},"distantMaxMiles":5,"cities":{}},"Oubritenga Province":{"countryName":"Burkina Faso","name":"Oubritenga Province","isoCode":"OUB","lat":12.7096087,"lon":-1.443469,"geocoding":{},"distantMaxMiles":5,"cities":{}},"Oudalan Province":{"countryName":"Burkina Faso","name":"Oudalan Province","isoCode":"OUD","lat":14.471902,"lon":-0.4502368,"geocoding":{},"distantMaxMiles":5,"cities":{}},"Passoré Province":{"countryName":"Burkina Faso","name":"Passoré Province","isoCode":"PAS","lat":12.8881221,"lon":-2.2236667,"geocoding":{},"distantMaxMiles":5,"cities":{}},"Plateau-Central Region":{"countryName":"Burkina Faso","name":"Plateau-Central Region","isoCode":"11","lat":12.2537648,"lon":-0.7532809,"geocoding":{},"distantMaxMiles":5,"cities":{"Boussé":{"countryName":"Burkina Faso","stateName":"Plateau-Central Region","name":"Boussé","lat":12.66121,"lon":-1.89515,"geocoding":{},"distantMaxMiles":5},"Oubritenga":{"countryName":"Burkina Faso","stateName":"Plateau-Central Region","name":"Oubritenga","lat":12.66667,"lon":-1.33333,"geocoding":{},"distantMaxMiles":5},"Province du Ganzourgou":{"countryName":"Burkina Faso","stateName":"Plateau-Central Region","name":"Province du Ganzourgou","lat":12.26667,"lon":-0.76667,"geocoding":{},"distantMaxMiles":5},"Province du Kourwéogo":{"countryName":"Burkina Faso","stateName":"Plateau-Central Region","name":"Province du Kourwéogo","lat":12.58333,"lon":-1.76667,"geocoding":{},"distantMaxMiles":5},"Ziniaré":{"countryName":"Burkina Faso","stateName":"Plateau-Central Region","name":"Ziniaré","lat":12.58186,"lon":-1.2971,"geocoding":{},"distantMaxMiles":5},"Zorgo":{"countryName":"Burkina Faso","stateName":"Plateau-Central Region","name":"Zorgo","lat":12.24922,"lon":-0.61527,"geocoding":{},"distantMaxMiles":5}}},"Poni Province":{"countryName":"Burkina Faso","name":"Poni Province","isoCode":"PON","lat":10.3325996,"lon":-3.3388917,"geocoding":{},"distantMaxMiles":5,"cities":{}},"Sahel Region":{"countryName":"Burkina Faso","name":"Sahel Region","isoCode":"12","lat":14.1000865,"lon":-0.1494988,"geocoding":{},"distantMaxMiles":5,"cities":{"Djibo":{"countryName":"Burkina Faso","stateName":"Sahel Region","name":"Djibo","lat":14.0994,"lon":-1.62554,"geocoding":{},"distantMaxMiles":5},"Dori":{"countryName":"Burkina Faso","stateName":"Sahel Region","name":"Dori","lat":14.0354,"lon":-0.0345,"geocoding":{},"distantMaxMiles":5},"Gorom-Gorom":{"countryName":"Burkina Faso","stateName":"Sahel Region","name":"Gorom-Gorom","lat":14.4429,"lon":-0.23468,"geocoding":{},"distantMaxMiles":5},"Province de l’Oudalan":{"countryName":"Burkina Faso","stateName":"Sahel Region","name":"Province de l’Oudalan","lat":14.66667,"lon":-0.33333,"geocoding":{},"distantMaxMiles":5},"Province du Soum":{"countryName":"Burkina Faso","stateName":"Sahel Region","name":"Province du Soum","lat":14.33333,"lon":-1.25,"geocoding":{},"distantMaxMiles":5},"Province du Séno":{"countryName":"Burkina Faso","stateName":"Sahel Region","name":"Province du Séno","lat":13.964,"lon":0.012,"geocoding":{},"distantMaxMiles":5},"Province du Yagha":{"countryName":"Burkina Faso","stateName":"Sahel Region","name":"Province du Yagha","lat":13.41667,"lon":0.58333,"geocoding":{},"distantMaxMiles":5}}},"Sanguié Province":{"countryName":"Burkina Faso","name":"Sanguié Province","isoCode":"SNG","lat":12.1501861,"lon":-2.6983868,"geocoding":{},"distantMaxMiles":5,"cities":{}},"Sanmatenga Province":{"countryName":"Burkina Faso","name":"Sanmatenga Province","isoCode":"SMT","lat":13.3565304,"lon":-1.0586135,"geocoding":{},"distantMaxMiles":5,"cities":{}},"Sissili Province":{"countryName":"Burkina Faso","name":"Sissili Province","isoCode":"SIS","lat":11.2441219,"lon":-2.2236667,"geocoding":{},"distantMaxMiles":5,"cities":{}},"Soum Province":{"countryName":"Burkina Faso","name":"Soum Province","isoCode":"SOM","lat":14.0962841,"lon":-1.366216,"geocoding":{},"distantMaxMiles":5,"cities":{}},"Sourou Province":{"countryName":"Burkina Faso","name":"Sourou Province","isoCode":"SOR","lat":13.341803,"lon":-2.9375739,"geocoding":{},"distantMaxMiles":5,"cities":{}},"Sud-Ouest Region":{"countryName":"Burkina Faso","name":"Sud-Ouest Region","isoCode":"13","lat":10.4231493,"lon":-3.2583626,"geocoding":{},"distantMaxMiles":5,"cities":{"Batié":{"countryName":"Burkina Faso","stateName":"Sud-Ouest Region","name":"Batié","lat":9.88333,"lon":-2.91667,"geocoding":{},"distantMaxMiles":5},"Dano":{"countryName":"Burkina Faso","stateName":"Sud-Ouest Region","name":"Dano","lat":11.1464,"lon":-3.05784,"geocoding":{},"distantMaxMiles":5},"Diébougou":{"countryName":"Burkina Faso","stateName":"Sud-Ouest Region","name":"Diébougou","lat":10.96209,"lon":-3.24967,"geocoding":{},"distantMaxMiles":5},"Province de la Bougouriba":{"countryName":"Burkina Faso","stateName":"Sud-Ouest Region","name":"Province de la Bougouriba","lat":10.83333,"lon":-3.41667,"geocoding":{},"distantMaxMiles":5},"Province du Ioba":{"countryName":"Burkina Faso","stateName":"Sud-Ouest Region","name":"Province du Ioba","lat":11.08333,"lon":-3.08333,"geocoding":{},"distantMaxMiles":5},"Province du Noumbièl":{"countryName":"Burkina Faso","stateName":"Sud-Ouest Region","name":"Province du Noumbièl","lat":9.83333,"lon":-3,"geocoding":{},"distantMaxMiles":5},"Province du Poni":{"countryName":"Burkina Faso","stateName":"Sud-Ouest Region","name":"Province du Poni","lat":10.25,"lon":-3.41667,"geocoding":{},"distantMaxMiles":5}}},"Séno Province":{"countryName":"Burkina Faso","name":"Séno Province","isoCode":"SEN","lat":14.0072234,"lon":-0.0746767,"geocoding":{},"distantMaxMiles":5,"cities":{}},"Tapoa Province":{"countryName":"Burkina Faso","name":"Tapoa Province","isoCode":"TAP","lat":12.2497072,"lon":1.6760691,"geocoding":{},"distantMaxMiles":5,"cities":{}},"Tuy Province":{"countryName":"Burkina Faso","name":"Tuy Province","isoCode":"TUI","lat":38.888684,"lon":-77.004719,"geocoding":{},"distantMaxMiles":5,"cities":{}},"Yagha Province":{"countryName":"Burkina Faso","name":"Yagha Province","isoCode":"YAG","lat":13.3576157,"lon":0.7532809,"geocoding":{},"distantMaxMiles":5,"cities":{}},"Yatenga Province":{"countryName":"Burkina Faso","name":"Yatenga Province","isoCode":"YAT","lat":13.6249344,"lon":-2.3813621,"geocoding":{},"distantMaxMiles":5,"cities":{}},"Ziro Province":{"countryName":"Burkina Faso","name":"Ziro Province","isoCode":"ZIR","lat":11.6094995,"lon":-1.9099238,"geocoding":{},"distantMaxMiles":5,"cities":{}},"Zondoma Province":{"countryName":"Burkina Faso","name":"Zondoma Province","isoCode":"ZON","lat":13.1165926,"lon":-2.4208713,"geocoding":{},"distantMaxMiles":5,"cities":{}},"Zoundwéogo Province":{"countryName":"Burkina Faso","name":"Zoundwéogo Province","isoCode":"ZOU","lat":11.6141174,"lon":-0.9820668,"geocoding":{},"distantMaxMiles":5,"cities":{}}}}