{"name":"Tonga","isoCode":"TO","lat":-20,"lon":-175,"geocoding":{},"distantMaxMiles":5,"states":{"Haʻapai":{"countryName":"Tonga","name":"Haʻapai","isoCode":"02","lat":-19.75,"lon":-174.366667,"geocoding":{},"distantMaxMiles":5,"cities":{"Pangai":{"countryName":"Tonga","stateName":"Haʻapai","name":"Pangai","lat":-19.81468,"lon":-174.35423,"geocoding":{},"distantMaxMiles":5}}},"Niuas":{"countryName":"Tonga","name":"Niuas","isoCode":"03","lat":-15.9594,"lon":-173.783,"geocoding":{},"distantMaxMiles":5,"cities":{"Hihifo":{"countryName":"Tonga","stateName":"Niuas","name":"Hihifo","lat":-15.9544,"lon":-173.79616,"geocoding":{},"distantMaxMiles":5}}},"Tongatapu":{"countryName":"Tonga","name":"Tongatapu","isoCode":"04","lat":-21.1465968,"lon":-175.2515482,"geocoding":{},"distantMaxMiles":5,"cities":{"Haveluloto":{"countryName":"Tonga","stateName":"Tongatapu","name":"Haveluloto","lat":-21.15216,"lon":-175.21333,"geocoding":{},"distantMaxMiles":5},"Kolonga":{"countryName":"Tonga","stateName":"Tongatapu","name":"Kolonga","lat":-21.13333,"lon":-175.06667,"geocoding":{},"distantMaxMiles":5},"Nuku‘alofa":{"countryName":"Tonga","stateName":"Tongatapu","name":"Nuku‘alofa","lat":-21.13938,"lon":-175.2018,"geocoding":{},"distantMaxMiles":5},"Vaini":{"countryName":"Tonga","stateName":"Tongatapu","name":"Vaini","lat":-21.19292,"lon":-175.17678,"geocoding":{},"distantMaxMiles":5}}},"Vavaʻu":{"countryName":"Tonga","name":"Vavaʻu","isoCode":"05","lat":-18.622756,"lon":-173.9902982,"geocoding":{},"distantMaxMiles":5,"cities":{"Neiafu":{"countryName":"Tonga","stateName":"Vavaʻu","name":"Neiafu","lat":-18.6506,"lon":-173.98404,"geocoding":{},"distantMaxMiles":5}}},"ʻEua":{"countryName":"Tonga","name":"ʻEua","isoCode":"01","lat":37.09024,"lon":-95.712891,"geocoding":{},"distantMaxMiles":5,"cities":{"‘Ohonua":{"countryName":"Tonga","stateName":"ʻEua","name":"‘Ohonua","lat":-21.33333,"lon":-174.95,"geocoding":{},"distantMaxMiles":5}}}}}