{"name":"Ghana","isoCode":"GH","lat":8,"lon":-2,"geocoding":{},"distantMaxMiles":5,"states":{"Ahafo":{"countryName":"Ghana","name":"Ahafo","isoCode":"AF","lat":7.5821372,"lon":-2.5497463,"geocoding":{},"distantMaxMiles":5,"cities":{"Asunafo North":{"countryName":"Ghana","stateName":"Ahafo","name":"Asunafo North","lat":6.8196891,"lon":-2.807705,"geocoding":{},"distantMaxMiles":5},"Asunafo South":{"countryName":"Ghana","stateName":"Ahafo","name":"Asunafo South","lat":6.6480138,"lon":-2.6887437,"geocoding":{},"distantMaxMiles":5},"Asutifi North":{"countryName":"Ghana","stateName":"Ahafo","name":"Asutifi North","lat":6.9477486,"lon":-2.7675716,"geocoding":{},"distantMaxMiles":5},"Asutifi South":{"countryName":"Ghana","stateName":"Ahafo","name":"Asutifi South","lat":6.6480138,"lon":-2.6887437,"geocoding":{},"distantMaxMiles":5},"Tano North":{"countryName":"Ghana","stateName":"Ahafo","name":"Tano North","lat":7.2260301,"lon":-2.3045656,"geocoding":{},"distantMaxMiles":5},"Tano South":{"countryName":"Ghana","stateName":"Ahafo","name":"Tano South","lat":7.1953793,"lon":-2.1258661,"geocoding":{},"distantMaxMiles":5}}},"Ashanti":{"countryName":"Ghana","name":"Ashanti","isoCode":"AH","lat":6.7470436,"lon":-1.5208624,"geocoding":{},"distantMaxMiles":5,"cities":{"Agogo":{"countryName":"Ghana","stateName":"Ashanti","name":"Agogo","lat":6.80004,"lon":-1.08193,"geocoding":{},"distantMaxMiles":5},"Bekwai":{"countryName":"Ghana","stateName":"Ashanti","name":"Bekwai","lat":6.45195,"lon":-1.57866,"geocoding":{},"distantMaxMiles":5},"Ejura":{"countryName":"Ghana","stateName":"Ashanti","name":"Ejura","lat":7.38558,"lon":-1.35617,"geocoding":{},"distantMaxMiles":5},"Konongo":{"countryName":"Ghana","stateName":"Ashanti","name":"Konongo","lat":6.61667,"lon":-1.21667,"geocoding":{},"distantMaxMiles":5},"Kumasi":{"countryName":"Ghana","stateName":"Ashanti","name":"Kumasi","lat":6.68848,"lon":-1.62443,"geocoding":{},"distantMaxMiles":5},"Mampong":{"countryName":"Ghana","stateName":"Ashanti","name":"Mampong","lat":7.06273,"lon":-1.4001,"geocoding":{},"distantMaxMiles":5},"Obuase":{"countryName":"Ghana","stateName":"Ashanti","name":"Obuase","lat":6.20228,"lon":-1.66796,"geocoding":{},"distantMaxMiles":5},"Tafo":{"countryName":"Ghana","stateName":"Ashanti","name":"Tafo","lat":6.73156,"lon":-1.6137,"geocoding":{},"distantMaxMiles":5}}},"Bono":{"countryName":"Ghana","name":"Bono","isoCode":"BO","lat":7.65,"lon":-2.5,"geocoding":{},"distantMaxMiles":5,"cities":{"Banda":{"countryName":"Ghana","stateName":"Bono","name":"Banda","lat":8.1495671,"lon":-2.366395,"geocoding":{},"distantMaxMiles":5},"Berekum East":{"countryName":"Ghana","stateName":"Bono","name":"Berekum East","lat":7.5111758,"lon":-2.7599831,"geocoding":{},"distantMaxMiles":5},"Berekum West":{"countryName":"Ghana","stateName":"Bono","name":"Berekum West","lat":7.5111758,"lon":-2.7599831,"geocoding":{},"distantMaxMiles":5},"Dormaa Central":{"countryName":"Ghana","stateName":"Bono","name":"Dormaa Central","lat":7.2775,"lon":-2.878333,"geocoding":{},"distantMaxMiles":5},"Dormaa East":{"countryName":"Ghana","stateName":"Bono","name":"Dormaa East","lat":7.3,"lon":-2.7,"geocoding":{},"distantMaxMiles":5},"Dormaa West":{"countryName":"Ghana","stateName":"Bono","name":"Dormaa West","lat":7.016667,"lon":-3.05,"geocoding":{},"distantMaxMiles":5},"Jaman North":{"countryName":"Ghana","stateName":"Bono","name":"Jaman North","lat":7.9883234,"lon":-2.9685869,"geocoding":{},"distantMaxMiles":5},"Jaman South":{"countryName":"Ghana","stateName":"Bono","name":"Jaman South","lat":7.7084375,"lon":-3.075017,"geocoding":{},"distantMaxMiles":5},"Sunyani":{"countryName":"Ghana","stateName":"Bono","name":"Sunyani","lat":7.3380332,"lon":-2.3487146,"geocoding":{},"distantMaxMiles":5},"Sunyani West":{"countryName":"Ghana","stateName":"Bono","name":"Sunyani West","lat":7.3566052,"lon":-2.4461862,"geocoding":{},"distantMaxMiles":5},"Tain":{"countryName":"Ghana","stateName":"Bono","name":"Tain","lat":8.1811411,"lon":-2.8648762,"geocoding":{},"distantMaxMiles":5},"Wenchi":{"countryName":"Ghana","stateName":"Bono","name":"Wenchi","lat":7.7405992,"lon":-2.1226788,"geocoding":{},"distantMaxMiles":5}}},"Bono East":{"countryName":"Ghana","name":"Bono East","isoCode":"BE","lat":7.75,"lon":-1.05,"geocoding":{},"distantMaxMiles":5,"cities":{"Atebubu-Amantin":{"countryName":"Ghana","stateName":"Bono East","name":"Atebubu-Amantin","lat":7.70237,"lon":-1.2197943,"geocoding":{},"distantMaxMiles":5},"Kintampo North":{"countryName":"Ghana","stateName":"Bono East","name":"Kintampo North","lat":8.3963579,"lon":-1.8200007,"geocoding":{},"distantMaxMiles":5},"Kintampo South":{"countryName":"Ghana","stateName":"Bono East","name":"Kintampo South","lat":7.9897132,"lon":-2.0071115,"geocoding":{},"distantMaxMiles":5},"Nkoranza North":{"countryName":"Ghana","stateName":"Bono East","name":"Nkoranza North","lat":7.5660331,"lon":-1.723652,"geocoding":{},"distantMaxMiles":5},"Nkoranza South":{"countryName":"Ghana","stateName":"Bono East","name":"Nkoranza South","lat":7.6240512,"lon":-1.7997446,"geocoding":{},"distantMaxMiles":5},"Pru East":{"countryName":"Ghana","stateName":"Bono East","name":"Pru East","lat":8.2262,"lon":-0.6536,"geocoding":{},"distantMaxMiles":5},"Pru West":{"countryName":"Ghana","stateName":"Bono East","name":"Pru West","lat":8.0735993,"lon":-1.2905541,"geocoding":{},"distantMaxMiles":5},"Sene East":{"countryName":"Ghana","stateName":"Bono East","name":"Sene East","lat":7.783,"lon":-0.217,"geocoding":{},"distantMaxMiles":5},"Sene West":{"countryName":"Ghana","stateName":"Bono East","name":"Sene West","lat":7.7342,"lon":-0.6818,"geocoding":{},"distantMaxMiles":5},"Techiman":{"countryName":"Ghana","stateName":"Bono East","name":"Techiman","lat":7.5896856,"lon":-1.9512214,"geocoding":{},"distantMaxMiles":5},"Techiman North":{"countryName":"Ghana","stateName":"Bono East","name":"Techiman North","lat":7.7042802,"lon":-2.0814057,"geocoding":{},"distantMaxMiles":5}}},"Central":{"countryName":"Ghana","name":"Central","isoCode":"CP","lat":5.5,"lon":-1,"geocoding":{},"distantMaxMiles":5,"cities":{"Apam":{"countryName":"Ghana","stateName":"Central","name":"Apam","lat":5.28483,"lon":-0.73711,"geocoding":{},"distantMaxMiles":5},"Cape Coast":{"countryName":"Ghana","stateName":"Central","name":"Cape Coast","lat":5.10535,"lon":-1.2466,"geocoding":{},"distantMaxMiles":5},"Dunkwa":{"countryName":"Ghana","stateName":"Central","name":"Dunkwa","lat":5.95996,"lon":-1.77792,"geocoding":{},"distantMaxMiles":5},"Elmina":{"countryName":"Ghana","stateName":"Central","name":"Elmina","lat":5.0847,"lon":-1.35093,"geocoding":{},"distantMaxMiles":5},"Foso":{"countryName":"Ghana","stateName":"Central","name":"Foso","lat":5.70119,"lon":-1.28657,"geocoding":{},"distantMaxMiles":5},"Kasoa":{"countryName":"Ghana","stateName":"Central","name":"Kasoa","lat":5.53449,"lon":-0.41679,"geocoding":{},"distantMaxMiles":5},"Mumford":{"countryName":"Ghana","stateName":"Central","name":"Mumford","lat":5.26176,"lon":-0.75897,"geocoding":{},"distantMaxMiles":5},"Saltpond":{"countryName":"Ghana","stateName":"Central","name":"Saltpond","lat":5.20913,"lon":-1.06058,"geocoding":{},"distantMaxMiles":5},"Swedru":{"countryName":"Ghana","stateName":"Central","name":"Swedru","lat":5.53711,"lon":-0.69984,"geocoding":{},"distantMaxMiles":5},"Winneba":{"countryName":"Ghana","stateName":"Central","name":"Winneba","lat":5.35113,"lon":-0.62313,"geocoding":{},"distantMaxMiles":5}}},"Eastern":{"countryName":"Ghana","name":"Eastern","isoCode":"EP","lat":6.5,"lon":-0.5,"geocoding":{},"distantMaxMiles":5,"cities":{"Aburi":{"countryName":"Ghana","stateName":"Eastern","name":"Aburi","lat":5.84802,"lon":-0.17449,"geocoding":{},"distantMaxMiles":5},"Akim Oda":{"countryName":"Ghana","stateName":"Eastern","name":"Akim Oda","lat":5.92665,"lon":-0.98577,"geocoding":{},"distantMaxMiles":5},"Akim Swedru":{"countryName":"Ghana","stateName":"Eastern","name":"Akim Swedru","lat":5.8938,"lon":-1.01636,"geocoding":{},"distantMaxMiles":5},"Akropong":{"countryName":"Ghana","stateName":"Eastern","name":"Akropong","lat":5.97462,"lon":-0.08542,"geocoding":{},"distantMaxMiles":5},"Akwatia":{"countryName":"Ghana","stateName":"Eastern","name":"Akwatia","lat":6.04024,"lon":-0.80876,"geocoding":{},"distantMaxMiles":5},"Asamankese":{"countryName":"Ghana","stateName":"Eastern","name":"Asamankese","lat":5.86006,"lon":-0.6635,"geocoding":{},"distantMaxMiles":5},"Begoro":{"countryName":"Ghana","stateName":"Eastern","name":"Begoro","lat":6.38706,"lon":-0.37738,"geocoding":{},"distantMaxMiles":5},"Kibi":{"countryName":"Ghana","stateName":"Eastern","name":"Kibi","lat":6.16494,"lon":-0.55376,"geocoding":{},"distantMaxMiles":5},"Koforidua":{"countryName":"Ghana","stateName":"Eastern","name":"Koforidua","lat":6.09408,"lon":-0.25913,"geocoding":{},"distantMaxMiles":5},"Mpraeso":{"countryName":"Ghana","stateName":"Eastern","name":"Mpraeso","lat":6.59321,"lon":-0.73462,"geocoding":{},"distantMaxMiles":5},"Nsawam":{"countryName":"Ghana","stateName":"Eastern","name":"Nsawam","lat":5.80893,"lon":-0.35026,"geocoding":{},"distantMaxMiles":5},"Suhum":{"countryName":"Ghana","stateName":"Eastern","name":"Suhum","lat":6.04089,"lon":-0.45004,"geocoding":{},"distantMaxMiles":5}}},"Greater Accra":{"countryName":"Ghana","name":"Greater Accra","isoCode":"AA","lat":5.8142836,"lon":0.0746767,"geocoding":{},"distantMaxMiles":5,"cities":{"Accra":{"countryName":"Ghana","stateName":"Greater Accra","name":"Accra","lat":5.55602,"lon":-0.1969,"geocoding":{},"distantMaxMiles":5},"Atsiaman":{"countryName":"Ghana","stateName":"Greater Accra","name":"Atsiaman","lat":5.69775,"lon":-0.32824,"geocoding":{},"distantMaxMiles":5},"Dome":{"countryName":"Ghana","stateName":"Greater Accra","name":"Dome","lat":5.65003,"lon":-0.2361,"geocoding":{},"distantMaxMiles":5},"Gbawe":{"countryName":"Ghana","stateName":"Greater Accra","name":"Gbawe","lat":5.57692,"lon":-0.31038,"geocoding":{},"distantMaxMiles":5},"Medina Estates":{"countryName":"Ghana","stateName":"Greater Accra","name":"Medina Estates","lat":5.6658,"lon":-0.16307,"geocoding":{},"distantMaxMiles":5},"Nungua":{"countryName":"Ghana","stateName":"Greater Accra","name":"Nungua","lat":5.60105,"lon":-0.07713,"geocoding":{},"distantMaxMiles":5},"Tema":{"countryName":"Ghana","stateName":"Greater Accra","name":"Tema","lat":5.6698,"lon":-0.01657,"geocoding":{},"distantMaxMiles":5},"Teshi Old Town":{"countryName":"Ghana","stateName":"Greater Accra","name":"Teshi Old Town","lat":5.58365,"lon":-0.10722,"geocoding":{},"distantMaxMiles":5}}},"North East":{"countryName":"Ghana","name":"North East","isoCode":"NE","lat":10.516667,"lon":-0.366667,"geocoding":{},"distantMaxMiles":5,"cities":{"Bunkpurugu-Nyakpanduri":{"countryName":"Ghana","stateName":"North East","name":"Bunkpurugu-Nyakpanduri","lat":10.4660917,"lon":-0.2271195,"geocoding":{},"distantMaxMiles":5},"Chereponi":{"countryName":"Ghana","stateName":"North East","name":"Chereponi","lat":10.1382772,"lon":0.2824258,"geocoding":{},"distantMaxMiles":5},"East Mamprusi":{"countryName":"Ghana","stateName":"North East","name":"East Mamprusi","lat":10.4293186,"lon":-0.5307885,"geocoding":{},"distantMaxMiles":5},"Mamprugu-Moagduri":{"countryName":"Ghana","stateName":"North East","name":"Mamprugu-Moagduri","lat":10.2329,"lon":-1.2836,"geocoding":{},"distantMaxMiles":5},"West Mamprusi":{"countryName":"Ghana","stateName":"North East","name":"West Mamprusi","lat":10.2990606,"lon":-1.367501,"geocoding":{},"distantMaxMiles":5},"Yunyoo-Nasuan":{"countryName":"Ghana","stateName":"North East","name":"Yunyoo-Nasuan","lat":10.484,"lon":-0.009,"geocoding":{},"distantMaxMiles":5}}},"Northern":{"countryName":"Ghana","name":"Northern","isoCode":"NP","lat":9.5,"lon":-1,"geocoding":{},"distantMaxMiles":5,"cities":{"Kpandae":{"countryName":"Ghana","stateName":"Northern","name":"Kpandae","lat":8.46885,"lon":-0.01127,"geocoding":{},"distantMaxMiles":5},"Salaga":{"countryName":"Ghana","stateName":"Northern","name":"Salaga","lat":8.55083,"lon":-0.51875,"geocoding":{},"distantMaxMiles":5},"Savelugu":{"countryName":"Ghana","stateName":"Northern","name":"Savelugu","lat":9.62441,"lon":-0.8253,"geocoding":{},"distantMaxMiles":5},"Tamale":{"countryName":"Ghana","stateName":"Northern","name":"Tamale","lat":9.40079,"lon":-0.8393,"geocoding":{},"distantMaxMiles":5},"Yendi":{"countryName":"Ghana","stateName":"Northern","name":"Yendi","lat":9.44272,"lon":-0.00991,"geocoding":{},"distantMaxMiles":5}}},"Oti":{"countryName":"Ghana","name":"Oti","isoCode":"OT","lat":7.9,"lon":0.3,"geocoding":{},"distantMaxMiles":5,"cities":{"Biakoye":{"countryName":"Ghana","stateName":"Oti","name":"Biakoye","lat":7.1169869,"lon":0.323243,"geocoding":{},"distantMaxMiles":5},"Jasikan":{"countryName":"Ghana","stateName":"Oti","name":"Jasikan","lat":7.4094088,"lon":0.443015,"geocoding":{},"distantMaxMiles":5},"Kadjebi":{"countryName":"Ghana","stateName":"Oti","name":"Kadjebi","lat":7.5263192,"lon":0.4670477,"geocoding":{},"distantMaxMiles":5},"Krachi East":{"countryName":"Ghana","stateName":"Oti","name":"Krachi East","lat":7.7719698,"lon":-0.0776376,"geocoding":{},"distantMaxMiles":5},"Krachi Nchumuru":{"countryName":"Ghana","stateName":"Oti","name":"Krachi Nchumuru","lat":8.148498,"lon":-0.1634988,"geocoding":{},"distantMaxMiles":5},"Krachi West":{"countryName":"Ghana","stateName":"Oti","name":"Krachi West","lat":7.9828216,"lon":-0.3488627,"geocoding":{},"distantMaxMiles":5},"Nkwanta North":{"countryName":"Ghana","stateName":"Oti","name":"Nkwanta North","lat":8.3518076,"lon":0.1221762,"geocoding":{},"distantMaxMiles":5},"Nkwanta South":{"countryName":"Ghana","stateName":"Oti","name":"Nkwanta South","lat":8.2593134,"lon":0.5018519,"geocoding":{},"distantMaxMiles":5}}},"Savannah":{"countryName":"Ghana","name":"Savannah","isoCode":"SV","lat":9.083333,"lon":-1.816667,"geocoding":{},"distantMaxMiles":5,"cities":{"Bole":{"countryName":"Ghana","stateName":"Savannah","name":"Bole","lat":9.0299664,"lon":-2.506943,"geocoding":{},"distantMaxMiles":5},"Central Gonja":{"countryName":"Ghana","stateName":"Savannah","name":"Central Gonja","lat":8.9278432,"lon":-1.9536972,"geocoding":{},"distantMaxMiles":5},"East Gonja":{"countryName":"Ghana","stateName":"Savannah","name":"East Gonja","lat":8.725684,"lon":-1.0713579,"geocoding":{},"distantMaxMiles":5},"North East Gonja":{"countryName":"Ghana","stateName":"Savannah","name":"North East Gonja","lat":9.1174669,"lon":-0.5557936,"geocoding":{},"distantMaxMiles":5},"North Gonja":{"countryName":"Ghana","stateName":"Savannah","name":"North Gonja","lat":9.5413085,"lon":-1.3976692,"geocoding":{},"distantMaxMiles":5},"Sawla-Tuna-Kalba":{"countryName":"Ghana","stateName":"Savannah","name":"Sawla-Tuna-Kalba","lat":9.3911457,"lon":-2.7061166,"geocoding":{},"distantMaxMiles":5},"West Gonja":{"countryName":"Ghana","stateName":"Savannah","name":"West Gonja","lat":9.5751317,"lon":-2.2644041,"geocoding":{},"distantMaxMiles":5}}},"Upper East":{"countryName":"Ghana","name":"Upper East","isoCode":"UE","lat":10.7082499,"lon":-0.9820668,"geocoding":{},"distantMaxMiles":5,"cities":{"Bawku":{"countryName":"Ghana","stateName":"Upper East","name":"Bawku","lat":11.0616,"lon":-0.24169,"geocoding":{},"distantMaxMiles":5},"Bolgatanga":{"countryName":"Ghana","stateName":"Upper East","name":"Bolgatanga","lat":10.78556,"lon":-0.85139,"geocoding":{},"distantMaxMiles":5},"Navrongo":{"countryName":"Ghana","stateName":"Upper East","name":"Navrongo","lat":10.89557,"lon":-1.0921,"geocoding":{},"distantMaxMiles":5}}},"Upper West":{"countryName":"Ghana","name":"Upper West","isoCode":"UW","lat":10.2529757,"lon":-2.1450245,"geocoding":{},"distantMaxMiles":5,"cities":{"Wa":{"countryName":"Ghana","stateName":"Upper West","name":"Wa","lat":10.06069,"lon":-2.50192,"geocoding":{},"distantMaxMiles":5}}},"Volta":{"countryName":"Ghana","name":"Volta","isoCode":"TV","lat":6.5781373,"lon":0.4502368,"geocoding":{},"distantMaxMiles":5,"cities":{"Aflao":{"countryName":"Ghana","stateName":"Volta","name":"Aflao","lat":6.11982,"lon":1.19012,"geocoding":{},"distantMaxMiles":5},"Anloga":{"countryName":"Ghana","stateName":"Volta","name":"Anloga","lat":5.79473,"lon":0.89728,"geocoding":{},"distantMaxMiles":5},"Ho":{"countryName":"Ghana","stateName":"Volta","name":"Ho","lat":6.60084,"lon":0.4713,"geocoding":{},"distantMaxMiles":5},"Hohoe":{"countryName":"Ghana","stateName":"Volta","name":"Hohoe","lat":7.15181,"lon":0.47362,"geocoding":{},"distantMaxMiles":5},"Keta":{"countryName":"Ghana","stateName":"Volta","name":"Keta","lat":5.91793,"lon":0.98789,"geocoding":{},"distantMaxMiles":5},"Kete Krachi":{"countryName":"Ghana","stateName":"Volta","name":"Kete Krachi","lat":7.79391,"lon":-0.0498,"geocoding":{},"distantMaxMiles":5},"Kpandu":{"countryName":"Ghana","stateName":"Volta","name":"Kpandu","lat":6.99536,"lon":0.29306,"geocoding":{},"distantMaxMiles":5}}},"Western":{"countryName":"Ghana","name":"Western","isoCode":"WP","lat":5.5,"lon":-2.5,"geocoding":{},"distantMaxMiles":5,"cities":{"Aboso":{"countryName":"Ghana","stateName":"Western","name":"Aboso","lat":5.36073,"lon":-1.94856,"geocoding":{},"distantMaxMiles":5},"Axim":{"countryName":"Ghana","stateName":"Western","name":"Axim","lat":4.86641,"lon":-2.24181,"geocoding":{},"distantMaxMiles":5},"Bibiani":{"countryName":"Ghana","stateName":"Western","name":"Bibiani","lat":6.46346,"lon":-2.31938,"geocoding":{},"distantMaxMiles":5},"Prestea":{"countryName":"Ghana","stateName":"Western","name":"Prestea","lat":5.43385,"lon":-2.14295,"geocoding":{},"distantMaxMiles":5},"Sekondi-Takoradi":{"countryName":"Ghana","stateName":"Western","name":"Sekondi-Takoradi","lat":4.92678,"lon":-1.75773,"geocoding":{},"distantMaxMiles":5},"Shama Junction":{"countryName":"Ghana","stateName":"Western","name":"Shama Junction","lat":5.01806,"lon":-1.66437,"geocoding":{},"distantMaxMiles":5},"Takoradi":{"countryName":"Ghana","stateName":"Western","name":"Takoradi","lat":4.89816,"lon":-1.76029,"geocoding":{},"distantMaxMiles":5},"Tarkwa":{"countryName":"Ghana","stateName":"Western","name":"Tarkwa","lat":5.30383,"lon":-1.98956,"geocoding":{},"distantMaxMiles":5}}},"Western North":{"countryName":"Ghana","name":"Western North","isoCode":"WN","lat":6.3,"lon":-2.8,"geocoding":{},"distantMaxMiles":5,"cities":{"Aowin":{"countryName":"Ghana","stateName":"Western North","name":"Aowin","lat":5.7530928,"lon":-3.0751887,"geocoding":{},"distantMaxMiles":5},"Bia East":{"countryName":"Ghana","stateName":"Western North","name":"Bia East","lat":6.768604,"lon":-3.3330241,"geocoding":{},"distantMaxMiles":5},"Bia West":{"countryName":"Ghana","stateName":"Western North","name":"Bia West","lat":6.768604,"lon":-3.3330241,"geocoding":{},"distantMaxMiles":5},"Bibiani-Anhwiaso-Bekwai":{"countryName":"Ghana","stateName":"Western North","name":"Bibiani-Anhwiaso-Bekwai","lat":6.3021004,"lon":-2.3567507,"geocoding":{},"distantMaxMiles":5},"Bodi":{"countryName":"Ghana","stateName":"Western North","name":"Bodi","lat":6.2224091,"lon":-2.7661515,"geocoding":{},"distantMaxMiles":5},"Juaboso":{"countryName":"Ghana","stateName":"Western North","name":"Juaboso","lat":6.3333157,"lon":-2.8420614,"geocoding":{},"distantMaxMiles":5},"Sefwi-Akontombra":{"countryName":"Ghana","stateName":"Western North","name":"Sefwi-Akontombra","lat":6.0428548,"lon":-2.8813362,"geocoding":{},"distantMaxMiles":5},"Sefwi-Wiawso":{"countryName":"Ghana","stateName":"Western North","name":"Sefwi-Wiawso","lat":6.2196567,"lon":-2.5005915,"geocoding":{},"distantMaxMiles":5},"Suaman":{"countryName":"Ghana","stateName":"Western North","name":"Suaman","lat":5.7530928,"lon":-3.0751887,"geocoding":{},"distantMaxMiles":5}}}}}