{"name":"Argentina","isoCode":"AR","lat":-34,"lon":-64,"geocoding":{},"distantMaxMiles":5,"states":{"Buenos Aires":{"countryName":"Argentina","name":"Buenos Aires","isoCode":"B","lat":-37.2017285,"lon":-59.8410697,"geocoding":{},"distantMaxMiles":5,"cities":{"Balvanera":{"countryName":"Argentina","stateName":"Buenos Aires","name":"Balvanera","lat":-34.61032,"lon":-58.39766,"geocoding":{},"distantMaxMiles":5},"Barracas":{"countryName":"Argentina","stateName":"Buenos Aires","name":"Barracas","lat":-34.64966,"lon":-58.38341,"geocoding":{},"distantMaxMiles":5},"Belgrano":{"countryName":"Argentina","stateName":"Buenos Aires","name":"Belgrano","lat":-34.5627,"lon":-58.45829,"geocoding":{},"distantMaxMiles":5},"Boedo":{"countryName":"Argentina","stateName":"Buenos Aires","name":"Boedo","lat":-34.63333,"lon":-58.41667,"geocoding":{},"distantMaxMiles":5},"Buenos Aires":{"countryName":"Argentina","stateName":"Buenos Aires","name":"Buenos Aires","lat":-34.61315,"lon":-58.37723,"geocoding":{},"distantMaxMiles":5},"Colegiales":{"countryName":"Argentina","stateName":"Buenos Aires","name":"Colegiales","lat":-34.57365,"lon":-58.44924,"geocoding":{},"distantMaxMiles":5},"Retiro":{"countryName":"Argentina","stateName":"Buenos Aires","name":"Retiro","lat":-34.58333,"lon":-58.38333,"geocoding":{},"distantMaxMiles":5},"Villa Lugano":{"countryName":"Argentina","stateName":"Buenos Aires","name":"Villa Lugano","lat":-34.67907,"lon":-58.47263,"geocoding":{},"distantMaxMiles":5},"Villa Ortúzar":{"countryName":"Argentina","stateName":"Buenos Aires","name":"Villa Ortúzar","lat":-34.57973,"lon":-58.46829,"geocoding":{},"distantMaxMiles":5},"Villa Santa Rita":{"countryName":"Argentina","stateName":"Buenos Aires","name":"Villa Santa Rita","lat":-34.61082,"lon":-58.481,"geocoding":{},"distantMaxMiles":5}}},"Catamarca":{"countryName":"Argentina","name":"Catamarca","isoCode":"K","lat":-28.4715877,"lon":-65.7877209,"geocoding":{},"distantMaxMiles":5,"cities":{"Ancasti":{"countryName":"Argentina","stateName":"Catamarca","name":"Ancasti","lat":-28.81247,"lon":-65.50145,"geocoding":{},"distantMaxMiles":5},"Andalgalá":{"countryName":"Argentina","stateName":"Catamarca","name":"Andalgalá","lat":-27.58185,"lon":-66.31626,"geocoding":{},"distantMaxMiles":5},"Antofagasta de la Sierra":{"countryName":"Argentina","stateName":"Catamarca","name":"Antofagasta de la Sierra","lat":-26.0594,"lon":-67.40636,"geocoding":{},"distantMaxMiles":5},"Capayán":{"countryName":"Argentina","stateName":"Catamarca","name":"Capayán","lat":-28.77436,"lon":-66.04749,"geocoding":{},"distantMaxMiles":5},"Departamento de Ambato":{"countryName":"Argentina","stateName":"Catamarca","name":"Departamento de Ambato","lat":-28,"lon":-65.91667,"geocoding":{},"distantMaxMiles":5},"Departamento de Ancasti":{"countryName":"Argentina","stateName":"Catamarca","name":"Departamento de Ancasti","lat":-29,"lon":-65.5,"geocoding":{},"distantMaxMiles":5},"Departamento de Andalgalá":{"countryName":"Argentina","stateName":"Catamarca","name":"Departamento de Andalgalá","lat":-27.58333,"lon":-66.46667,"geocoding":{},"distantMaxMiles":5},"Departamento de Antofagasta de la Sierra":{"countryName":"Argentina","stateName":"Catamarca","name":"Departamento de Antofagasta de la Sierra","lat":-26,"lon":-67.58333,"geocoding":{},"distantMaxMiles":5},"Departamento de Capayán":{"countryName":"Argentina","stateName":"Catamarca","name":"Departamento de Capayán","lat":-28.83333,"lon":-66,"geocoding":{},"distantMaxMiles":5},"Departamento de Capital":{"countryName":"Argentina","stateName":"Catamarca","name":"Departamento de Capital","lat":-28.41667,"lon":-65.8,"geocoding":{},"distantMaxMiles":5},"Departamento de El Alto":{"countryName":"Argentina","stateName":"Catamarca","name":"Departamento de El Alto","lat":-28.41667,"lon":-65.41667,"geocoding":{},"distantMaxMiles":5},"Departamento de Fray Mamerto Esquiú":{"countryName":"Argentina","stateName":"Catamarca","name":"Departamento de Fray Mamerto Esquiú","lat":-28.3,"lon":-65.75,"geocoding":{},"distantMaxMiles":5},"Departamento de La Paz":{"countryName":"Argentina","stateName":"Catamarca","name":"Departamento de La Paz","lat":-29.25,"lon":-65.25,"geocoding":{},"distantMaxMiles":5},"Departamento de Pomán":{"countryName":"Argentina","stateName":"Catamarca","name":"Departamento de Pomán","lat":-28.25,"lon":-66.41667,"geocoding":{},"distantMaxMiles":5},"Departamento de Santa María":{"countryName":"Argentina","stateName":"Catamarca","name":"Departamento de Santa María","lat":-26.66667,"lon":-66.41667,"geocoding":{},"distantMaxMiles":5},"Departamento de Santa Rosa":{"countryName":"Argentina","stateName":"Catamarca","name":"Departamento de Santa Rosa","lat":-28.08333,"lon":-65.25,"geocoding":{},"distantMaxMiles":5},"Departamento de Tinogasta":{"countryName":"Argentina","stateName":"Catamarca","name":"Departamento de Tinogasta","lat":-27.5,"lon":-68,"geocoding":{},"distantMaxMiles":5},"Departamento de Valle Viejo":{"countryName":"Argentina","stateName":"Catamarca","name":"Departamento de Valle Viejo","lat":-28.58333,"lon":-65.75,"geocoding":{},"distantMaxMiles":5},"El Rodeo":{"countryName":"Argentina","stateName":"Catamarca","name":"El Rodeo","lat":-28.21518,"lon":-65.8742,"geocoding":{},"distantMaxMiles":5},"Fiambalá":{"countryName":"Argentina","stateName":"Catamarca","name":"Fiambalá","lat":-27.67225,"lon":-67.6187,"geocoding":{},"distantMaxMiles":5},"Hualfín":{"countryName":"Argentina","stateName":"Catamarca","name":"Hualfín","lat":-27.22896,"lon":-66.83131,"geocoding":{},"distantMaxMiles":5},"Huillapima":{"countryName":"Argentina","stateName":"Catamarca","name":"Huillapima","lat":-28.72533,"lon":-65.9787,"geocoding":{},"distantMaxMiles":5},"Icaño":{"countryName":"Argentina","stateName":"Catamarca","name":"Icaño","lat":-28.91934,"lon":-65.32817,"geocoding":{},"distantMaxMiles":5},"La Puerta de San José":{"countryName":"Argentina","stateName":"Catamarca","name":"La Puerta de San José","lat":-27.55,"lon":-67.01667,"geocoding":{},"distantMaxMiles":5},"Londres":{"countryName":"Argentina","stateName":"Catamarca","name":"Londres","lat":-27.71439,"lon":-67.13349,"geocoding":{},"distantMaxMiles":5},"Los Altos":{"countryName":"Argentina","stateName":"Catamarca","name":"Los Altos","lat":-28.04845,"lon":-65.49945,"geocoding":{},"distantMaxMiles":5},"Los Varela":{"countryName":"Argentina","stateName":"Catamarca","name":"Los Varela","lat":-27.93003,"lon":-65.87153,"geocoding":{},"distantMaxMiles":5},"Mutquín":{"countryName":"Argentina","stateName":"Catamarca","name":"Mutquín","lat":-28.32104,"lon":-66.14253,"geocoding":{},"distantMaxMiles":5},"Pomán":{"countryName":"Argentina","stateName":"Catamarca","name":"Pomán","lat":-28.39455,"lon":-66.22052,"geocoding":{},"distantMaxMiles":5},"Puerta de Corral Quemado":{"countryName":"Argentina","stateName":"Catamarca","name":"Puerta de Corral Quemado","lat":-27.23,"lon":-66.93635,"geocoding":{},"distantMaxMiles":5},"Recreo":{"countryName":"Argentina","stateName":"Catamarca","name":"Recreo","lat":-29.28184,"lon":-65.06096,"geocoding":{},"distantMaxMiles":5},"San Antonio":{"countryName":"Argentina","stateName":"Catamarca","name":"San Antonio","lat":-28.01009,"lon":-65.70874,"geocoding":{},"distantMaxMiles":5},"San Fernando del Valle de Catamarca":{"countryName":"Argentina","stateName":"Catamarca","name":"San Fernando del Valle de Catamarca","lat":-28.46957,"lon":-65.78524,"geocoding":{},"distantMaxMiles":5},"Santa María":{"countryName":"Argentina","stateName":"Catamarca","name":"Santa María","lat":-26.69547,"lon":-66.04732,"geocoding":{},"distantMaxMiles":5},"Tinogasta":{"countryName":"Argentina","stateName":"Catamarca","name":"Tinogasta","lat":-28.06319,"lon":-67.56488,"geocoding":{},"distantMaxMiles":5}}},"Chaco":{"countryName":"Argentina","name":"Chaco","isoCode":"H","lat":-27.4257175,"lon":-59.0243784,"geocoding":{},"distantMaxMiles":5,"cities":{"Aviá Terai":{"countryName":"Argentina","stateName":"Chaco","name":"Aviá Terai","lat":-26.68532,"lon":-60.7292,"geocoding":{},"distantMaxMiles":5},"Barranqueras":{"countryName":"Argentina","stateName":"Chaco","name":"Barranqueras","lat":-27.48132,"lon":-58.93925,"geocoding":{},"distantMaxMiles":5},"Basail":{"countryName":"Argentina","stateName":"Chaco","name":"Basail","lat":-27.88539,"lon":-59.28245,"geocoding":{},"distantMaxMiles":5},"Campo Largo":{"countryName":"Argentina","stateName":"Chaco","name":"Campo Largo","lat":-26.80077,"lon":-60.84215,"geocoding":{},"distantMaxMiles":5},"Capitán Solari":{"countryName":"Argentina","stateName":"Chaco","name":"Capitán Solari","lat":-26.80215,"lon":-59.56089,"geocoding":{},"distantMaxMiles":5},"Castelli":{"countryName":"Argentina","stateName":"Chaco","name":"Castelli","lat":-25.94679,"lon":-60.61947,"geocoding":{},"distantMaxMiles":5},"Charadai":{"countryName":"Argentina","stateName":"Chaco","name":"Charadai","lat":-27.65503,"lon":-59.86291,"geocoding":{},"distantMaxMiles":5},"Charata":{"countryName":"Argentina","stateName":"Chaco","name":"Charata","lat":-27.21438,"lon":-61.18795,"geocoding":{},"distantMaxMiles":5},"Chorotis":{"countryName":"Argentina","stateName":"Chaco","name":"Chorotis","lat":-27.91578,"lon":-61.39982,"geocoding":{},"distantMaxMiles":5},"Ciervo Petiso":{"countryName":"Argentina","stateName":"Chaco","name":"Ciervo Petiso","lat":-26.58041,"lon":-59.63094,"geocoding":{},"distantMaxMiles":5},"Colonia Benítez":{"countryName":"Argentina","stateName":"Chaco","name":"Colonia Benítez","lat":-27.33099,"lon":-58.94622,"geocoding":{},"distantMaxMiles":5},"Colonia Elisa":{"countryName":"Argentina","stateName":"Chaco","name":"Colonia Elisa","lat":-26.93041,"lon":-59.51861,"geocoding":{},"distantMaxMiles":5},"Colonias Unidas":{"countryName":"Argentina","stateName":"Chaco","name":"Colonias Unidas","lat":-26.69825,"lon":-59.63154,"geocoding":{},"distantMaxMiles":5},"Concepción del Bermejo":{"countryName":"Argentina","stateName":"Chaco","name":"Concepción del Bermejo","lat":-26.59926,"lon":-60.94617,"geocoding":{},"distantMaxMiles":5},"Coronel Du Graty":{"countryName":"Argentina","stateName":"Chaco","name":"Coronel Du Graty","lat":-27.68038,"lon":-60.91462,"geocoding":{},"distantMaxMiles":5},"Corzuela":{"countryName":"Argentina","stateName":"Chaco","name":"Corzuela","lat":-26.95374,"lon":-60.96928,"geocoding":{},"distantMaxMiles":5},"Coté-Lai":{"countryName":"Argentina","stateName":"Chaco","name":"Coté-Lai","lat":-27.5,"lon":-59.6,"geocoding":{},"distantMaxMiles":5},"Departamento de Almirante Brown":{"countryName":"Argentina","stateName":"Chaco","name":"Departamento de Almirante Brown","lat":-25.81662,"lon":-61.45576,"geocoding":{},"distantMaxMiles":5},"Departamento de Bermejo":{"countryName":"Argentina","stateName":"Chaco","name":"Departamento de Bermejo","lat":-27,"lon":-58.66667,"geocoding":{},"distantMaxMiles":5},"Departamento de Comandante Fernández":{"countryName":"Argentina","stateName":"Chaco","name":"Departamento de Comandante Fernández","lat":-26.83333,"lon":-60.5,"geocoding":{},"distantMaxMiles":5},"Departamento de Doce de Octubre":{"countryName":"Argentina","stateName":"Chaco","name":"Departamento de Doce de Octubre","lat":-27.41667,"lon":-61.33333,"geocoding":{},"distantMaxMiles":5},"Departamento de Dos de Abril":{"countryName":"Argentina","stateName":"Chaco","name":"Departamento de Dos de Abril","lat":-27.60932,"lon":-61.34473,"geocoding":{},"distantMaxMiles":5},"Departamento de General Donovan":{"countryName":"Argentina","stateName":"Chaco","name":"Departamento de General Donovan","lat":-27.16667,"lon":-59.33333,"geocoding":{},"distantMaxMiles":5},"Departamento de General Güemes":{"countryName":"Argentina","stateName":"Chaco","name":"Departamento de General Güemes","lat":-25.16667,"lon":-61.41667,"geocoding":{},"distantMaxMiles":5},"Departamento de Independencia":{"countryName":"Argentina","stateName":"Chaco","name":"Departamento de Independencia","lat":-26.66667,"lon":-60.66667,"geocoding":{},"distantMaxMiles":5},"Departamento de Libertad":{"countryName":"Argentina","stateName":"Chaco","name":"Departamento de Libertad","lat":-27.33333,"lon":-59.33333,"geocoding":{},"distantMaxMiles":5},"Departamento de Maipú":{"countryName":"Argentina","stateName":"Chaco","name":"Departamento de Maipú","lat":-26.33333,"lon":-60.41667,"geocoding":{},"distantMaxMiles":5},"Departamento de Nueve de Julio":{"countryName":"Argentina","stateName":"Chaco","name":"Departamento de Nueve de Julio","lat":-26.95331,"lon":-61.27627,"geocoding":{},"distantMaxMiles":5},"Departamento de O’Higgins":{"countryName":"Argentina","stateName":"Chaco","name":"Departamento de O’Higgins","lat":-27.25,"lon":-60.66667,"geocoding":{},"distantMaxMiles":5},"Departamento de Presidencia de la Plaza":{"countryName":"Argentina","stateName":"Chaco","name":"Departamento de Presidencia de la Plaza","lat":-27,"lon":-59.75,"geocoding":{},"distantMaxMiles":5},"Departamento de Quitilipi":{"countryName":"Argentina","stateName":"Chaco","name":"Departamento de Quitilipi","lat":-26.66667,"lon":-60.16667,"geocoding":{},"distantMaxMiles":5},"Departamento de San Fernando":{"countryName":"Argentina","stateName":"Chaco","name":"Departamento de San Fernando","lat":-27.66667,"lon":-59.16667,"geocoding":{},"distantMaxMiles":5},"Departamento de San Lorenzo":{"countryName":"Argentina","stateName":"Chaco","name":"Departamento de San Lorenzo","lat":-27.33333,"lon":-60.41667,"geocoding":{},"distantMaxMiles":5},"Departamento de Sargento Cabral":{"countryName":"Argentina","stateName":"Chaco","name":"Departamento de Sargento Cabral","lat":-26.83333,"lon":-59.5,"geocoding":{},"distantMaxMiles":5},"Departamento de Tapenagá":{"countryName":"Argentina","stateName":"Chaco","name":"Departamento de Tapenagá","lat":-27.5,"lon":-59.75,"geocoding":{},"distantMaxMiles":5},"Fontana":{"countryName":"Argentina","stateName":"Chaco","name":"Fontana","lat":-27.41813,"lon":-59.02392,"geocoding":{},"distantMaxMiles":5},"Gancedo":{"countryName":"Argentina","stateName":"Chaco","name":"Gancedo","lat":-27.49038,"lon":-61.67571,"geocoding":{},"distantMaxMiles":5},"General José de San Martín":{"countryName":"Argentina","stateName":"Chaco","name":"General José de San Martín","lat":-26.53743,"lon":-59.34158,"geocoding":{},"distantMaxMiles":5},"General Pinedo":{"countryName":"Argentina","stateName":"Chaco","name":"General Pinedo","lat":-27.31667,"lon":-61.28333,"geocoding":{},"distantMaxMiles":5},"General Vedia":{"countryName":"Argentina","stateName":"Chaco","name":"General Vedia","lat":-26.93382,"lon":-58.6604,"geocoding":{},"distantMaxMiles":5},"Hermoso Campo":{"countryName":"Argentina","stateName":"Chaco","name":"Hermoso Campo","lat":-27.60816,"lon":-61.34441,"geocoding":{},"distantMaxMiles":5},"La Clotilde":{"countryName":"Argentina","stateName":"Chaco","name":"La Clotilde","lat":-27.13333,"lon":-60.66667,"geocoding":{},"distantMaxMiles":5},"La Eduvigis":{"countryName":"Argentina","stateName":"Chaco","name":"La Eduvigis","lat":-26.83607,"lon":-59.06211,"geocoding":{},"distantMaxMiles":5},"La Escondida":{"countryName":"Argentina","stateName":"Chaco","name":"La Escondida","lat":-27.10724,"lon":-59.44784,"geocoding":{},"distantMaxMiles":5},"La Leonesa":{"countryName":"Argentina","stateName":"Chaco","name":"La Leonesa","lat":-27.03786,"lon":-58.70347,"geocoding":{},"distantMaxMiles":5},"La Tigra":{"countryName":"Argentina","stateName":"Chaco","name":"La Tigra","lat":-27.10996,"lon":-60.58719,"geocoding":{},"distantMaxMiles":5},"La Verde":{"countryName":"Argentina","stateName":"Chaco","name":"La Verde","lat":-27.12634,"lon":-59.37352,"geocoding":{},"distantMaxMiles":5},"Laguna Limpia":{"countryName":"Argentina","stateName":"Chaco","name":"Laguna Limpia","lat":-26.49565,"lon":-59.68083,"geocoding":{},"distantMaxMiles":5},"Lapachito":{"countryName":"Argentina","stateName":"Chaco","name":"Lapachito","lat":-27.15997,"lon":-59.38605,"geocoding":{},"distantMaxMiles":5},"Las Breñas":{"countryName":"Argentina","stateName":"Chaco","name":"Las Breñas","lat":-27.08966,"lon":-61.08161,"geocoding":{},"distantMaxMiles":5},"Las Garcitas":{"countryName":"Argentina","stateName":"Chaco","name":"Las Garcitas","lat":-26.61802,"lon":-59.80135,"geocoding":{},"distantMaxMiles":5},"Los Frentones":{"countryName":"Argentina","stateName":"Chaco","name":"Los Frentones","lat":-26.4077,"lon":-61.41367,"geocoding":{},"distantMaxMiles":5},"Machagai":{"countryName":"Argentina","stateName":"Chaco","name":"Machagai","lat":-26.92614,"lon":-60.04955,"geocoding":{},"distantMaxMiles":5},"Makallé":{"countryName":"Argentina","stateName":"Chaco","name":"Makallé","lat":-27.20687,"lon":-59.28696,"geocoding":{},"distantMaxMiles":5},"Margarita Belén":{"countryName":"Argentina","stateName":"Chaco","name":"Margarita Belén","lat":-27.2616,"lon":-58.97219,"geocoding":{},"distantMaxMiles":5},"Napenay":{"countryName":"Argentina","stateName":"Chaco","name":"Napenay","lat":-26.73333,"lon":-60.61667,"geocoding":{},"distantMaxMiles":5},"Pampa Almirón":{"countryName":"Argentina","stateName":"Chaco","name":"Pampa Almirón","lat":-26.70039,"lon":-59.12331,"geocoding":{},"distantMaxMiles":5},"Pampa del Indio":{"countryName":"Argentina","stateName":"Chaco","name":"Pampa del Indio","lat":-26.04982,"lon":-59.93728,"geocoding":{},"distantMaxMiles":5},"Pampa del Infierno":{"countryName":"Argentina","stateName":"Chaco","name":"Pampa del Infierno","lat":-26.50517,"lon":-61.17436,"geocoding":{},"distantMaxMiles":5},"Presidencia Roca":{"countryName":"Argentina","stateName":"Chaco","name":"Presidencia Roca","lat":-26.1409,"lon":-59.59541,"geocoding":{},"distantMaxMiles":5},"Presidencia Roque Sáenz Peña":{"countryName":"Argentina","stateName":"Chaco","name":"Presidencia Roque Sáenz Peña","lat":-26.78522,"lon":-60.43876,"geocoding":{},"distantMaxMiles":5},"Presidencia de la Plaza":{"countryName":"Argentina","stateName":"Chaco","name":"Presidencia de la Plaza","lat":-27.00147,"lon":-59.84243,"geocoding":{},"distantMaxMiles":5},"Puerto Bermejo":{"countryName":"Argentina","stateName":"Chaco","name":"Puerto Bermejo","lat":-26.92739,"lon":-58.50917,"geocoding":{},"distantMaxMiles":5},"Puerto Tirol":{"countryName":"Argentina","stateName":"Chaco","name":"Puerto Tirol","lat":-27.37218,"lon":-59.08206,"geocoding":{},"distantMaxMiles":5},"Puerto Vilelas":{"countryName":"Argentina","stateName":"Chaco","name":"Puerto Vilelas","lat":-27.51414,"lon":-58.93906,"geocoding":{},"distantMaxMiles":5},"Quitilipi":{"countryName":"Argentina","stateName":"Chaco","name":"Quitilipi","lat":-26.86913,"lon":-60.21683,"geocoding":{},"distantMaxMiles":5},"Resistencia":{"countryName":"Argentina","stateName":"Chaco","name":"Resistencia","lat":-27.46056,"lon":-58.98389,"geocoding":{},"distantMaxMiles":5},"Samuhú":{"countryName":"Argentina","stateName":"Chaco","name":"Samuhú","lat":-27.52116,"lon":-60.39167,"geocoding":{},"distantMaxMiles":5},"San Bernardo":{"countryName":"Argentina","stateName":"Chaco","name":"San Bernardo","lat":-27.28782,"lon":-60.71252,"geocoding":{},"distantMaxMiles":5},"Santa Sylvina":{"countryName":"Argentina","stateName":"Chaco","name":"Santa Sylvina","lat":-27.83261,"lon":-61.13747,"geocoding":{},"distantMaxMiles":5},"Taco Pozo":{"countryName":"Argentina","stateName":"Chaco","name":"Taco Pozo","lat":-25.61557,"lon":-63.26708,"geocoding":{},"distantMaxMiles":5},"Tres Isletas":{"countryName":"Argentina","stateName":"Chaco","name":"Tres Isletas","lat":-26.34067,"lon":-60.43207,"geocoding":{},"distantMaxMiles":5},"Villa Berthet":{"countryName":"Argentina","stateName":"Chaco","name":"Villa Berthet","lat":-27.29174,"lon":-60.41263,"geocoding":{},"distantMaxMiles":5},"Villa Ángela":{"countryName":"Argentina","stateName":"Chaco","name":"Villa Ángela","lat":-27.57383,"lon":-60.71526,"geocoding":{},"distantMaxMiles":5}}},"Chubut":{"countryName":"Argentina","name":"Chubut","isoCode":"U","lat":-43.2934246,"lon":-65.1114818,"geocoding":{},"distantMaxMiles":5,"cities":{"Alto Río Senguer":{"countryName":"Argentina","stateName":"Chubut","name":"Alto Río Senguer","lat":-45.04105,"lon":-70.81982,"geocoding":{},"distantMaxMiles":5},"Camarones":{"countryName":"Argentina","stateName":"Chubut","name":"Camarones","lat":-44.79709,"lon":-65.70994,"geocoding":{},"distantMaxMiles":5},"Comodoro Rivadavia":{"countryName":"Argentina","stateName":"Chubut","name":"Comodoro Rivadavia","lat":-45.86413,"lon":-67.49656,"geocoding":{},"distantMaxMiles":5},"Departamento de Biedma":{"countryName":"Argentina","stateName":"Chubut","name":"Departamento de Biedma","lat":-42.41667,"lon":-65,"geocoding":{},"distantMaxMiles":5},"Departamento de Cushamen":{"countryName":"Argentina","stateName":"Chubut","name":"Departamento de Cushamen","lat":-42.5,"lon":-70.83333,"geocoding":{},"distantMaxMiles":5},"Departamento de Escalante":{"countryName":"Argentina","stateName":"Chubut","name":"Departamento de Escalante","lat":-45.33333,"lon":-67.33333,"geocoding":{},"distantMaxMiles":5},"Departamento de Florentino Ameghino":{"countryName":"Argentina","stateName":"Chubut","name":"Departamento de Florentino Ameghino","lat":-44.41667,"lon":-66.16667,"geocoding":{},"distantMaxMiles":5},"Departamento de Futaleufú":{"countryName":"Argentina","stateName":"Chubut","name":"Departamento de Futaleufú","lat":-43.08333,"lon":-71.41667,"geocoding":{},"distantMaxMiles":5},"Departamento de Gaimán":{"countryName":"Argentina","stateName":"Chubut","name":"Departamento de Gaimán","lat":-43.33333,"lon":-66.33333,"geocoding":{},"distantMaxMiles":5},"Departamento de Gastre":{"countryName":"Argentina","stateName":"Chubut","name":"Departamento de Gastre","lat":-42.83333,"lon":-68.66667,"geocoding":{},"distantMaxMiles":5},"Departamento de Languiñeo":{"countryName":"Argentina","stateName":"Chubut","name":"Departamento de Languiñeo","lat":-43.33333,"lon":-70.66667,"geocoding":{},"distantMaxMiles":5},"Departamento de Mártires":{"countryName":"Argentina","stateName":"Chubut","name":"Departamento de Mártires","lat":-43.83333,"lon":-67.16667,"geocoding":{},"distantMaxMiles":5},"Departamento de Paso de Indios":{"countryName":"Argentina","stateName":"Chubut","name":"Departamento de Paso de Indios","lat":-44,"lon":-68.83333,"geocoding":{},"distantMaxMiles":5},"Departamento de Rawson":{"countryName":"Argentina","stateName":"Chubut","name":"Departamento de Rawson","lat":-43.12342,"lon":-65.10179,"geocoding":{},"distantMaxMiles":5},"Departamento de Río Senguerr":{"countryName":"Argentina","stateName":"Chubut","name":"Departamento de Río Senguerr","lat":-45.33333,"lon":-70.83333,"geocoding":{},"distantMaxMiles":5},"Departamento de Sarmiento":{"countryName":"Argentina","stateName":"Chubut","name":"Departamento de Sarmiento","lat":-45.33333,"lon":-69,"geocoding":{},"distantMaxMiles":5},"Departamento de Tehuelches":{"countryName":"Argentina","stateName":"Chubut","name":"Departamento de Tehuelches","lat":-44.22132,"lon":-70.2526,"geocoding":{},"distantMaxMiles":5},"Departamento de Telsen":{"countryName":"Argentina","stateName":"Chubut","name":"Departamento de Telsen","lat":-42.41667,"lon":-67.16667,"geocoding":{},"distantMaxMiles":5},"Dolavón":{"countryName":"Argentina","stateName":"Chubut","name":"Dolavón","lat":-43.30684,"lon":-65.70651,"geocoding":{},"distantMaxMiles":5},"El Maitén":{"countryName":"Argentina","stateName":"Chubut","name":"El Maitén","lat":-42.04924,"lon":-71.16693,"geocoding":{},"distantMaxMiles":5},"Esquel":{"countryName":"Argentina","stateName":"Chubut","name":"Esquel","lat":-42.91147,"lon":-71.31947,"geocoding":{},"distantMaxMiles":5},"Gaimán":{"countryName":"Argentina","stateName":"Chubut","name":"Gaimán","lat":-43.2897,"lon":-65.4929,"geocoding":{},"distantMaxMiles":5},"Gastre":{"countryName":"Argentina","stateName":"Chubut","name":"Gastre","lat":-42.26186,"lon":-69.22112,"geocoding":{},"distantMaxMiles":5},"Gobernador Costa":{"countryName":"Argentina","stateName":"Chubut","name":"Gobernador Costa","lat":-44.04992,"lon":-70.59798,"geocoding":{},"distantMaxMiles":5},"Hoyo de Epuyén":{"countryName":"Argentina","stateName":"Chubut","name":"Hoyo de Epuyén","lat":-42.07189,"lon":-71.50811,"geocoding":{},"distantMaxMiles":5},"José de San Martín":{"countryName":"Argentina","stateName":"Chubut","name":"José de San Martín","lat":-44.05032,"lon":-70.46967,"geocoding":{},"distantMaxMiles":5},"Lago Puelo":{"countryName":"Argentina","stateName":"Chubut","name":"Lago Puelo","lat":-42.06684,"lon":-71.60384,"geocoding":{},"distantMaxMiles":5},"Las Plumas":{"countryName":"Argentina","stateName":"Chubut","name":"Las Plumas","lat":-43.72058,"lon":-67.28319,"geocoding":{},"distantMaxMiles":5},"Puerto Madryn":{"countryName":"Argentina","stateName":"Chubut","name":"Puerto Madryn","lat":-42.7692,"lon":-65.03851,"geocoding":{},"distantMaxMiles":5},"Rada Tilly":{"countryName":"Argentina","stateName":"Chubut","name":"Rada Tilly","lat":-45.92462,"lon":-67.55424,"geocoding":{},"distantMaxMiles":5},"Rawson":{"countryName":"Argentina","stateName":"Chubut","name":"Rawson","lat":-43.30016,"lon":-65.10228,"geocoding":{},"distantMaxMiles":5},"Río Mayo":{"countryName":"Argentina","stateName":"Chubut","name":"Río Mayo","lat":-45.68573,"lon":-70.25797,"geocoding":{},"distantMaxMiles":5},"Río Pico":{"countryName":"Argentina","stateName":"Chubut","name":"Río Pico","lat":-44.17905,"lon":-71.36847,"geocoding":{},"distantMaxMiles":5},"Sarmiento":{"countryName":"Argentina","stateName":"Chubut","name":"Sarmiento","lat":-45.58815,"lon":-69.06996,"geocoding":{},"distantMaxMiles":5},"Tecka":{"countryName":"Argentina","stateName":"Chubut","name":"Tecka","lat":-43.49489,"lon":-70.8102,"geocoding":{},"distantMaxMiles":5},"Trelew":{"countryName":"Argentina","stateName":"Chubut","name":"Trelew","lat":-43.24895,"lon":-65.30505,"geocoding":{},"distantMaxMiles":5},"Trevelin":{"countryName":"Argentina","stateName":"Chubut","name":"Trevelin","lat":-43.0858,"lon":-71.46386,"geocoding":{},"distantMaxMiles":5}}},"Ciudad Autónoma de Buenos Aires":{"countryName":"Argentina","name":"Ciudad Autónoma de Buenos Aires","isoCode":"C","lat":-34.6036844,"lon":-58.3815591,"geocoding":{},"distantMaxMiles":5,"cities":{}},"Corrientes":{"countryName":"Argentina","name":"Corrientes","isoCode":"W","lat":-27.4692131,"lon":-58.8306349,"geocoding":{},"distantMaxMiles":5,"cities":{"Alvear":{"countryName":"Argentina","stateName":"Corrientes","name":"Alvear","lat":-29.09683,"lon":-56.55043,"geocoding":{},"distantMaxMiles":5},"Berón de Astrada":{"countryName":"Argentina","stateName":"Corrientes","name":"Berón de Astrada","lat":-27.55067,"lon":-57.5346,"geocoding":{},"distantMaxMiles":5},"Bonpland":{"countryName":"Argentina","stateName":"Corrientes","name":"Bonpland","lat":-29.81708,"lon":-57.42974,"geocoding":{},"distantMaxMiles":5},"Chavarría":{"countryName":"Argentina","stateName":"Corrientes","name":"Chavarría","lat":-28.95489,"lon":-58.57277,"geocoding":{},"distantMaxMiles":5},"Concepción":{"countryName":"Argentina","stateName":"Corrientes","name":"Concepción","lat":-28.39175,"lon":-57.88777,"geocoding":{},"distantMaxMiles":5},"Corrientes":{"countryName":"Argentina","stateName":"Corrientes","name":"Corrientes","lat":-27.46784,"lon":-58.8344,"geocoding":{},"distantMaxMiles":5},"Cruz de los Milagros":{"countryName":"Argentina","stateName":"Corrientes","name":"Cruz de los Milagros","lat":-28.83646,"lon":-59.00476,"geocoding":{},"distantMaxMiles":5},"Curuzú Cuatiá":{"countryName":"Argentina","stateName":"Corrientes","name":"Curuzú Cuatiá","lat":-29.79171,"lon":-58.0546,"geocoding":{},"distantMaxMiles":5},"Departamento de Bella Vista":{"countryName":"Argentina","stateName":"Corrientes","name":"Departamento de Bella Vista","lat":-28.5,"lon":-58.83333,"geocoding":{},"distantMaxMiles":5},"Departamento de Berón de Astrada":{"countryName":"Argentina","stateName":"Corrientes","name":"Departamento de Berón de Astrada","lat":-27.5,"lon":-57.66667,"geocoding":{},"distantMaxMiles":5},"Departamento de Capital":{"countryName":"Argentina","stateName":"Corrientes","name":"Departamento de Capital","lat":-27.5,"lon":-58.75,"geocoding":{},"distantMaxMiles":5},"Departamento de Concepción":{"countryName":"Argentina","stateName":"Corrientes","name":"Departamento de Concepción","lat":-28.33333,"lon":-58,"geocoding":{},"distantMaxMiles":5},"Departamento de Curuzú Cuatiá":{"countryName":"Argentina","stateName":"Corrientes","name":"Departamento de Curuzú Cuatiá","lat":-29.5,"lon":-58.5,"geocoding":{},"distantMaxMiles":5},"Departamento de Empedrado":{"countryName":"Argentina","stateName":"Corrientes","name":"Departamento de Empedrado","lat":-27.83333,"lon":-58.66667,"geocoding":{},"distantMaxMiles":5},"Departamento de Esquina":{"countryName":"Argentina","stateName":"Corrientes","name":"Departamento de Esquina","lat":-30,"lon":-59.33333,"geocoding":{},"distantMaxMiles":5},"Departamento de General Alvear":{"countryName":"Argentina","stateName":"Corrientes","name":"Departamento de General Alvear","lat":-28.83333,"lon":-56.5,"geocoding":{},"distantMaxMiles":5},"Departamento de General Paz":{"countryName":"Argentina","stateName":"Corrientes","name":"Departamento de General Paz","lat":-27.75,"lon":-57.83333,"geocoding":{},"distantMaxMiles":5},"Departamento de Goya":{"countryName":"Argentina","stateName":"Corrientes","name":"Departamento de Goya","lat":-29.5,"lon":-59.5,"geocoding":{},"distantMaxMiles":5},"Departamento de Itatí":{"countryName":"Argentina","stateName":"Corrientes","name":"Departamento de Itatí","lat":-27.33333,"lon":-58,"geocoding":{},"distantMaxMiles":5},"Departamento de Ituzaingó":{"countryName":"Argentina","stateName":"Corrientes","name":"Departamento de Ituzaingó","lat":-27.90085,"lon":-56.86604,"geocoding":{},"distantMaxMiles":5},"Departamento de Lavalle":{"countryName":"Argentina","stateName":"Corrientes","name":"Departamento de Lavalle","lat":-29,"lon":-58.91667,"geocoding":{},"distantMaxMiles":5},"Departamento de Mburucuyá":{"countryName":"Argentina","stateName":"Corrientes","name":"Departamento de Mburucuyá","lat":-28,"lon":-58.25,"geocoding":{},"distantMaxMiles":5},"Departamento de Mercedes":{"countryName":"Argentina","stateName":"Corrientes","name":"Departamento de Mercedes","lat":-29,"lon":-57.83333,"geocoding":{},"distantMaxMiles":5},"Departamento de Monte Caseros":{"countryName":"Argentina","stateName":"Corrientes","name":"Departamento de Monte Caseros","lat":-30.25,"lon":-57.83333,"geocoding":{},"distantMaxMiles":5},"Departamento de Paso de los Libres":{"countryName":"Argentina","stateName":"Corrientes","name":"Departamento de Paso de los Libres","lat":-29.66667,"lon":-57.25,"geocoding":{},"distantMaxMiles":5},"Departamento de Saladas":{"countryName":"Argentina","stateName":"Corrientes","name":"Departamento de Saladas","lat":-28.25,"lon":-58.75,"geocoding":{},"distantMaxMiles":5},"Departamento de San Cosme":{"countryName":"Argentina","stateName":"Corrientes","name":"Departamento de San Cosme","lat":-27.33333,"lon":-58.5,"geocoding":{},"distantMaxMiles":5},"Departamento de San Luis del Palmar":{"countryName":"Argentina","stateName":"Corrientes","name":"Departamento de San Luis del Palmar","lat":-27.5,"lon":-58.25,"geocoding":{},"distantMaxMiles":5},"Departamento de San Martín":{"countryName":"Argentina","stateName":"Corrientes","name":"Departamento de San Martín","lat":-28.83333,"lon":-56.91667,"geocoding":{},"distantMaxMiles":5},"Departamento de San Miguel":{"countryName":"Argentina","stateName":"Corrientes","name":"Departamento de San Miguel","lat":-27.91667,"lon":-57.5,"geocoding":{},"distantMaxMiles":5},"Departamento de San Roque":{"countryName":"Argentina","stateName":"Corrientes","name":"Departamento de San Roque","lat":-28.66667,"lon":-58.75,"geocoding":{},"distantMaxMiles":5},"Departamento de Santo Tomé":{"countryName":"Argentina","stateName":"Corrientes","name":"Departamento de Santo Tomé","lat":-28.25,"lon":-56.25,"geocoding":{},"distantMaxMiles":5},"Departamento de Sauce":{"countryName":"Argentina","stateName":"Corrientes","name":"Departamento de Sauce","lat":-30,"lon":-58.66667,"geocoding":{},"distantMaxMiles":5},"Empedrado":{"countryName":"Argentina","stateName":"Corrientes","name":"Empedrado","lat":-27.95178,"lon":-58.80584,"geocoding":{},"distantMaxMiles":5},"Esquina":{"countryName":"Argentina","stateName":"Corrientes","name":"Esquina","lat":-30.01476,"lon":-59.5289,"geocoding":{},"distantMaxMiles":5},"Felipe Yofré":{"countryName":"Argentina","stateName":"Corrientes","name":"Felipe Yofré","lat":-29.10226,"lon":-58.33772,"geocoding":{},"distantMaxMiles":5},"Garruchos":{"countryName":"Argentina","stateName":"Corrientes","name":"Garruchos","lat":-28.17208,"lon":-55.65406,"geocoding":{},"distantMaxMiles":5},"Gobernador Juan E. Martínez":{"countryName":"Argentina","stateName":"Corrientes","name":"Gobernador Juan E. Martínez","lat":-28.91161,"lon":-58.93594,"geocoding":{},"distantMaxMiles":5},"Gobernador Virasora":{"countryName":"Argentina","stateName":"Corrientes","name":"Gobernador Virasora","lat":-28.05,"lon":-56.03333,"geocoding":{},"distantMaxMiles":5},"Goya":{"countryName":"Argentina","stateName":"Corrientes","name":"Goya","lat":-29.13995,"lon":-59.26343,"geocoding":{},"distantMaxMiles":5},"Herlitzka":{"countryName":"Argentina","stateName":"Corrientes","name":"Herlitzka","lat":-27.56516,"lon":-58.25557,"geocoding":{},"distantMaxMiles":5},"Itatí":{"countryName":"Argentina","stateName":"Corrientes","name":"Itatí","lat":-27.27043,"lon":-58.24458,"geocoding":{},"distantMaxMiles":5},"Ituzaingó":{"countryName":"Argentina","stateName":"Corrientes","name":"Ituzaingó","lat":-27.58162,"lon":-56.68231,"geocoding":{},"distantMaxMiles":5},"Itá Ibaté":{"countryName":"Argentina","stateName":"Corrientes","name":"Itá Ibaté","lat":-27.42573,"lon":-57.33758,"geocoding":{},"distantMaxMiles":5},"Juan Pujol":{"countryName":"Argentina","stateName":"Corrientes","name":"Juan Pujol","lat":-30.41873,"lon":-57.85612,"geocoding":{},"distantMaxMiles":5},"La Cruz":{"countryName":"Argentina","stateName":"Corrientes","name":"La Cruz","lat":-29.17443,"lon":-56.64326,"geocoding":{},"distantMaxMiles":5},"Libertad":{"countryName":"Argentina","stateName":"Corrientes","name":"Libertad","lat":-30.043,"lon":-57.8202,"geocoding":{},"distantMaxMiles":5},"Lomas de Vallejos":{"countryName":"Argentina","stateName":"Corrientes","name":"Lomas de Vallejos","lat":-27.73501,"lon":-57.9185,"geocoding":{},"distantMaxMiles":5},"Loreto":{"countryName":"Argentina","stateName":"Corrientes","name":"Loreto","lat":-27.76834,"lon":-57.27531,"geocoding":{},"distantMaxMiles":5},"Mariano I. Loza":{"countryName":"Argentina","stateName":"Corrientes","name":"Mariano I. Loza","lat":-29.37667,"lon":-58.19436,"geocoding":{},"distantMaxMiles":5},"Mburucuyá":{"countryName":"Argentina","stateName":"Corrientes","name":"Mburucuyá","lat":-28.04532,"lon":-58.22835,"geocoding":{},"distantMaxMiles":5},"Mercedes":{"countryName":"Argentina","stateName":"Corrientes","name":"Mercedes","lat":-29.18416,"lon":-58.07519,"geocoding":{},"distantMaxMiles":5},"Mocoretá":{"countryName":"Argentina","stateName":"Corrientes","name":"Mocoretá","lat":-30.61891,"lon":-57.96344,"geocoding":{},"distantMaxMiles":5},"Monte Caseros":{"countryName":"Argentina","stateName":"Corrientes","name":"Monte Caseros","lat":-30.25359,"lon":-57.63626,"geocoding":{},"distantMaxMiles":5},"Nuestra Señora del Rosario de Caa Catí":{"countryName":"Argentina","stateName":"Corrientes","name":"Nuestra Señora del Rosario de Caa Catí","lat":-27.75072,"lon":-57.62073,"geocoding":{},"distantMaxMiles":5},"Nueve de Julio":{"countryName":"Argentina","stateName":"Corrientes","name":"Nueve de Julio","lat":-28.84051,"lon":-58.8265,"geocoding":{},"distantMaxMiles":5},"Palmar Grande":{"countryName":"Argentina","stateName":"Corrientes","name":"Palmar Grande","lat":-27.94195,"lon":-57.90057,"geocoding":{},"distantMaxMiles":5},"Paso de la Patria":{"countryName":"Argentina","stateName":"Corrientes","name":"Paso de la Patria","lat":-27.31676,"lon":-58.57197,"geocoding":{},"distantMaxMiles":5},"Paso de los Libres":{"countryName":"Argentina","stateName":"Corrientes","name":"Paso de los Libres","lat":-29.71251,"lon":-57.08771,"geocoding":{},"distantMaxMiles":5},"Pedro R. Fernández":{"countryName":"Argentina","stateName":"Corrientes","name":"Pedro R. Fernández","lat":-28.75097,"lon":-58.65583,"geocoding":{},"distantMaxMiles":5},"Perugorría":{"countryName":"Argentina","stateName":"Corrientes","name":"Perugorría","lat":-29.34132,"lon":-58.61059,"geocoding":{},"distantMaxMiles":5},"Pueblo Libertador":{"countryName":"Argentina","stateName":"Corrientes","name":"Pueblo Libertador","lat":-30.22087,"lon":-59.38981,"geocoding":{},"distantMaxMiles":5},"Riachuelo":{"countryName":"Argentina","stateName":"Corrientes","name":"Riachuelo","lat":-27.58191,"lon":-58.74497,"geocoding":{},"distantMaxMiles":5},"Saladas":{"countryName":"Argentina","stateName":"Corrientes","name":"Saladas","lat":-28.25384,"lon":-58.62591,"geocoding":{},"distantMaxMiles":5},"San Carlos":{"countryName":"Argentina","stateName":"Corrientes","name":"San Carlos","lat":-27.74586,"lon":-55.89731,"geocoding":{},"distantMaxMiles":5},"San Cosme":{"countryName":"Argentina","stateName":"Corrientes","name":"San Cosme","lat":-27.37123,"lon":-58.51214,"geocoding":{},"distantMaxMiles":5},"San Lorenzo":{"countryName":"Argentina","stateName":"Corrientes","name":"San Lorenzo","lat":-28.13306,"lon":-58.76733,"geocoding":{},"distantMaxMiles":5},"San Luis del Palmar":{"countryName":"Argentina","stateName":"Corrientes","name":"San Luis del Palmar","lat":-27.5079,"lon":-58.55454,"geocoding":{},"distantMaxMiles":5},"San Miguel":{"countryName":"Argentina","stateName":"Corrientes","name":"San Miguel","lat":-27.99585,"lon":-57.58964,"geocoding":{},"distantMaxMiles":5},"Santa Lucía":{"countryName":"Argentina","stateName":"Corrientes","name":"Santa Lucía","lat":-28.98746,"lon":-59.10287,"geocoding":{},"distantMaxMiles":5},"Santa Rosa":{"countryName":"Argentina","stateName":"Corrientes","name":"Santa Rosa","lat":-28.26318,"lon":-58.11891,"geocoding":{},"distantMaxMiles":5},"Santo Tomé":{"countryName":"Argentina","stateName":"Corrientes","name":"Santo Tomé","lat":-28.54939,"lon":-56.04077,"geocoding":{},"distantMaxMiles":5},"Yapeyú":{"countryName":"Argentina","stateName":"Corrientes","name":"Yapeyú","lat":-29.46914,"lon":-56.81841,"geocoding":{},"distantMaxMiles":5},"Yataity Calle":{"countryName":"Argentina","stateName":"Corrientes","name":"Yataity Calle","lat":-29.01913,"lon":-58.90846,"geocoding":{},"distantMaxMiles":5}}},"Córdoba":{"countryName":"Argentina","name":"Córdoba","isoCode":"X","lat":-31.3992876,"lon":-64.2643842,"geocoding":{},"distantMaxMiles":5,"cities":{"Achiras":{"countryName":"Argentina","stateName":"Córdoba","name":"Achiras","lat":-33.17538,"lon":-64.99331,"geocoding":{},"distantMaxMiles":5},"Adelia María":{"countryName":"Argentina","stateName":"Córdoba","name":"Adelia María","lat":-33.63152,"lon":-64.02097,"geocoding":{},"distantMaxMiles":5},"Agua de Oro":{"countryName":"Argentina","stateName":"Córdoba","name":"Agua de Oro","lat":-31.06661,"lon":-64.30017,"geocoding":{},"distantMaxMiles":5},"Alejandro Roca":{"countryName":"Argentina","stateName":"Córdoba","name":"Alejandro Roca","lat":-33.35369,"lon":-63.71849,"geocoding":{},"distantMaxMiles":5},"Alejo Ledesma":{"countryName":"Argentina","stateName":"Córdoba","name":"Alejo Ledesma","lat":-33.60643,"lon":-62.62304,"geocoding":{},"distantMaxMiles":5},"Almafuerte":{"countryName":"Argentina","stateName":"Córdoba","name":"Almafuerte","lat":-32.19296,"lon":-64.25559,"geocoding":{},"distantMaxMiles":5},"Alta Gracia":{"countryName":"Argentina","stateName":"Córdoba","name":"Alta Gracia","lat":-31.65292,"lon":-64.42826,"geocoding":{},"distantMaxMiles":5},"Altos de Chipión":{"countryName":"Argentina","stateName":"Córdoba","name":"Altos de Chipión","lat":-30.9559,"lon":-62.33727,"geocoding":{},"distantMaxMiles":5},"Arias":{"countryName":"Argentina","stateName":"Córdoba","name":"Arias","lat":-33.64411,"lon":-62.40272,"geocoding":{},"distantMaxMiles":5},"Arroyito":{"countryName":"Argentina","stateName":"Córdoba","name":"Arroyito","lat":-31.42022,"lon":-63.05002,"geocoding":{},"distantMaxMiles":5},"Arroyo Cabral":{"countryName":"Argentina","stateName":"Córdoba","name":"Arroyo Cabral","lat":-32.49119,"lon":-63.40126,"geocoding":{},"distantMaxMiles":5},"Balnearia":{"countryName":"Argentina","stateName":"Córdoba","name":"Balnearia","lat":-31.0088,"lon":-62.66733,"geocoding":{},"distantMaxMiles":5},"Bell Ville":{"countryName":"Argentina","stateName":"Córdoba","name":"Bell Ville","lat":-32.62591,"lon":-62.68873,"geocoding":{},"distantMaxMiles":5},"Berrotarán":{"countryName":"Argentina","stateName":"Córdoba","name":"Berrotarán","lat":-32.451,"lon":-64.38867,"geocoding":{},"distantMaxMiles":5},"Brinkmann":{"countryName":"Argentina","stateName":"Córdoba","name":"Brinkmann","lat":-30.86589,"lon":-62.03742,"geocoding":{},"distantMaxMiles":5},"Buchardo":{"countryName":"Argentina","stateName":"Córdoba","name":"Buchardo","lat":-34.72263,"lon":-63.5092,"geocoding":{},"distantMaxMiles":5},"Camilo Aldao":{"countryName":"Argentina","stateName":"Córdoba","name":"Camilo Aldao","lat":-33.12745,"lon":-62.09453,"geocoding":{},"distantMaxMiles":5},"Canals":{"countryName":"Argentina","stateName":"Córdoba","name":"Canals","lat":-33.56542,"lon":-62.88927,"geocoding":{},"distantMaxMiles":5},"Capilla del Monte":{"countryName":"Argentina","stateName":"Córdoba","name":"Capilla del Monte","lat":-30.86088,"lon":-64.52515,"geocoding":{},"distantMaxMiles":5},"Carnerillo":{"countryName":"Argentina","stateName":"Córdoba","name":"Carnerillo","lat":-32.91371,"lon":-64.02175,"geocoding":{},"distantMaxMiles":5},"Carrilobo":{"countryName":"Argentina","stateName":"Córdoba","name":"Carrilobo","lat":-31.87296,"lon":-63.11715,"geocoding":{},"distantMaxMiles":5},"Cavanagh":{"countryName":"Argentina","stateName":"Córdoba","name":"Cavanagh","lat":-33.47606,"lon":-62.33888,"geocoding":{},"distantMaxMiles":5},"Cañada de Luque":{"countryName":"Argentina","stateName":"Córdoba","name":"Cañada de Luque","lat":-30.73341,"lon":-63.72375,"geocoding":{},"distantMaxMiles":5},"Charras":{"countryName":"Argentina","stateName":"Córdoba","name":"Charras","lat":-33.024,"lon":-64.04719,"geocoding":{},"distantMaxMiles":5},"Chazón":{"countryName":"Argentina","stateName":"Córdoba","name":"Chazón","lat":-33.07872,"lon":-63.27657,"geocoding":{},"distantMaxMiles":5},"Cintra":{"countryName":"Argentina","stateName":"Córdoba","name":"Cintra","lat":-32.30673,"lon":-62.65214,"geocoding":{},"distantMaxMiles":5},"Colonia La Tordilla":{"countryName":"Argentina","stateName":"Córdoba","name":"Colonia La Tordilla","lat":-31.23746,"lon":-63.06134,"geocoding":{},"distantMaxMiles":5},"Colonia San Bartolomé":{"countryName":"Argentina","stateName":"Córdoba","name":"Colonia San Bartolomé","lat":-31.5278,"lon":-62.72436,"geocoding":{},"distantMaxMiles":5},"Coronel Baigorria":{"countryName":"Argentina","stateName":"Córdoba","name":"Coronel Baigorria","lat":-32.8477,"lon":-64.36107,"geocoding":{},"distantMaxMiles":5},"Coronel Moldes":{"countryName":"Argentina","stateName":"Córdoba","name":"Coronel Moldes","lat":-33.6227,"lon":-64.59711,"geocoding":{},"distantMaxMiles":5},"Corral de Bustos":{"countryName":"Argentina","stateName":"Córdoba","name":"Corral de Bustos","lat":-33.28205,"lon":-62.18463,"geocoding":{},"distantMaxMiles":5},"Corralito":{"countryName":"Argentina","stateName":"Córdoba","name":"Corralito","lat":-32.02462,"lon":-64.19216,"geocoding":{},"distantMaxMiles":5},"Cosquín":{"countryName":"Argentina","stateName":"Córdoba","name":"Cosquín","lat":-31.24508,"lon":-64.46563,"geocoding":{},"distantMaxMiles":5},"Costa Sacate":{"countryName":"Argentina","stateName":"Córdoba","name":"Costa Sacate","lat":-31.6477,"lon":-63.75935,"geocoding":{},"distantMaxMiles":5},"Cruz Alta":{"countryName":"Argentina","stateName":"Córdoba","name":"Cruz Alta","lat":-33.00887,"lon":-61.80746,"geocoding":{},"distantMaxMiles":5},"Cruz del Eje":{"countryName":"Argentina","stateName":"Córdoba","name":"Cruz del Eje","lat":-30.72644,"lon":-64.80387,"geocoding":{},"distantMaxMiles":5},"Cuesta Blanca":{"countryName":"Argentina","stateName":"Córdoba","name":"Cuesta Blanca","lat":-31.48658,"lon":-64.5715,"geocoding":{},"distantMaxMiles":5},"Córdoba":{"countryName":"Argentina","stateName":"Córdoba","name":"Córdoba","lat":-31.4135,"lon":-64.18105,"geocoding":{},"distantMaxMiles":5},"Dalmacio Vélez Sársfield":{"countryName":"Argentina","stateName":"Córdoba","name":"Dalmacio Vélez Sársfield","lat":-32.61072,"lon":-63.58038,"geocoding":{},"distantMaxMiles":5},"Del Campillo":{"countryName":"Argentina","stateName":"Córdoba","name":"Del Campillo","lat":-34.37659,"lon":-64.49504,"geocoding":{},"distantMaxMiles":5},"Departamento de Calamuchita":{"countryName":"Argentina","stateName":"Córdoba","name":"Departamento de Calamuchita","lat":-32.25,"lon":-64.58333,"geocoding":{},"distantMaxMiles":5},"Departamento de Colón":{"countryName":"Argentina","stateName":"Córdoba","name":"Departamento de Colón","lat":-31.16667,"lon":-64.16667,"geocoding":{},"distantMaxMiles":5},"Departamento de Cruz del Eje":{"countryName":"Argentina","stateName":"Córdoba","name":"Departamento de Cruz del Eje","lat":-30.75,"lon":-65,"geocoding":{},"distantMaxMiles":5},"Departamento de General Roca":{"countryName":"Argentina","stateName":"Córdoba","name":"Departamento de General Roca","lat":-34.66667,"lon":-64.25,"geocoding":{},"distantMaxMiles":5},"Departamento de General San Martín":{"countryName":"Argentina","stateName":"Córdoba","name":"Departamento de General San Martín","lat":-32.5,"lon":-63.33333,"geocoding":{},"distantMaxMiles":5},"Departamento de Juárez Celman":{"countryName":"Argentina","stateName":"Córdoba","name":"Departamento de Juárez Celman","lat":-33.33333,"lon":-63.66667,"geocoding":{},"distantMaxMiles":5},"Departamento de Marcos Juárez":{"countryName":"Argentina","stateName":"Córdoba","name":"Departamento de Marcos Juárez","lat":-33,"lon":-62.25,"geocoding":{},"distantMaxMiles":5},"Departamento de Minas":{"countryName":"Argentina","stateName":"Córdoba","name":"Departamento de Minas","lat":-31,"lon":-65.33333,"geocoding":{},"distantMaxMiles":5},"Departamento de Presidente Roque Sáenz Peña":{"countryName":"Argentina","stateName":"Córdoba","name":"Departamento de Presidente Roque Sáenz Peña","lat":-34.25,"lon":-63.5,"geocoding":{},"distantMaxMiles":5},"Departamento de Río Cuarto":{"countryName":"Argentina","stateName":"Córdoba","name":"Departamento de Río Cuarto","lat":-33.33333,"lon":-64.5,"geocoding":{},"distantMaxMiles":5},"Departamento de Río Primero":{"countryName":"Argentina","stateName":"Córdoba","name":"Departamento de Río Primero","lat":-31.08333,"lon":-63.5,"geocoding":{},"distantMaxMiles":5},"Departamento de Río Seco":{"countryName":"Argentina","stateName":"Córdoba","name":"Departamento de Río Seco","lat":-30.08333,"lon":-63,"geocoding":{},"distantMaxMiles":5},"Departamento de Río Segundo":{"countryName":"Argentina","stateName":"Córdoba","name":"Departamento de Río Segundo","lat":-31.75,"lon":-63.5,"geocoding":{},"distantMaxMiles":5},"Departamento de San Alberto":{"countryName":"Argentina","stateName":"Córdoba","name":"Departamento de San Alberto","lat":-31.75,"lon":-65.25,"geocoding":{},"distantMaxMiles":5},"Departamento de San Javier":{"countryName":"Argentina","stateName":"Córdoba","name":"Departamento de San Javier","lat":-32.08333,"lon":-65.16667,"geocoding":{},"distantMaxMiles":5},"Departamento de San Justo":{"countryName":"Argentina","stateName":"Córdoba","name":"Departamento de San Justo","lat":-31.33333,"lon":-62.66667,"geocoding":{},"distantMaxMiles":5},"Departamento de Sobremonte":{"countryName":"Argentina","stateName":"Córdoba","name":"Departamento de Sobremonte","lat":-29.66667,"lon":-64.08333,"geocoding":{},"distantMaxMiles":5},"Departamento de Totoral":{"countryName":"Argentina","stateName":"Córdoba","name":"Departamento de Totoral","lat":-30.83333,"lon":-63.91667,"geocoding":{},"distantMaxMiles":5},"Departamento de Tulumba":{"countryName":"Argentina","stateName":"Córdoba","name":"Departamento de Tulumba","lat":-30.25,"lon":-63.91667,"geocoding":{},"distantMaxMiles":5},"Departamento de Unión":{"countryName":"Argentina","stateName":"Córdoba","name":"Departamento de Unión","lat":-32.83333,"lon":-62.75,"geocoding":{},"distantMaxMiles":5},"Despeñaderos":{"countryName":"Argentina","stateName":"Córdoba","name":"Despeñaderos","lat":-31.81626,"lon":-64.28989,"geocoding":{},"distantMaxMiles":5},"Devoto":{"countryName":"Argentina","stateName":"Córdoba","name":"Devoto","lat":-31.40431,"lon":-62.30634,"geocoding":{},"distantMaxMiles":5},"Deán Funes":{"countryName":"Argentina","stateName":"Córdoba","name":"Deán Funes","lat":-30.42036,"lon":-64.34984,"geocoding":{},"distantMaxMiles":5},"El Arañado":{"countryName":"Argentina","stateName":"Córdoba","name":"El Arañado","lat":-31.7412,"lon":-62.89322,"geocoding":{},"distantMaxMiles":5},"El Tío":{"countryName":"Argentina","stateName":"Córdoba","name":"El Tío","lat":-31.38357,"lon":-62.82938,"geocoding":{},"distantMaxMiles":5},"Elena":{"countryName":"Argentina","stateName":"Córdoba","name":"Elena","lat":-32.57205,"lon":-64.39481,"geocoding":{},"distantMaxMiles":5},"Embalse":{"countryName":"Argentina","stateName":"Córdoba","name":"Embalse","lat":-32.18,"lon":-64.41809,"geocoding":{},"distantMaxMiles":5},"Etruria":{"countryName":"Argentina","stateName":"Córdoba","name":"Etruria","lat":-32.94008,"lon":-63.2466,"geocoding":{},"distantMaxMiles":5},"General Baldissera":{"countryName":"Argentina","stateName":"Córdoba","name":"General Baldissera","lat":-33.12246,"lon":-62.3063,"geocoding":{},"distantMaxMiles":5},"General Cabrera":{"countryName":"Argentina","stateName":"Córdoba","name":"General Cabrera","lat":-32.81313,"lon":-63.87243,"geocoding":{},"distantMaxMiles":5},"General Levalle":{"countryName":"Argentina","stateName":"Córdoba","name":"General Levalle","lat":-34.01472,"lon":-63.92413,"geocoding":{},"distantMaxMiles":5},"General Roca":{"countryName":"Argentina","stateName":"Córdoba","name":"General Roca","lat":-32.73196,"lon":-61.91599,"geocoding":{},"distantMaxMiles":5},"Guatimozín":{"countryName":"Argentina","stateName":"Córdoba","name":"Guatimozín","lat":-33.46149,"lon":-62.43844,"geocoding":{},"distantMaxMiles":5},"Hernando":{"countryName":"Argentina","stateName":"Córdoba","name":"Hernando","lat":-32.42657,"lon":-63.73333,"geocoding":{},"distantMaxMiles":5},"Huanchillas":{"countryName":"Argentina","stateName":"Córdoba","name":"Huanchillas","lat":-33.66653,"lon":-63.63701,"geocoding":{},"distantMaxMiles":5},"Huerta Grande":{"countryName":"Argentina","stateName":"Córdoba","name":"Huerta Grande","lat":-31.07524,"lon":-64.49063,"geocoding":{},"distantMaxMiles":5},"Huinca Renancó":{"countryName":"Argentina","stateName":"Córdoba","name":"Huinca Renancó","lat":-34.84038,"lon":-64.3758,"geocoding":{},"distantMaxMiles":5},"Idiazábal":{"countryName":"Argentina","stateName":"Córdoba","name":"Idiazábal","lat":-32.81411,"lon":-63.03252,"geocoding":{},"distantMaxMiles":5},"Inriville":{"countryName":"Argentina","stateName":"Córdoba","name":"Inriville","lat":-32.94424,"lon":-62.23028,"geocoding":{},"distantMaxMiles":5},"Isla Verde":{"countryName":"Argentina","stateName":"Córdoba","name":"Isla Verde","lat":-33.24104,"lon":-62.40297,"geocoding":{},"distantMaxMiles":5},"Italó":{"countryName":"Argentina","stateName":"Córdoba","name":"Italó","lat":-34.79237,"lon":-63.78199,"geocoding":{},"distantMaxMiles":5},"James Craik":{"countryName":"Argentina","stateName":"Córdoba","name":"James Craik","lat":-32.1612,"lon":-63.46688,"geocoding":{},"distantMaxMiles":5},"Jesús María":{"countryName":"Argentina","stateName":"Córdoba","name":"Jesús María","lat":-30.98153,"lon":-64.09424,"geocoding":{},"distantMaxMiles":5},"Justiniano Posse":{"countryName":"Argentina","stateName":"Córdoba","name":"Justiniano Posse","lat":-32.88411,"lon":-62.67788,"geocoding":{},"distantMaxMiles":5},"La Calera":{"countryName":"Argentina","stateName":"Córdoba","name":"La Calera","lat":-31.34377,"lon":-64.33529,"geocoding":{},"distantMaxMiles":5},"La Carlota":{"countryName":"Argentina","stateName":"Córdoba","name":"La Carlota","lat":-33.41993,"lon":-63.29769,"geocoding":{},"distantMaxMiles":5},"La Cesira":{"countryName":"Argentina","stateName":"Córdoba","name":"La Cesira","lat":-33.95115,"lon":-62.97238,"geocoding":{},"distantMaxMiles":5},"La Cumbre":{"countryName":"Argentina","stateName":"Córdoba","name":"La Cumbre","lat":-30.98201,"lon":-64.49139,"geocoding":{},"distantMaxMiles":5},"La Falda":{"countryName":"Argentina","stateName":"Córdoba","name":"La Falda","lat":-31.08841,"lon":-64.48987,"geocoding":{},"distantMaxMiles":5},"La Francia":{"countryName":"Argentina","stateName":"Córdoba","name":"La Francia","lat":-31.40675,"lon":-62.63396,"geocoding":{},"distantMaxMiles":5},"La Granja":{"countryName":"Argentina","stateName":"Córdoba","name":"La Granja","lat":-31.00919,"lon":-64.26869,"geocoding":{},"distantMaxMiles":5},"La Para":{"countryName":"Argentina","stateName":"Córdoba","name":"La Para","lat":-30.89416,"lon":-63.00107,"geocoding":{},"distantMaxMiles":5},"La Playosa":{"countryName":"Argentina","stateName":"Córdoba","name":"La Playosa","lat":-32.10002,"lon":-63.03088,"geocoding":{},"distantMaxMiles":5},"Laborde":{"countryName":"Argentina","stateName":"Córdoba","name":"Laborde","lat":-33.15319,"lon":-62.85661,"geocoding":{},"distantMaxMiles":5},"Laboulaye":{"countryName":"Argentina","stateName":"Córdoba","name":"Laboulaye","lat":-34.12662,"lon":-63.39119,"geocoding":{},"distantMaxMiles":5},"Laguna Larga":{"countryName":"Argentina","stateName":"Córdoba","name":"Laguna Larga","lat":-31.77652,"lon":-63.80104,"geocoding":{},"distantMaxMiles":5},"Las Acequias":{"countryName":"Argentina","stateName":"Córdoba","name":"Las Acequias","lat":-33.28155,"lon":-63.9761,"geocoding":{},"distantMaxMiles":5},"Las Higueras":{"countryName":"Argentina","stateName":"Córdoba","name":"Las Higueras","lat":-33.09231,"lon":-64.28899,"geocoding":{},"distantMaxMiles":5},"Las Junturas":{"countryName":"Argentina","stateName":"Córdoba","name":"Las Junturas","lat":-31.83125,"lon":-63.45016,"geocoding":{},"distantMaxMiles":5},"Las Perdices":{"countryName":"Argentina","stateName":"Córdoba","name":"Las Perdices","lat":-32.69794,"lon":-63.70634,"geocoding":{},"distantMaxMiles":5},"Las Varas":{"countryName":"Argentina","stateName":"Córdoba","name":"Las Varas","lat":-31.8026,"lon":-62.61655,"geocoding":{},"distantMaxMiles":5},"Las Varillas":{"countryName":"Argentina","stateName":"Córdoba","name":"Las Varillas","lat":-31.87208,"lon":-62.71946,"geocoding":{},"distantMaxMiles":5},"Leones":{"countryName":"Argentina","stateName":"Córdoba","name":"Leones","lat":-32.66174,"lon":-62.29678,"geocoding":{},"distantMaxMiles":5},"Los Cocos":{"countryName":"Argentina","stateName":"Córdoba","name":"Los Cocos","lat":-30.92497,"lon":-64.50207,"geocoding":{},"distantMaxMiles":5},"Los Cóndores":{"countryName":"Argentina","stateName":"Córdoba","name":"Los Cóndores","lat":-32.31983,"lon":-64.27751,"geocoding":{},"distantMaxMiles":5},"Los Surgentes":{"countryName":"Argentina","stateName":"Córdoba","name":"Los Surgentes","lat":-32.98454,"lon":-62.02191,"geocoding":{},"distantMaxMiles":5},"Malagueño":{"countryName":"Argentina","stateName":"Córdoba","name":"Malagueño","lat":-31.46467,"lon":-64.3584,"geocoding":{},"distantMaxMiles":5},"Malvinas Argentinas":{"countryName":"Argentina","stateName":"Córdoba","name":"Malvinas Argentinas","lat":-31.38194,"lon":-64.05545,"geocoding":{},"distantMaxMiles":5},"Marcos Juárez":{"countryName":"Argentina","stateName":"Córdoba","name":"Marcos Juárez","lat":-32.6978,"lon":-62.10672,"geocoding":{},"distantMaxMiles":5},"Marull":{"countryName":"Argentina","stateName":"Córdoba","name":"Marull","lat":-30.99471,"lon":-62.82576,"geocoding":{},"distantMaxMiles":5},"Mattaldi":{"countryName":"Argentina","stateName":"Córdoba","name":"Mattaldi","lat":-34.48194,"lon":-64.17255,"geocoding":{},"distantMaxMiles":5},"Mendiolaza":{"countryName":"Argentina","stateName":"Córdoba","name":"Mendiolaza","lat":-31.26738,"lon":-64.30087,"geocoding":{},"distantMaxMiles":5},"Mina Clavero":{"countryName":"Argentina","stateName":"Córdoba","name":"Mina Clavero","lat":-31.72101,"lon":-65.00619,"geocoding":{},"distantMaxMiles":5},"Miramar":{"countryName":"Argentina","stateName":"Córdoba","name":"Miramar","lat":-30.91859,"lon":-62.67814,"geocoding":{},"distantMaxMiles":5},"Monte Buey":{"countryName":"Argentina","stateName":"Córdoba","name":"Monte Buey","lat":-32.91642,"lon":-62.45669,"geocoding":{},"distantMaxMiles":5},"Monte Cristo":{"countryName":"Argentina","stateName":"Córdoba","name":"Monte Cristo","lat":-31.34312,"lon":-63.94437,"geocoding":{},"distantMaxMiles":5},"Monte Maíz":{"countryName":"Argentina","stateName":"Córdoba","name":"Monte Maíz","lat":-33.20462,"lon":-62.60085,"geocoding":{},"distantMaxMiles":5},"Morrison":{"countryName":"Argentina","stateName":"Córdoba","name":"Morrison","lat":-32.5948,"lon":-62.83455,"geocoding":{},"distantMaxMiles":5},"Morteros":{"countryName":"Argentina","stateName":"Córdoba","name":"Morteros","lat":-30.71164,"lon":-61.99862,"geocoding":{},"distantMaxMiles":5},"Noetinger":{"countryName":"Argentina","stateName":"Córdoba","name":"Noetinger","lat":-32.36597,"lon":-62.31126,"geocoding":{},"distantMaxMiles":5},"Obispo Trejo":{"countryName":"Argentina","stateName":"Córdoba","name":"Obispo Trejo","lat":-30.78128,"lon":-63.41349,"geocoding":{},"distantMaxMiles":5},"Oliva":{"countryName":"Argentina","stateName":"Córdoba","name":"Oliva","lat":-32.04158,"lon":-63.56978,"geocoding":{},"distantMaxMiles":5},"Oncativo":{"countryName":"Argentina","stateName":"Córdoba","name":"Oncativo","lat":-31.91353,"lon":-63.68201,"geocoding":{},"distantMaxMiles":5},"Ordóñez":{"countryName":"Argentina","stateName":"Córdoba","name":"Ordóñez","lat":-32.84057,"lon":-62.86552,"geocoding":{},"distantMaxMiles":5},"Pascanas":{"countryName":"Argentina","stateName":"Córdoba","name":"Pascanas","lat":-33.1255,"lon":-63.04084,"geocoding":{},"distantMaxMiles":5},"Pasco":{"countryName":"Argentina","stateName":"Córdoba","name":"Pasco","lat":-32.74733,"lon":-63.34232,"geocoding":{},"distantMaxMiles":5},"Pilar":{"countryName":"Argentina","stateName":"Córdoba","name":"Pilar","lat":-31.6789,"lon":-63.87964,"geocoding":{},"distantMaxMiles":5},"Piquillín":{"countryName":"Argentina","stateName":"Córdoba","name":"Piquillín","lat":-31.30158,"lon":-63.75788,"geocoding":{},"distantMaxMiles":5},"Porteña":{"countryName":"Argentina","stateName":"Córdoba","name":"Porteña","lat":-31.01391,"lon":-62.0665,"geocoding":{},"distantMaxMiles":5},"Pozo del Molle":{"countryName":"Argentina","stateName":"Córdoba","name":"Pozo del Molle","lat":-32.0186,"lon":-62.91984,"geocoding":{},"distantMaxMiles":5},"Quilino":{"countryName":"Argentina","stateName":"Córdoba","name":"Quilino","lat":-30.21397,"lon":-64.50063,"geocoding":{},"distantMaxMiles":5},"Río Ceballos":{"countryName":"Argentina","stateName":"Córdoba","name":"Río Ceballos","lat":-31.16486,"lon":-64.32241,"geocoding":{},"distantMaxMiles":5},"Río Cuarto":{"countryName":"Argentina","stateName":"Córdoba","name":"Río Cuarto","lat":-33.13067,"lon":-64.34992,"geocoding":{},"distantMaxMiles":5},"Río Segundo":{"countryName":"Argentina","stateName":"Córdoba","name":"Río Segundo","lat":-31.6526,"lon":-63.9099,"geocoding":{},"distantMaxMiles":5},"Río Tercero":{"countryName":"Argentina","stateName":"Córdoba","name":"Río Tercero","lat":-32.17301,"lon":-64.11405,"geocoding":{},"distantMaxMiles":5},"Sacanta":{"countryName":"Argentina","stateName":"Córdoba","name":"Sacanta","lat":-31.663,"lon":-63.04505,"geocoding":{},"distantMaxMiles":5},"Saldán":{"countryName":"Argentina","stateName":"Córdoba","name":"Saldán","lat":-31.30262,"lon":-64.307,"geocoding":{},"distantMaxMiles":5},"Salsacate":{"countryName":"Argentina","stateName":"Córdoba","name":"Salsacate","lat":-31.31842,"lon":-65.09003,"geocoding":{},"distantMaxMiles":5},"Salsipuedes":{"countryName":"Argentina","stateName":"Córdoba","name":"Salsipuedes","lat":-31.13725,"lon":-64.29589,"geocoding":{},"distantMaxMiles":5},"Sampacho":{"countryName":"Argentina","stateName":"Córdoba","name":"Sampacho","lat":-33.3839,"lon":-64.72211,"geocoding":{},"distantMaxMiles":5},"San Agustín":{"countryName":"Argentina","stateName":"Córdoba","name":"San Agustín","lat":-31.97681,"lon":-64.374,"geocoding":{},"distantMaxMiles":5},"San Antonio de Litín":{"countryName":"Argentina","stateName":"Córdoba","name":"San Antonio de Litín","lat":-32.21377,"lon":-62.63237,"geocoding":{},"distantMaxMiles":5},"San Basilio":{"countryName":"Argentina","stateName":"Córdoba","name":"San Basilio","lat":-33.49763,"lon":-64.31495,"geocoding":{},"distantMaxMiles":5},"San Carlos":{"countryName":"Argentina","stateName":"Córdoba","name":"San Carlos","lat":-31.17761,"lon":-65.10245,"geocoding":{},"distantMaxMiles":5},"San Francisco":{"countryName":"Argentina","stateName":"Córdoba","name":"San Francisco","lat":-31.42797,"lon":-62.08266,"geocoding":{},"distantMaxMiles":5},"San Francisco del Chañar":{"countryName":"Argentina","stateName":"Córdoba","name":"San Francisco del Chañar","lat":-29.7883,"lon":-63.94411,"geocoding":{},"distantMaxMiles":5},"San José de la Dormida":{"countryName":"Argentina","stateName":"Córdoba","name":"San José de la Dormida","lat":-30.3544,"lon":-63.94871,"geocoding":{},"distantMaxMiles":5},"Santa Eufemia":{"countryName":"Argentina","stateName":"Córdoba","name":"Santa Eufemia","lat":-33.17659,"lon":-63.28281,"geocoding":{},"distantMaxMiles":5},"Santa Magdalena":{"countryName":"Argentina","stateName":"Córdoba","name":"Santa Magdalena","lat":-34.51776,"lon":-63.94409,"geocoding":{},"distantMaxMiles":5},"Santa Rosa de Calamuchita":{"countryName":"Argentina","stateName":"Córdoba","name":"Santa Rosa de Calamuchita","lat":-32.06905,"lon":-64.53631,"geocoding":{},"distantMaxMiles":5},"Santa Rosa de Río Primero":{"countryName":"Argentina","stateName":"Córdoba","name":"Santa Rosa de Río Primero","lat":-31.15231,"lon":-63.40191,"geocoding":{},"distantMaxMiles":5},"Santiago Temple":{"countryName":"Argentina","stateName":"Córdoba","name":"Santiago Temple","lat":-31.38731,"lon":-63.41821,"geocoding":{},"distantMaxMiles":5},"Saturnino M. Laspiur":{"countryName":"Argentina","stateName":"Córdoba","name":"Saturnino M. Laspiur","lat":-31.70287,"lon":-62.48202,"geocoding":{},"distantMaxMiles":5},"Sebastián Elcano":{"countryName":"Argentina","stateName":"Córdoba","name":"Sebastián Elcano","lat":-30.16105,"lon":-63.5936,"geocoding":{},"distantMaxMiles":5},"Serrano":{"countryName":"Argentina","stateName":"Córdoba","name":"Serrano","lat":-34.46971,"lon":-63.53842,"geocoding":{},"distantMaxMiles":5},"Serrezuela":{"countryName":"Argentina","stateName":"Córdoba","name":"Serrezuela","lat":-30.63761,"lon":-65.38692,"geocoding":{},"distantMaxMiles":5},"Tancacha":{"countryName":"Argentina","stateName":"Córdoba","name":"Tancacha","lat":-32.24309,"lon":-63.9807,"geocoding":{},"distantMaxMiles":5},"Ticino":{"countryName":"Argentina","stateName":"Córdoba","name":"Ticino","lat":-32.6935,"lon":-63.43606,"geocoding":{},"distantMaxMiles":5},"Toledo":{"countryName":"Argentina","stateName":"Córdoba","name":"Toledo","lat":-31.55574,"lon":-64.00947,"geocoding":{},"distantMaxMiles":5},"Tío Pujio":{"countryName":"Argentina","stateName":"Córdoba","name":"Tío Pujio","lat":-32.2879,"lon":-63.35598,"geocoding":{},"distantMaxMiles":5},"Ucacha":{"countryName":"Argentina","stateName":"Córdoba","name":"Ucacha","lat":-33.03203,"lon":-63.50666,"geocoding":{},"distantMaxMiles":5},"Unquillo":{"countryName":"Argentina","stateName":"Córdoba","name":"Unquillo","lat":-31.23073,"lon":-64.31615,"geocoding":{},"distantMaxMiles":5},"Valle Hermoso":{"countryName":"Argentina","stateName":"Córdoba","name":"Valle Hermoso","lat":-31.11732,"lon":-64.48084,"geocoding":{},"distantMaxMiles":5},"Viamonte":{"countryName":"Argentina","stateName":"Córdoba","name":"Viamonte","lat":-33.74647,"lon":-63.09764,"geocoding":{},"distantMaxMiles":5},"Vicuña Mackenna":{"countryName":"Argentina","stateName":"Córdoba","name":"Vicuña Mackenna","lat":-33.91965,"lon":-64.39215,"geocoding":{},"distantMaxMiles":5},"Villa Allende":{"countryName":"Argentina","stateName":"Córdoba","name":"Villa Allende","lat":-31.29458,"lon":-64.29538,"geocoding":{},"distantMaxMiles":5},"Villa Ascasubi":{"countryName":"Argentina","stateName":"Córdoba","name":"Villa Ascasubi","lat":-32.16351,"lon":-63.89157,"geocoding":{},"distantMaxMiles":5},"Villa Berna":{"countryName":"Argentina","stateName":"Córdoba","name":"Villa Berna","lat":-31.91419,"lon":-64.73249,"geocoding":{},"distantMaxMiles":5},"Villa Carlos Paz":{"countryName":"Argentina","stateName":"Córdoba","name":"Villa Carlos Paz","lat":-31.42414,"lon":-64.49778,"geocoding":{},"distantMaxMiles":5},"Villa Concepción del Tío":{"countryName":"Argentina","stateName":"Córdoba","name":"Villa Concepción del Tío","lat":-31.32259,"lon":-62.81354,"geocoding":{},"distantMaxMiles":5},"Villa Cura Brochero":{"countryName":"Argentina","stateName":"Córdoba","name":"Villa Cura Brochero","lat":-31.70578,"lon":-65.01796,"geocoding":{},"distantMaxMiles":5},"Villa Dolores":{"countryName":"Argentina","stateName":"Córdoba","name":"Villa Dolores","lat":-31.94585,"lon":-65.18958,"geocoding":{},"distantMaxMiles":5},"Villa General Belgrano":{"countryName":"Argentina","stateName":"Córdoba","name":"Villa General Belgrano","lat":-31.97828,"lon":-64.55627,"geocoding":{},"distantMaxMiles":5},"Villa Giardino":{"countryName":"Argentina","stateName":"Córdoba","name":"Villa Giardino","lat":-31.03333,"lon":-64.48333,"geocoding":{},"distantMaxMiles":5},"Villa Huidobro":{"countryName":"Argentina","stateName":"Córdoba","name":"Villa Huidobro","lat":-34.83826,"lon":-64.58686,"geocoding":{},"distantMaxMiles":5},"Villa Las Rosas":{"countryName":"Argentina","stateName":"Córdoba","name":"Villa Las Rosas","lat":-31.95021,"lon":-65.05354,"geocoding":{},"distantMaxMiles":5},"Villa María":{"countryName":"Argentina","stateName":"Córdoba","name":"Villa María","lat":-32.40751,"lon":-63.24016,"geocoding":{},"distantMaxMiles":5},"Villa Nueva":{"countryName":"Argentina","stateName":"Córdoba","name":"Villa Nueva","lat":-32.43293,"lon":-63.24763,"geocoding":{},"distantMaxMiles":5},"Villa Reducción":{"countryName":"Argentina","stateName":"Córdoba","name":"Villa Reducción","lat":-33.20105,"lon":-63.86234,"geocoding":{},"distantMaxMiles":5},"Villa Rumipal":{"countryName":"Argentina","stateName":"Córdoba","name":"Villa Rumipal","lat":-32.1879,"lon":-64.48027,"geocoding":{},"distantMaxMiles":5},"Villa Tulumba":{"countryName":"Argentina","stateName":"Córdoba","name":"Villa Tulumba","lat":-30.39552,"lon":-64.12241,"geocoding":{},"distantMaxMiles":5},"Villa Valeria":{"countryName":"Argentina","stateName":"Córdoba","name":"Villa Valeria","lat":-34.34093,"lon":-64.9203,"geocoding":{},"distantMaxMiles":5},"Villa de Soto":{"countryName":"Argentina","stateName":"Córdoba","name":"Villa de Soto","lat":-30.85523,"lon":-64.99947,"geocoding":{},"distantMaxMiles":5},"Villa del Dique":{"countryName":"Argentina","stateName":"Córdoba","name":"Villa del Dique","lat":-32.17667,"lon":-64.45543,"geocoding":{},"distantMaxMiles":5},"Villa del Rosario":{"countryName":"Argentina","stateName":"Córdoba","name":"Villa del Rosario","lat":-31.5566,"lon":-63.53452,"geocoding":{},"distantMaxMiles":5},"Villa del Totoral":{"countryName":"Argentina","stateName":"Córdoba","name":"Villa del Totoral","lat":-30.81667,"lon":-63.71667,"geocoding":{},"distantMaxMiles":5},"Wenceslao Escalante":{"countryName":"Argentina","stateName":"Córdoba","name":"Wenceslao Escalante","lat":-33.17303,"lon":-62.77078,"geocoding":{},"distantMaxMiles":5}}},"Entre Ríos":{"countryName":"Argentina","name":"Entre Ríos","isoCode":"E","lat":-31.7746654,"lon":-60.4956461,"geocoding":{},"distantMaxMiles":5,"cities":{"Aldea San Antonio":{"countryName":"Argentina","stateName":"Entre Ríos","name":"Aldea San Antonio","lat":-32.62317,"lon":-58.70512,"geocoding":{},"distantMaxMiles":5},"Aranguren":{"countryName":"Argentina","stateName":"Entre Ríos","name":"Aranguren","lat":-32.24252,"lon":-60.16107,"geocoding":{},"distantMaxMiles":5},"Bovril":{"countryName":"Argentina","stateName":"Entre Ríos","name":"Bovril","lat":-31.34311,"lon":-59.44512,"geocoding":{},"distantMaxMiles":5},"Caseros":{"countryName":"Argentina","stateName":"Entre Ríos","name":"Caseros","lat":-32.46325,"lon":-58.47872,"geocoding":{},"distantMaxMiles":5},"Ceibas":{"countryName":"Argentina","stateName":"Entre Ríos","name":"Ceibas","lat":-33.43333,"lon":-58.75,"geocoding":{},"distantMaxMiles":5},"Chajarí":{"countryName":"Argentina","stateName":"Entre Ríos","name":"Chajarí","lat":-30.75048,"lon":-57.97962,"geocoding":{},"distantMaxMiles":5},"Colonia Elía":{"countryName":"Argentina","stateName":"Entre Ríos","name":"Colonia Elía","lat":-32.67144,"lon":-58.32538,"geocoding":{},"distantMaxMiles":5},"Colón":{"countryName":"Argentina","stateName":"Entre Ríos","name":"Colón","lat":-32.22312,"lon":-58.14426,"geocoding":{},"distantMaxMiles":5},"Concepción del Uruguay":{"countryName":"Argentina","stateName":"Entre Ríos","name":"Concepción del Uruguay","lat":-32.48463,"lon":-58.23217,"geocoding":{},"distantMaxMiles":5},"Concordia":{"countryName":"Argentina","stateName":"Entre Ríos","name":"Concordia","lat":-31.39296,"lon":-58.02089,"geocoding":{},"distantMaxMiles":5},"Conscripto Bernardi":{"countryName":"Argentina","stateName":"Entre Ríos","name":"Conscripto Bernardi","lat":-31.04837,"lon":-59.08435,"geocoding":{},"distantMaxMiles":5},"Crespo":{"countryName":"Argentina","stateName":"Entre Ríos","name":"Crespo","lat":-32.02873,"lon":-60.30658,"geocoding":{},"distantMaxMiles":5},"Departamento de Gualeguaychú":{"countryName":"Argentina","stateName":"Entre Ríos","name":"Departamento de Gualeguaychú","lat":-33.25,"lon":-59,"geocoding":{},"distantMaxMiles":5},"Departamento de Paraná":{"countryName":"Argentina","stateName":"Entre Ríos","name":"Departamento de Paraná","lat":-31.66667,"lon":-60,"geocoding":{},"distantMaxMiles":5},"Diamante":{"countryName":"Argentina","stateName":"Entre Ríos","name":"Diamante","lat":-32.06641,"lon":-60.63837,"geocoding":{},"distantMaxMiles":5},"Domínguez":{"countryName":"Argentina","stateName":"Entre Ríos","name":"Domínguez","lat":-31.9871,"lon":-58.96197,"geocoding":{},"distantMaxMiles":5},"Federación":{"countryName":"Argentina","stateName":"Entre Ríos","name":"Federación","lat":-31.00621,"lon":-57.89962,"geocoding":{},"distantMaxMiles":5},"Federal":{"countryName":"Argentina","stateName":"Entre Ríos","name":"Federal","lat":-30.95465,"lon":-58.78326,"geocoding":{},"distantMaxMiles":5},"General Campos":{"countryName":"Argentina","stateName":"Entre Ríos","name":"General Campos","lat":-31.52311,"lon":-58.4049,"geocoding":{},"distantMaxMiles":5},"General Galarza":{"countryName":"Argentina","stateName":"Entre Ríos","name":"General Galarza","lat":-32.72034,"lon":-59.39615,"geocoding":{},"distantMaxMiles":5},"General Ramírez":{"countryName":"Argentina","stateName":"Entre Ríos","name":"General Ramírez","lat":-32.17601,"lon":-60.20079,"geocoding":{},"distantMaxMiles":5},"Gobernador Mansilla":{"countryName":"Argentina","stateName":"Entre Ríos","name":"Gobernador Mansilla","lat":-32.54453,"lon":-59.3548,"geocoding":{},"distantMaxMiles":5},"Gualeguay":{"countryName":"Argentina","stateName":"Entre Ríos","name":"Gualeguay","lat":-33.14156,"lon":-59.30966,"geocoding":{},"distantMaxMiles":5},"Gualeguaychú":{"countryName":"Argentina","stateName":"Entre Ríos","name":"Gualeguaychú","lat":-33.00937,"lon":-58.51722,"geocoding":{},"distantMaxMiles":5},"Hasenkamp":{"countryName":"Argentina","stateName":"Entre Ríos","name":"Hasenkamp","lat":-31.51226,"lon":-59.83545,"geocoding":{},"distantMaxMiles":5},"Hernández":{"countryName":"Argentina","stateName":"Entre Ríos","name":"Hernández","lat":-32.3373,"lon":-60.0216,"geocoding":{},"distantMaxMiles":5},"Herrera":{"countryName":"Argentina","stateName":"Entre Ríos","name":"Herrera","lat":-32.43401,"lon":-58.63177,"geocoding":{},"distantMaxMiles":5},"La Criolla":{"countryName":"Argentina","stateName":"Entre Ríos","name":"La Criolla","lat":-31.26904,"lon":-58.10558,"geocoding":{},"distantMaxMiles":5},"La Paz":{"countryName":"Argentina","stateName":"Entre Ríos","name":"La Paz","lat":-30.74179,"lon":-59.64517,"geocoding":{},"distantMaxMiles":5},"Larroque":{"countryName":"Argentina","stateName":"Entre Ríos","name":"Larroque","lat":-33.03595,"lon":-59.00125,"geocoding":{},"distantMaxMiles":5},"Los Charrúas":{"countryName":"Argentina","stateName":"Entre Ríos","name":"Los Charrúas","lat":-31.17548,"lon":-58.18774,"geocoding":{},"distantMaxMiles":5},"Los Conquistadores":{"countryName":"Argentina","stateName":"Entre Ríos","name":"Los Conquistadores","lat":-30.5908,"lon":-58.46773,"geocoding":{},"distantMaxMiles":5},"Lucas González":{"countryName":"Argentina","stateName":"Entre Ríos","name":"Lucas González","lat":-32.3843,"lon":-59.53013,"geocoding":{},"distantMaxMiles":5},"Maciá":{"countryName":"Argentina","stateName":"Entre Ríos","name":"Maciá","lat":-32.1722,"lon":-59.39947,"geocoding":{},"distantMaxMiles":5},"Nogoyá":{"countryName":"Argentina","stateName":"Entre Ríos","name":"Nogoyá","lat":-32.39387,"lon":-59.78953,"geocoding":{},"distantMaxMiles":5},"Oro Verde":{"countryName":"Argentina","stateName":"Entre Ríos","name":"Oro Verde","lat":-31.82508,"lon":-60.51749,"geocoding":{},"distantMaxMiles":5},"Paraná":{"countryName":"Argentina","stateName":"Entre Ríos","name":"Paraná","lat":-31.73271,"lon":-60.52897,"geocoding":{},"distantMaxMiles":5},"Piedras Blancas":{"countryName":"Argentina","stateName":"Entre Ríos","name":"Piedras Blancas","lat":-31.18592,"lon":-59.95181,"geocoding":{},"distantMaxMiles":5},"Pronunciamiento":{"countryName":"Argentina","stateName":"Entre Ríos","name":"Pronunciamiento","lat":-32.3448,"lon":-58.44268,"geocoding":{},"distantMaxMiles":5},"Puerto Ibicuy":{"countryName":"Argentina","stateName":"Entre Ríos","name":"Puerto Ibicuy","lat":-33.75305,"lon":-59.17762,"geocoding":{},"distantMaxMiles":5},"Puerto Yeruá":{"countryName":"Argentina","stateName":"Entre Ríos","name":"Puerto Yeruá","lat":-31.53713,"lon":-58.01527,"geocoding":{},"distantMaxMiles":5},"Rosario del Tala":{"countryName":"Argentina","stateName":"Entre Ríos","name":"Rosario del Tala","lat":-32.30286,"lon":-59.14545,"geocoding":{},"distantMaxMiles":5},"San Benito":{"countryName":"Argentina","stateName":"Entre Ríos","name":"San Benito","lat":-31.78371,"lon":-60.44156,"geocoding":{},"distantMaxMiles":5},"San Gustavo":{"countryName":"Argentina","stateName":"Entre Ríos","name":"San Gustavo","lat":-30.68961,"lon":-59.3984,"geocoding":{},"distantMaxMiles":5},"San José de Feliciano":{"countryName":"Argentina","stateName":"Entre Ríos","name":"San José de Feliciano","lat":-30.38452,"lon":-58.75167,"geocoding":{},"distantMaxMiles":5},"San Justo":{"countryName":"Argentina","stateName":"Entre Ríos","name":"San Justo","lat":-32.44654,"lon":-58.43569,"geocoding":{},"distantMaxMiles":5},"San Salvador":{"countryName":"Argentina","stateName":"Entre Ríos","name":"San Salvador","lat":-31.62487,"lon":-58.50524,"geocoding":{},"distantMaxMiles":5},"Santa Ana":{"countryName":"Argentina","stateName":"Entre Ríos","name":"Santa Ana","lat":-30.90004,"lon":-57.93162,"geocoding":{},"distantMaxMiles":5},"Santa Anita":{"countryName":"Argentina","stateName":"Entre Ríos","name":"Santa Anita","lat":-32.17476,"lon":-58.78622,"geocoding":{},"distantMaxMiles":5},"Santa Elena":{"countryName":"Argentina","stateName":"Entre Ríos","name":"Santa Elena","lat":-30.94432,"lon":-59.78832,"geocoding":{},"distantMaxMiles":5},"Sauce de Luna":{"countryName":"Argentina","stateName":"Entre Ríos","name":"Sauce de Luna","lat":-31.23794,"lon":-59.21872,"geocoding":{},"distantMaxMiles":5},"Seguí":{"countryName":"Argentina","stateName":"Entre Ríos","name":"Seguí","lat":-31.95642,"lon":-60.12488,"geocoding":{},"distantMaxMiles":5},"Tabossi":{"countryName":"Argentina","stateName":"Entre Ríos","name":"Tabossi","lat":-31.80135,"lon":-59.93477,"geocoding":{},"distantMaxMiles":5},"Ubajay":{"countryName":"Argentina","stateName":"Entre Ríos","name":"Ubajay","lat":-31.79358,"lon":-58.3135,"geocoding":{},"distantMaxMiles":5},"Urdinarrain":{"countryName":"Argentina","stateName":"Entre Ríos","name":"Urdinarrain","lat":-32.68573,"lon":-58.89323,"geocoding":{},"distantMaxMiles":5},"Viale":{"countryName":"Argentina","stateName":"Entre Ríos","name":"Viale","lat":-31.86782,"lon":-60.00722,"geocoding":{},"distantMaxMiles":5},"Victoria":{"countryName":"Argentina","stateName":"Entre Ríos","name":"Victoria","lat":-32.61841,"lon":-60.15478,"geocoding":{},"distantMaxMiles":5},"Villa Elisa":{"countryName":"Argentina","stateName":"Entre Ríos","name":"Villa Elisa","lat":-32.1632,"lon":-58.40082,"geocoding":{},"distantMaxMiles":5},"Villa Hernandarias":{"countryName":"Argentina","stateName":"Entre Ríos","name":"Villa Hernandarias","lat":-31.23097,"lon":-59.98464,"geocoding":{},"distantMaxMiles":5},"Villa Mantero":{"countryName":"Argentina","stateName":"Entre Ríos","name":"Villa Mantero","lat":-32.39727,"lon":-58.74596,"geocoding":{},"distantMaxMiles":5},"Villa María Grande":{"countryName":"Argentina","stateName":"Entre Ríos","name":"Villa María Grande","lat":-31.66565,"lon":-59.90182,"geocoding":{},"distantMaxMiles":5},"Villa Paranacito":{"countryName":"Argentina","stateName":"Entre Ríos","name":"Villa Paranacito","lat":-33.71381,"lon":-58.65844,"geocoding":{},"distantMaxMiles":5},"Villa Urquiza":{"countryName":"Argentina","stateName":"Entre Ríos","name":"Villa Urquiza","lat":-31.64757,"lon":-60.37516,"geocoding":{},"distantMaxMiles":5},"Villa del Rosario":{"countryName":"Argentina","stateName":"Entre Ríos","name":"Villa del Rosario","lat":-30.79567,"lon":-57.91257,"geocoding":{},"distantMaxMiles":5},"Villaguay":{"countryName":"Argentina","stateName":"Entre Ríos","name":"Villaguay","lat":-31.8653,"lon":-59.02689,"geocoding":{},"distantMaxMiles":5}}},"Formosa":{"countryName":"Argentina","name":"Formosa","isoCode":"P","lat":-26.1894804,"lon":-58.2242806,"geocoding":{},"distantMaxMiles":5,"cities":{"Clorinda":{"countryName":"Argentina","stateName":"Formosa","name":"Clorinda","lat":-25.28481,"lon":-57.71851,"geocoding":{},"distantMaxMiles":5},"Comandante Fontana":{"countryName":"Argentina","stateName":"Formosa","name":"Comandante Fontana","lat":-25.33453,"lon":-59.68212,"geocoding":{},"distantMaxMiles":5},"Departamento de Pilcomayo":{"countryName":"Argentina","stateName":"Formosa","name":"Departamento de Pilcomayo","lat":-25.5,"lon":-58.08333,"geocoding":{},"distantMaxMiles":5},"El Colorado":{"countryName":"Argentina","stateName":"Formosa","name":"El Colorado","lat":-26.30808,"lon":-59.37291,"geocoding":{},"distantMaxMiles":5},"Estanislao del Campo":{"countryName":"Argentina","stateName":"Formosa","name":"Estanislao del Campo","lat":-25.05504,"lon":-60.09218,"geocoding":{},"distantMaxMiles":5},"Formosa":{"countryName":"Argentina","stateName":"Formosa","name":"Formosa","lat":-26.18489,"lon":-58.17313,"geocoding":{},"distantMaxMiles":5},"General Enrique Mosconi":{"countryName":"Argentina","stateName":"Formosa","name":"General Enrique Mosconi","lat":-23.21667,"lon":-62.3,"geocoding":{},"distantMaxMiles":5},"Herradura":{"countryName":"Argentina","stateName":"Formosa","name":"Herradura","lat":-26.48705,"lon":-58.31198,"geocoding":{},"distantMaxMiles":5},"Ibarreta":{"countryName":"Argentina","stateName":"Formosa","name":"Ibarreta","lat":-25.21438,"lon":-59.85851,"geocoding":{},"distantMaxMiles":5},"Ingeniero Guillermo N. Juárez":{"countryName":"Argentina","stateName":"Formosa","name":"Ingeniero Guillermo N. Juárez","lat":-23.9,"lon":-61.85,"geocoding":{},"distantMaxMiles":5},"Laguna Naick-Neck":{"countryName":"Argentina","stateName":"Formosa","name":"Laguna Naick-Neck","lat":-25.24769,"lon":-58.09383,"geocoding":{},"distantMaxMiles":5},"Laguna Yema":{"countryName":"Argentina","stateName":"Formosa","name":"Laguna Yema","lat":-24.25391,"lon":-61.24466,"geocoding":{},"distantMaxMiles":5},"Las Lomitas":{"countryName":"Argentina","stateName":"Formosa","name":"Las Lomitas","lat":-24.70955,"lon":-60.59303,"geocoding":{},"distantMaxMiles":5},"Palo Santo":{"countryName":"Argentina","stateName":"Formosa","name":"Palo Santo","lat":-25.56332,"lon":-59.33781,"geocoding":{},"distantMaxMiles":5},"Pirané":{"countryName":"Argentina","stateName":"Formosa","name":"Pirané","lat":-25.73239,"lon":-59.10879,"geocoding":{},"distantMaxMiles":5},"Pozo del Tigre":{"countryName":"Argentina","stateName":"Formosa","name":"Pozo del Tigre","lat":-24.89682,"lon":-60.32359,"geocoding":{},"distantMaxMiles":5},"Riacho Eh-Eh":{"countryName":"Argentina","stateName":"Formosa","name":"Riacho Eh-Eh","lat":-25.36209,"lon":-58.2775,"geocoding":{},"distantMaxMiles":5},"San Francisco de Laishí":{"countryName":"Argentina","stateName":"Formosa","name":"San Francisco de Laishí","lat":-26.24262,"lon":-58.63039,"geocoding":{},"distantMaxMiles":5},"Villa Escolar":{"countryName":"Argentina","stateName":"Formosa","name":"Villa Escolar","lat":-26.62209,"lon":-58.67134,"geocoding":{},"distantMaxMiles":5},"Villa General Guemes":{"countryName":"Argentina","stateName":"Formosa","name":"Villa General Guemes","lat":-24.7553,"lon":-59.4894,"geocoding":{},"distantMaxMiles":5}}},"Jujuy":{"countryName":"Argentina","name":"Jujuy","isoCode":"Y","lat":-24.1843397,"lon":-65.302177,"geocoding":{},"distantMaxMiles":5,"cities":{"Abra Pampa":{"countryName":"Argentina","stateName":"Jujuy","name":"Abra Pampa","lat":-22.72049,"lon":-65.69697,"geocoding":{},"distantMaxMiles":5},"Caimancito":{"countryName":"Argentina","stateName":"Jujuy","name":"Caimancito","lat":-23.74069,"lon":-64.5937,"geocoding":{},"distantMaxMiles":5},"Calilegua":{"countryName":"Argentina","stateName":"Jujuy","name":"Calilegua","lat":-23.77368,"lon":-64.77002,"geocoding":{},"distantMaxMiles":5},"Departamento de Cochinoca":{"countryName":"Argentina","stateName":"Jujuy","name":"Departamento de Cochinoca","lat":-23,"lon":-65.83333,"geocoding":{},"distantMaxMiles":5},"Departamento de Rinconada":{"countryName":"Argentina","stateName":"Jujuy","name":"Departamento de Rinconada","lat":-22.5,"lon":-66.5,"geocoding":{},"distantMaxMiles":5},"Departamento de Tumbaya":{"countryName":"Argentina","stateName":"Jujuy","name":"Departamento de Tumbaya","lat":-23.71667,"lon":-65.66667,"geocoding":{},"distantMaxMiles":5},"El Aguilar":{"countryName":"Argentina","stateName":"Jujuy","name":"El Aguilar","lat":-23.21572,"lon":-65.68005,"geocoding":{},"distantMaxMiles":5},"Fraile Pintado":{"countryName":"Argentina","stateName":"Jujuy","name":"Fraile Pintado","lat":-23.94079,"lon":-64.79943,"geocoding":{},"distantMaxMiles":5},"Humahuaca":{"countryName":"Argentina","stateName":"Jujuy","name":"Humahuaca","lat":-23.20544,"lon":-65.35048,"geocoding":{},"distantMaxMiles":5},"Ingenio La Esperanza":{"countryName":"Argentina","stateName":"Jujuy","name":"Ingenio La Esperanza","lat":-24.22554,"lon":-64.83896,"geocoding":{},"distantMaxMiles":5},"La Mendieta":{"countryName":"Argentina","stateName":"Jujuy","name":"La Mendieta","lat":-24.31187,"lon":-64.96377,"geocoding":{},"distantMaxMiles":5},"La Quiaca":{"countryName":"Argentina","stateName":"Jujuy","name":"La Quiaca","lat":-22.10236,"lon":-65.59299,"geocoding":{},"distantMaxMiles":5},"Libertador General San Martín":{"countryName":"Argentina","stateName":"Jujuy","name":"Libertador General San Martín","lat":-23.80644,"lon":-64.78757,"geocoding":{},"distantMaxMiles":5},"Maimará":{"countryName":"Argentina","stateName":"Jujuy","name":"Maimará","lat":-23.62392,"lon":-65.40797,"geocoding":{},"distantMaxMiles":5},"Palma Sola":{"countryName":"Argentina","stateName":"Jujuy","name":"Palma Sola","lat":-23.97771,"lon":-64.30311,"geocoding":{},"distantMaxMiles":5},"Palpalá":{"countryName":"Argentina","stateName":"Jujuy","name":"Palpalá","lat":-24.25647,"lon":-65.21163,"geocoding":{},"distantMaxMiles":5},"San Pedro de Jujuy":{"countryName":"Argentina","stateName":"Jujuy","name":"San Pedro de Jujuy","lat":-24.23127,"lon":-64.86614,"geocoding":{},"distantMaxMiles":5},"San Salvador de Jujuy":{"countryName":"Argentina","stateName":"Jujuy","name":"San Salvador de Jujuy","lat":-24.19457,"lon":-65.29712,"geocoding":{},"distantMaxMiles":5},"Santa Clara":{"countryName":"Argentina","stateName":"Jujuy","name":"Santa Clara","lat":-24.30921,"lon":-64.66253,"geocoding":{},"distantMaxMiles":5},"Tilcara":{"countryName":"Argentina","stateName":"Jujuy","name":"Tilcara","lat":-23.57817,"lon":-65.39516,"geocoding":{},"distantMaxMiles":5},"Yuto":{"countryName":"Argentina","stateName":"Jujuy","name":"Yuto","lat":-23.64342,"lon":-64.47194,"geocoding":{},"distantMaxMiles":5}}},"La Pampa":{"countryName":"Argentina","name":"La Pampa","isoCode":"L","lat":-36.6147573,"lon":-64.2839209,"geocoding":{},"distantMaxMiles":5,"cities":{"Alpachiri":{"countryName":"Argentina","stateName":"La Pampa","name":"Alpachiri","lat":-37.37704,"lon":-63.77445,"geocoding":{},"distantMaxMiles":5},"Alta Italia":{"countryName":"Argentina","stateName":"La Pampa","name":"Alta Italia","lat":-35.3335,"lon":-64.11496,"geocoding":{},"distantMaxMiles":5},"Anguil":{"countryName":"Argentina","stateName":"La Pampa","name":"Anguil","lat":-36.52567,"lon":-64.01025,"geocoding":{},"distantMaxMiles":5},"Arata":{"countryName":"Argentina","stateName":"La Pampa","name":"Arata","lat":-35.63895,"lon":-64.35621,"geocoding":{},"distantMaxMiles":5},"Bernardo Larroudé":{"countryName":"Argentina","stateName":"La Pampa","name":"Bernardo Larroudé","lat":-35.02449,"lon":-63.58253,"geocoding":{},"distantMaxMiles":5},"Bernasconi":{"countryName":"Argentina","stateName":"La Pampa","name":"Bernasconi","lat":-37.90459,"lon":-63.7424,"geocoding":{},"distantMaxMiles":5},"Caleufú":{"countryName":"Argentina","stateName":"La Pampa","name":"Caleufú","lat":-35.59559,"lon":-64.55778,"geocoding":{},"distantMaxMiles":5},"Catriló":{"countryName":"Argentina","stateName":"La Pampa","name":"Catriló","lat":-36.40597,"lon":-63.42168,"geocoding":{},"distantMaxMiles":5},"Colonia Barón":{"countryName":"Argentina","stateName":"La Pampa","name":"Colonia Barón","lat":-36.15152,"lon":-63.85404,"geocoding":{},"distantMaxMiles":5},"Departamento de Caleu-Caleu":{"countryName":"Argentina","stateName":"La Pampa","name":"Departamento de Caleu-Caleu","lat":-38.58333,"lon":-64,"geocoding":{},"distantMaxMiles":5},"Departamento de Toay":{"countryName":"Argentina","stateName":"La Pampa","name":"Departamento de Toay","lat":-36.58333,"lon":-64.8,"geocoding":{},"distantMaxMiles":5},"Doblas":{"countryName":"Argentina","stateName":"La Pampa","name":"Doblas","lat":-37.14967,"lon":-64.01183,"geocoding":{},"distantMaxMiles":5},"Eduardo Castex":{"countryName":"Argentina","stateName":"La Pampa","name":"Eduardo Castex","lat":-35.91501,"lon":-64.29448,"geocoding":{},"distantMaxMiles":5},"Embajador Martini":{"countryName":"Argentina","stateName":"La Pampa","name":"Embajador Martini","lat":-35.38633,"lon":-64.28092,"geocoding":{},"distantMaxMiles":5},"General Acha":{"countryName":"Argentina","stateName":"La Pampa","name":"General Acha","lat":-37.37698,"lon":-64.60431,"geocoding":{},"distantMaxMiles":5},"General Manuel J. Campos":{"countryName":"Argentina","stateName":"La Pampa","name":"General Manuel J. Campos","lat":-37.46025,"lon":-63.58537,"geocoding":{},"distantMaxMiles":5},"General Pico":{"countryName":"Argentina","stateName":"La Pampa","name":"General Pico","lat":-35.65662,"lon":-63.75682,"geocoding":{},"distantMaxMiles":5},"General San Martín":{"countryName":"Argentina","stateName":"La Pampa","name":"General San Martín","lat":-37.97904,"lon":-63.60449,"geocoding":{},"distantMaxMiles":5},"Guatraché":{"countryName":"Argentina","stateName":"La Pampa","name":"Guatraché","lat":-37.66776,"lon":-63.53021,"geocoding":{},"distantMaxMiles":5},"Ingeniero Luiggi":{"countryName":"Argentina","stateName":"La Pampa","name":"Ingeniero Luiggi","lat":-35.38585,"lon":-64.46519,"geocoding":{},"distantMaxMiles":5},"Intendente Alvear":{"countryName":"Argentina","stateName":"La Pampa","name":"Intendente Alvear","lat":-35.23383,"lon":-63.59205,"geocoding":{},"distantMaxMiles":5},"Jacinto Arauz":{"countryName":"Argentina","stateName":"La Pampa","name":"Jacinto Arauz","lat":-38.08606,"lon":-63.43169,"geocoding":{},"distantMaxMiles":5},"La Adela":{"countryName":"Argentina","stateName":"La Pampa","name":"La Adela","lat":-38.98333,"lon":-64.08333,"geocoding":{},"distantMaxMiles":5},"La Maruja":{"countryName":"Argentina","stateName":"La Pampa","name":"La Maruja","lat":-35.6736,"lon":-64.93997,"geocoding":{},"distantMaxMiles":5},"Lonquimay":{"countryName":"Argentina","stateName":"La Pampa","name":"Lonquimay","lat":-36.46546,"lon":-63.62429,"geocoding":{},"distantMaxMiles":5},"Macachín":{"countryName":"Argentina","stateName":"La Pampa","name":"Macachín","lat":-37.13598,"lon":-63.6665,"geocoding":{},"distantMaxMiles":5},"Miguel Riglos":{"countryName":"Argentina","stateName":"La Pampa","name":"Miguel Riglos","lat":-36.85398,"lon":-63.68842,"geocoding":{},"distantMaxMiles":5},"Parera":{"countryName":"Argentina","stateName":"La Pampa","name":"Parera","lat":-35.146,"lon":-64.50089,"geocoding":{},"distantMaxMiles":5},"Quemú Quemú":{"countryName":"Argentina","stateName":"La Pampa","name":"Quemú Quemú","lat":-36.05463,"lon":-63.56428,"geocoding":{},"distantMaxMiles":5},"Rancul":{"countryName":"Argentina","stateName":"La Pampa","name":"Rancul","lat":-35.06862,"lon":-64.68107,"geocoding":{},"distantMaxMiles":5},"Realicó":{"countryName":"Argentina","stateName":"La Pampa","name":"Realicó","lat":-35.03658,"lon":-64.2447,"geocoding":{},"distantMaxMiles":5},"Santa Isabel":{"countryName":"Argentina","stateName":"La Pampa","name":"Santa Isabel","lat":-36.22724,"lon":-66.9424,"geocoding":{},"distantMaxMiles":5},"Santa Rosa":{"countryName":"Argentina","stateName":"La Pampa","name":"Santa Rosa","lat":-36.61667,"lon":-64.28333,"geocoding":{},"distantMaxMiles":5},"Telén":{"countryName":"Argentina","stateName":"La Pampa","name":"Telén","lat":-36.26429,"lon":-65.51018,"geocoding":{},"distantMaxMiles":5},"Trenel":{"countryName":"Argentina","stateName":"La Pampa","name":"Trenel","lat":-35.69837,"lon":-64.13218,"geocoding":{},"distantMaxMiles":5},"Uriburu":{"countryName":"Argentina","stateName":"La Pampa","name":"Uriburu","lat":-36.50682,"lon":-63.86225,"geocoding":{},"distantMaxMiles":5},"Veinticinco de Mayo":{"countryName":"Argentina","stateName":"La Pampa","name":"Veinticinco de Mayo","lat":-37.7741,"lon":-67.71638,"geocoding":{},"distantMaxMiles":5},"Victorica":{"countryName":"Argentina","stateName":"La Pampa","name":"Victorica","lat":-36.21505,"lon":-65.43586,"geocoding":{},"distantMaxMiles":5},"Winifreda":{"countryName":"Argentina","stateName":"La Pampa","name":"Winifreda","lat":-36.22643,"lon":-64.23388,"geocoding":{},"distantMaxMiles":5}}},"La Rioja":{"countryName":"Argentina","name":"La Rioja","isoCode":"F","lat":-29.4193793,"lon":-66.8559932,"geocoding":{},"distantMaxMiles":5,"cities":{"Arauco":{"countryName":"Argentina","stateName":"La Rioja","name":"Arauco","lat":-28.58071,"lon":-66.7925,"geocoding":{},"distantMaxMiles":5},"Castro Barros":{"countryName":"Argentina","stateName":"La Rioja","name":"Castro Barros","lat":-30.57952,"lon":-65.72696,"geocoding":{},"distantMaxMiles":5},"Chamical":{"countryName":"Argentina","stateName":"La Rioja","name":"Chamical","lat":-30.36002,"lon":-66.31399,"geocoding":{},"distantMaxMiles":5},"Chilecito":{"countryName":"Argentina","stateName":"La Rioja","name":"Chilecito","lat":-29.16195,"lon":-67.4974,"geocoding":{},"distantMaxMiles":5},"Departamento de Arauco":{"countryName":"Argentina","stateName":"La Rioja","name":"Departamento de Arauco","lat":-28.5,"lon":-66.83333,"geocoding":{},"distantMaxMiles":5},"Departamento de General Lamadrid":{"countryName":"Argentina","stateName":"La Rioja","name":"Departamento de General Lamadrid","lat":-28.83333,"lon":-68.66667,"geocoding":{},"distantMaxMiles":5},"Departamento de Independencia":{"countryName":"Argentina","stateName":"La Rioja","name":"Departamento de Independencia","lat":-30.16667,"lon":-67.41667,"geocoding":{},"distantMaxMiles":5},"La Rioja":{"countryName":"Argentina","stateName":"La Rioja","name":"La Rioja","lat":-29.41105,"lon":-66.85067,"geocoding":{},"distantMaxMiles":5},"Villa Bustos":{"countryName":"Argentina","stateName":"La Rioja","name":"Villa Bustos","lat":-29.28636,"lon":-67.02067,"geocoding":{},"distantMaxMiles":5},"Vinchina":{"countryName":"Argentina","stateName":"La Rioja","name":"Vinchina","lat":-28.75964,"lon":-68.20692,"geocoding":{},"distantMaxMiles":5}}},"Mendoza":{"countryName":"Argentina","name":"Mendoza","isoCode":"M","lat":-32.8894587,"lon":-68.8458386,"geocoding":{},"distantMaxMiles":5,"cities":{"Departamento de Capital":{"countryName":"Argentina","stateName":"Mendoza","name":"Departamento de Capital","lat":-32.88469,"lon":-68.85826,"geocoding":{},"distantMaxMiles":5},"Departamento de General Alvear":{"countryName":"Argentina","stateName":"Mendoza","name":"Departamento de General Alvear","lat":-35.16667,"lon":-67.33333,"geocoding":{},"distantMaxMiles":5},"Departamento de Godoy Cruz":{"countryName":"Argentina","stateName":"Mendoza","name":"Departamento de Godoy Cruz","lat":-32.93333,"lon":-68.86667,"geocoding":{},"distantMaxMiles":5},"Departamento de Guaymallén":{"countryName":"Argentina","stateName":"Mendoza","name":"Departamento de Guaymallén","lat":-32.88333,"lon":-68.7,"geocoding":{},"distantMaxMiles":5},"Departamento de La Paz":{"countryName":"Argentina","stateName":"Mendoza","name":"Departamento de La Paz","lat":-33.66667,"lon":-67.25,"geocoding":{},"distantMaxMiles":5},"Departamento de Las Heras":{"countryName":"Argentina","stateName":"Mendoza","name":"Departamento de Las Heras","lat":-32.5,"lon":-69.5,"geocoding":{},"distantMaxMiles":5},"Departamento de Lavalle":{"countryName":"Argentina","stateName":"Mendoza","name":"Departamento de Lavalle","lat":-32.5,"lon":-68,"geocoding":{},"distantMaxMiles":5},"Departamento de Luján":{"countryName":"Argentina","stateName":"Mendoza","name":"Departamento de Luján","lat":-33,"lon":-69.33333,"geocoding":{},"distantMaxMiles":5},"Departamento de Maipú":{"countryName":"Argentina","stateName":"Mendoza","name":"Departamento de Maipú","lat":-33,"lon":-68.58333,"geocoding":{},"distantMaxMiles":5},"Departamento de Malargüe":{"countryName":"Argentina","stateName":"Mendoza","name":"Departamento de Malargüe","lat":-36.25,"lon":-69.25,"geocoding":{},"distantMaxMiles":5},"Departamento de Rivadavia":{"countryName":"Argentina","stateName":"Mendoza","name":"Departamento de Rivadavia","lat":-33.18,"lon":-68.466,"geocoding":{},"distantMaxMiles":5},"Departamento de San Carlos":{"countryName":"Argentina","stateName":"Mendoza","name":"Departamento de San Carlos","lat":-34,"lon":-69,"geocoding":{},"distantMaxMiles":5},"Departamento de San Martín":{"countryName":"Argentina","stateName":"Mendoza","name":"Departamento de San Martín","lat":-32.8373,"lon":-68.24922,"geocoding":{},"distantMaxMiles":5},"Departamento de San Rafael":{"countryName":"Argentina","stateName":"Mendoza","name":"Departamento de San Rafael","lat":-35,"lon":-68.83333,"geocoding":{},"distantMaxMiles":5},"Departamento de Santa Rosa":{"countryName":"Argentina","stateName":"Mendoza","name":"Departamento de Santa Rosa","lat":-33.5,"lon":-68,"geocoding":{},"distantMaxMiles":5},"Departamento de Tunuyán":{"countryName":"Argentina","stateName":"Mendoza","name":"Departamento de Tunuyán","lat":-33.66667,"lon":-69.5,"geocoding":{},"distantMaxMiles":5},"Departamento de Tupungato":{"countryName":"Argentina","stateName":"Mendoza","name":"Departamento de Tupungato","lat":-33.25,"lon":-69.25,"geocoding":{},"distantMaxMiles":5},"Godoy Cruz":{"countryName":"Argentina","stateName":"Mendoza","name":"Godoy Cruz","lat":-32.92863,"lon":-68.8351,"geocoding":{},"distantMaxMiles":5},"Las Heras":{"countryName":"Argentina","stateName":"Mendoza","name":"Las Heras","lat":-32.85273,"lon":-68.82837,"geocoding":{},"distantMaxMiles":5},"Mendoza":{"countryName":"Argentina","stateName":"Mendoza","name":"Mendoza","lat":-32.89084,"lon":-68.82717,"geocoding":{},"distantMaxMiles":5},"San Martín":{"countryName":"Argentina","stateName":"Mendoza","name":"San Martín","lat":-33.08103,"lon":-68.46814,"geocoding":{},"distantMaxMiles":5},"San Rafael":{"countryName":"Argentina","stateName":"Mendoza","name":"San Rafael","lat":-34.61772,"lon":-68.33007,"geocoding":{},"distantMaxMiles":5}}},"Misiones":{"countryName":"Argentina","name":"Misiones","isoCode":"N","lat":-27.4269255,"lon":-55.9467076,"geocoding":{},"distantMaxMiles":5,"cities":{"Alba Posse":{"countryName":"Argentina","stateName":"Misiones","name":"Alba Posse","lat":-27.56978,"lon":-54.68262,"geocoding":{},"distantMaxMiles":5},"Almafuerte":{"countryName":"Argentina","stateName":"Misiones","name":"Almafuerte","lat":-27.50825,"lon":-55.40258,"geocoding":{},"distantMaxMiles":5},"Aristóbulo del Valle":{"countryName":"Argentina","stateName":"Misiones","name":"Aristóbulo del Valle","lat":-27.09625,"lon":-54.89626,"geocoding":{},"distantMaxMiles":5},"Arroyo del Medio":{"countryName":"Argentina","stateName":"Misiones","name":"Arroyo del Medio","lat":-27.69748,"lon":-55.40376,"geocoding":{},"distantMaxMiles":5},"Azara":{"countryName":"Argentina","stateName":"Misiones","name":"Azara","lat":-28.0616,"lon":-55.67797,"geocoding":{},"distantMaxMiles":5},"Bernardo de Irigoyen":{"countryName":"Argentina","stateName":"Misiones","name":"Bernardo de Irigoyen","lat":-26.2552,"lon":-53.64581,"geocoding":{},"distantMaxMiles":5},"Bonpland":{"countryName":"Argentina","stateName":"Misiones","name":"Bonpland","lat":-27.48218,"lon":-55.47756,"geocoding":{},"distantMaxMiles":5},"Campo Grande":{"countryName":"Argentina","stateName":"Misiones","name":"Campo Grande","lat":-27.2077,"lon":-54.97977,"geocoding":{},"distantMaxMiles":5},"Campo Ramón":{"countryName":"Argentina","stateName":"Misiones","name":"Campo Ramón","lat":-27.4549,"lon":-55.02122,"geocoding":{},"distantMaxMiles":5},"Campo Viera":{"countryName":"Argentina","stateName":"Misiones","name":"Campo Viera","lat":-27.33271,"lon":-55.05651,"geocoding":{},"distantMaxMiles":5},"Candelaria":{"countryName":"Argentina","stateName":"Misiones","name":"Candelaria","lat":-27.4595,"lon":-55.74536,"geocoding":{},"distantMaxMiles":5},"Capioví":{"countryName":"Argentina","stateName":"Misiones","name":"Capioví","lat":-26.92998,"lon":-55.06084,"geocoding":{},"distantMaxMiles":5},"Caraguatay":{"countryName":"Argentina","stateName":"Misiones","name":"Caraguatay","lat":-26.60587,"lon":-54.78093,"geocoding":{},"distantMaxMiles":5},"Cerro Azul":{"countryName":"Argentina","stateName":"Misiones","name":"Cerro Azul","lat":-27.6331,"lon":-55.4962,"geocoding":{},"distantMaxMiles":5},"Cerro Corá":{"countryName":"Argentina","stateName":"Misiones","name":"Cerro Corá","lat":-27.5131,"lon":-55.60896,"geocoding":{},"distantMaxMiles":5},"Colonia Aurora":{"countryName":"Argentina","stateName":"Misiones","name":"Colonia Aurora","lat":-27.47428,"lon":-54.52498,"geocoding":{},"distantMaxMiles":5},"Concepción de la Sierra":{"countryName":"Argentina","stateName":"Misiones","name":"Concepción de la Sierra","lat":-27.98311,"lon":-55.52031,"geocoding":{},"distantMaxMiles":5},"Departamento de Apóstoles":{"countryName":"Argentina","stateName":"Misiones","name":"Departamento de Apóstoles","lat":-27.91667,"lon":-55.75,"geocoding":{},"distantMaxMiles":5},"Departamento de Cainguás":{"countryName":"Argentina","stateName":"Misiones","name":"Departamento de Cainguás","lat":-27.16667,"lon":-54.83333,"geocoding":{},"distantMaxMiles":5},"Departamento de Candelaria":{"countryName":"Argentina","stateName":"Misiones","name":"Departamento de Candelaria","lat":-27.5,"lon":-55.5,"geocoding":{},"distantMaxMiles":5},"Departamento de Capital":{"countryName":"Argentina","stateName":"Misiones","name":"Departamento de Capital","lat":-27.5,"lon":-55.83333,"geocoding":{},"distantMaxMiles":5},"Departamento de Concepción de la Sierra":{"countryName":"Argentina","stateName":"Misiones","name":"Departamento de Concepción de la Sierra","lat":-27.83333,"lon":-55.41667,"geocoding":{},"distantMaxMiles":5},