{"name":"New Zealand","isoCode":"NZ","lat":-41,"lon":174,"geocoding":{},"distantMaxMiles":5,"states":{"Auckland Region":{"countryName":"New Zealand","name":"Auckland Region","isoCode":"AUK","lat":-36.6675328,"lon":174.7733325,"geocoding":{},"distantMaxMiles":5,"cities":{"Auckland":{"countryName":"New Zealand","stateName":"Auckland Region","name":"Auckland","lat":-36.84853,"lon":174.76349,"geocoding":{},"distantMaxMiles":5},"Mangere":{"countryName":"New Zealand","stateName":"Auckland Region","name":"Mangere","lat":-36.96807,"lon":174.79875,"geocoding":{},"distantMaxMiles":5},"Manukau City":{"countryName":"New Zealand","stateName":"Auckland Region","name":"Manukau City","lat":-36.99282,"lon":174.87986,"geocoding":{},"distantMaxMiles":5},"Muriwai Beach":{"countryName":"New Zealand","stateName":"Auckland Region","name":"Muriwai Beach","lat":-36.81667,"lon":174.45,"geocoding":{},"distantMaxMiles":5},"Murrays Bay":{"countryName":"New Zealand","stateName":"Auckland Region","name":"Murrays Bay","lat":-36.72819,"lon":174.75019,"geocoding":{},"distantMaxMiles":5},"North Shore":{"countryName":"New Zealand","stateName":"Auckland Region","name":"North Shore","lat":-36.8,"lon":174.75,"geocoding":{},"distantMaxMiles":5},"Pakuranga":{"countryName":"New Zealand","stateName":"Auckland Region","name":"Pakuranga","lat":-36.88333,"lon":174.91667,"geocoding":{},"distantMaxMiles":5},"Papakura":{"countryName":"New Zealand","stateName":"Auckland Region","name":"Papakura","lat":-37.06573,"lon":174.94393,"geocoding":{},"distantMaxMiles":5},"Parakai":{"countryName":"New Zealand","stateName":"Auckland Region","name":"Parakai","lat":-36.65,"lon":174.43333,"geocoding":{},"distantMaxMiles":5},"Pukekohe East":{"countryName":"New Zealand","stateName":"Auckland Region","name":"Pukekohe East","lat":-37.2,"lon":174.95,"geocoding":{},"distantMaxMiles":5},"Red Hill":{"countryName":"New Zealand","stateName":"Auckland Region","name":"Red Hill","lat":-37.0582,"lon":174.97019,"geocoding":{},"distantMaxMiles":5},"Rosebank":{"countryName":"New Zealand","stateName":"Auckland Region","name":"Rosebank","lat":-36.87495,"lon":174.66991,"geocoding":{},"distantMaxMiles":5},"Rothesay Bay":{"countryName":"New Zealand","stateName":"Auckland Region","name":"Rothesay Bay","lat":-36.72602,"lon":174.74064,"geocoding":{},"distantMaxMiles":5},"Takanini":{"countryName":"New Zealand","stateName":"Auckland Region","name":"Takanini","lat":-37.0482,"lon":174.90019,"geocoding":{},"distantMaxMiles":5},"Tamaki":{"countryName":"New Zealand","stateName":"Auckland Region","name":"Tamaki","lat":-36.8882,"lon":174.86019,"geocoding":{},"distantMaxMiles":5},"Titirangi":{"countryName":"New Zealand","stateName":"Auckland Region","name":"Titirangi","lat":-36.93754,"lon":174.65584,"geocoding":{},"distantMaxMiles":5},"Waitakere":{"countryName":"New Zealand","stateName":"Auckland Region","name":"Waitakere","lat":-36.91754,"lon":174.65773,"geocoding":{},"distantMaxMiles":5},"Waiuku":{"countryName":"New Zealand","stateName":"Auckland Region","name":"Waiuku","lat":-37.24806,"lon":174.73489,"geocoding":{},"distantMaxMiles":5},"Warkworth":{"countryName":"New Zealand","stateName":"Auckland Region","name":"Warkworth","lat":-36.4,"lon":174.66667,"geocoding":{},"distantMaxMiles":5},"Wellsford":{"countryName":"New Zealand","stateName":"Auckland Region","name":"Wellsford","lat":-36.28333,"lon":174.51667,"geocoding":{},"distantMaxMiles":5},"Wiri":{"countryName":"New Zealand","stateName":"Auckland Region","name":"Wiri","lat":-36.9982,"lon":174.86019,"geocoding":{},"distantMaxMiles":5}}},"Bay of Plenty Region":{"countryName":"New Zealand","name":"Bay of Plenty Region","isoCode":"BOP","lat":-37.4233917,"lon":176.7416374,"geocoding":{},"distantMaxMiles":5,"cities":{"Edgecumbe":{"countryName":"New Zealand","stateName":"Bay of Plenty Region","name":"Edgecumbe","lat":-37.98333,"lon":176.83333,"geocoding":{},"distantMaxMiles":5},"Katikati":{"countryName":"New Zealand","stateName":"Bay of Plenty Region","name":"Katikati","lat":-37.55,"lon":175.91667,"geocoding":{},"distantMaxMiles":5},"Kawerau":{"countryName":"New Zealand","stateName":"Bay of Plenty Region","name":"Kawerau","lat":-38.1,"lon":176.7,"geocoding":{},"distantMaxMiles":5},"Maketu":{"countryName":"New Zealand","stateName":"Bay of Plenty Region","name":"Maketu","lat":-37.76667,"lon":176.45,"geocoding":{},"distantMaxMiles":5},"Murupara":{"countryName":"New Zealand","stateName":"Bay of Plenty Region","name":"Murupara","lat":-38.46667,"lon":176.7,"geocoding":{},"distantMaxMiles":5},"Opotiki":{"countryName":"New Zealand","stateName":"Bay of Plenty Region","name":"Opotiki","lat":-38.00915,"lon":177.28706,"geocoding":{},"distantMaxMiles":5},"Rotorua":{"countryName":"New Zealand","stateName":"Bay of Plenty Region","name":"Rotorua","lat":-38.13874,"lon":176.24516,"geocoding":{},"distantMaxMiles":5},"Tauranga":{"countryName":"New Zealand","stateName":"Bay of Plenty Region","name":"Tauranga","lat":-37.68611,"lon":176.16667,"geocoding":{},"distantMaxMiles":5},"Waihi Beach":{"countryName":"New Zealand","stateName":"Bay of Plenty Region","name":"Waihi Beach","lat":-37.4,"lon":175.93333,"geocoding":{},"distantMaxMiles":5},"Whakatane":{"countryName":"New Zealand","stateName":"Bay of Plenty Region","name":"Whakatane","lat":-37.95855,"lon":176.98545,"geocoding":{},"distantMaxMiles":5}}},"Canterbury Region":{"countryName":"New Zealand","name":"Canterbury Region","isoCode":"CAN","lat":-43.7542275,"lon":171.1637245,"geocoding":{},"distantMaxMiles":5,"cities":{"Amberley":{"countryName":"New Zealand","stateName":"Canterbury Region","name":"Amberley","lat":-43.15589,"lon":172.72975,"geocoding":{},"distantMaxMiles":5},"Ashburton":{"countryName":"New Zealand","stateName":"Canterbury Region","name":"Ashburton","lat":-43.89834,"lon":171.73011,"geocoding":{},"distantMaxMiles":5},"Ashburton District":{"countryName":"New Zealand","stateName":"Canterbury Region","name":"Ashburton District","lat":-43.9,"lon":171.75,"geocoding":{},"distantMaxMiles":5},"Burnham":{"countryName":"New Zealand","stateName":"Canterbury Region","name":"Burnham","lat":-43.61667,"lon":172.31667,"geocoding":{},"distantMaxMiles":5},"Christchurch":{"countryName":"New Zealand","stateName":"Canterbury Region","name":"Christchurch","lat":-43.53333,"lon":172.63333,"geocoding":{},"distantMaxMiles":5},"Christchurch City":{"countryName":"New Zealand","stateName":"Canterbury Region","name":"Christchurch City","lat":-43.64578,"lon":172.74586,"geocoding":{},"distantMaxMiles":5},"Darfield":{"countryName":"New Zealand","stateName":"Canterbury Region","name":"Darfield","lat":-43.48333,"lon":172.11667,"geocoding":{},"distantMaxMiles":5},"Geraldine":{"countryName":"New Zealand","stateName":"Canterbury Region","name":"Geraldine","lat":-44.09061,"lon":171.24458,"geocoding":{},"distantMaxMiles":5},"Kaiapoi":{"countryName":"New Zealand","stateName":"Canterbury Region","name":"Kaiapoi","lat":-43.37832,"lon":172.64013,"geocoding":{},"distantMaxMiles":5},"Leeston":{"countryName":"New Zealand","stateName":"Canterbury Region","name":"Leeston","lat":-43.76667,"lon":172.3,"geocoding":{},"distantMaxMiles":5},"Lincoln":{"countryName":"New Zealand","stateName":"Canterbury Region","name":"Lincoln","lat":-43.65,"lon":172.48333,"geocoding":{},"distantMaxMiles":5},"Mackenzie District":{"countryName":"New Zealand","stateName":"Canterbury Region","name":"Mackenzie District","lat":-43.93987,"lon":170.51913,"geocoding":{},"distantMaxMiles":5},"Methven":{"countryName":"New Zealand","stateName":"Canterbury Region","name":"Methven","lat":-43.63333,"lon":171.65,"geocoding":{},"distantMaxMiles":5},"Oxford":{"countryName":"New Zealand","stateName":"Canterbury Region","name":"Oxford","lat":-43.3,"lon":172.18333,"geocoding":{},"distantMaxMiles":5},"Pleasant Point":{"countryName":"New Zealand","stateName":"Canterbury Region","name":"Pleasant Point","lat":-44.26667,"lon":171.13333,"geocoding":{},"distantMaxMiles":5},"Prebbleton":{"countryName":"New Zealand","stateName":"Canterbury Region","name":"Prebbleton","lat":-43.58333,"lon":172.51667,"geocoding":{},"distantMaxMiles":5},"Rakaia":{"countryName":"New Zealand","stateName":"Canterbury Region","name":"Rakaia","lat":-43.75,"lon":172.01667,"geocoding":{},"distantMaxMiles":5},"Rolleston":{"countryName":"New Zealand","stateName":"Canterbury Region","name":"Rolleston","lat":-43.58333,"lon":172.38333,"geocoding":{},"distantMaxMiles":5},"Selwyn District":{"countryName":"New Zealand","stateName":"Canterbury Region","name":"Selwyn District","lat":-43.32226,"lon":171.87064,"geocoding":{},"distantMaxMiles":5},"Timaru":{"countryName":"New Zealand","stateName":"Canterbury Region","name":"Timaru","lat":-44.39672,"lon":171.25364,"geocoding":{},"distantMaxMiles":5},"Timaru District":{"countryName":"New Zealand","stateName":"Canterbury Region","name":"Timaru District","lat":-44.4,"lon":171.21667,"geocoding":{},"distantMaxMiles":5},"Tinwald":{"countryName":"New Zealand","stateName":"Canterbury Region","name":"Tinwald","lat":-43.91667,"lon":171.71667,"geocoding":{},"distantMaxMiles":5},"Waimakariri District":{"countryName":"New Zealand","stateName":"Canterbury Region","name":"Waimakariri District","lat":-43.2075,"lon":172.33286,"geocoding":{},"distantMaxMiles":5},"Woodend":{"countryName":"New Zealand","stateName":"Canterbury Region","name":"Woodend","lat":-43.31667,"lon":172.66667,"geocoding":{},"distantMaxMiles":5}}},"Chatham Islands":{"countryName":"New Zealand","name":"Chatham Islands","isoCode":"CIT","lat":-44.0057523,"lon":-176.5400674,"geocoding":{},"distantMaxMiles":5,"cities":{"Waitangi":{"countryName":"New Zealand","stateName":"Chatham Islands","name":"Waitangi","lat":-43.95353,"lon":-176.55973,"geocoding":{},"distantMaxMiles":5}}},"Gisborne District":{"countryName":"New Zealand","name":"Gisborne District","isoCode":"GIS","lat":-38.1358174,"lon":178.3239309,"geocoding":{},"distantMaxMiles":5,"cities":{"Gisborne":{"countryName":"New Zealand","stateName":"Gisborne District","name":"Gisborne","lat":-38.65333,"lon":178.00417,"geocoding":{},"distantMaxMiles":5}}},"Hawke's Bay Region":{"countryName":"New Zealand","name":"Hawke's Bay Region","isoCode":"HKB","lat":-39.6016597,"lon":176.5804473,"geocoding":{},"distantMaxMiles":5,"cities":{"Hastings":{"countryName":"New Zealand","stateName":"Hawke's Bay Region","name":"Hastings","lat":-39.6381,"lon":176.84918,"geocoding":{},"distantMaxMiles":5},"Napier":{"countryName":"New Zealand","stateName":"Hawke's Bay Region","name":"Napier","lat":-39.4926,"lon":176.91233,"geocoding":{},"distantMaxMiles":5},"Taradale":{"countryName":"New Zealand","stateName":"Hawke's Bay Region","name":"Taradale","lat":-39.53333,"lon":176.85,"geocoding":{},"distantMaxMiles":5},"Wairoa":{"countryName":"New Zealand","stateName":"Hawke's Bay Region","name":"Wairoa","lat":-39.03333,"lon":177.36667,"geocoding":{},"distantMaxMiles":5}}},"Manawatu-Wanganui Region":{"countryName":"New Zealand","name":"Manawatu-Wanganui Region","isoCode":"MWT","lat":-39.7273356,"lon":175.4375574,"geocoding":{},"distantMaxMiles":5,"cities":{"Bulls":{"countryName":"New Zealand","stateName":"Manawatu-Wanganui Region","name":"Bulls","lat":-40.17487,"lon":175.38463,"geocoding":{},"distantMaxMiles":5},"Foxton":{"countryName":"New Zealand","stateName":"Manawatu-Wanganui Region","name":"Foxton","lat":-40.46667,"lon":175.3,"geocoding":{},"distantMaxMiles":5},"Horowhenua District":{"countryName":"New Zealand","stateName":"Manawatu-Wanganui Region","name":"Horowhenua District","lat":-40.57733,"lon":175.38071,"geocoding":{},"distantMaxMiles":5},"Levin":{"countryName":"New Zealand","stateName":"Manawatu-Wanganui Region","name":"Levin","lat":-40.63333,"lon":175.275,"geocoding":{},"distantMaxMiles":5},"Manawatu District":{"countryName":"New Zealand","stateName":"Manawatu-Wanganui Region","name":"Manawatu District","lat":-40.11979,"lon":175.67426,"geocoding":{},"distantMaxMiles":5},"Palmerston North":{"countryName":"New Zealand","stateName":"Manawatu-Wanganui Region","name":"Palmerston North","lat":-40.35636,"lon":175.61113,"geocoding":{},"distantMaxMiles":5},"Waiouru":{"countryName":"New Zealand","stateName":"Manawatu-Wanganui Region","name":"Waiouru","lat":-39.47753,"lon":175.66834,"geocoding":{},"distantMaxMiles":5},"Wanganui":{"countryName":"New Zealand","stateName":"Manawatu-Wanganui Region","name":"Wanganui","lat":-39.93333,"lon":175.05,"geocoding":{},"distantMaxMiles":5}}},"Marlborough Region":{"countryName":"New Zealand","name":"Marlborough Region","isoCode":"MBH","lat":-41.5916883,"lon":173.7624053,"geocoding":{},"distantMaxMiles":5,"cities":{"Blenheim":{"countryName":"New Zealand","stateName":"Marlborough Region","name":"Blenheim","lat":-41.51603,"lon":173.9528,"geocoding":{},"distantMaxMiles":5},"Picton":{"countryName":"New Zealand","stateName":"Marlborough Region","name":"Picton","lat":-41.29067,"lon":174.00801,"geocoding":{},"distantMaxMiles":5}}},"Nelson Region":{"countryName":"New Zealand","name":"Nelson Region","isoCode":"NSN","lat":-41.2985397,"lon":173.2441491,"geocoding":{},"distantMaxMiles":5,"cities":{"Nelson":{"countryName":"New Zealand","stateName":"Nelson Region","name":"Nelson","lat":-41.27078,"lon":173.28404,"geocoding":{},"distantMaxMiles":5}}},"Northland Region":{"countryName":"New Zealand","name":"Northland Region","isoCode":"NTL","lat":-35.4136172,"lon":173.9320806,"geocoding":{},"distantMaxMiles":5,"cities":{"Ahipara":{"countryName":"New Zealand","stateName":"Northland Region","name":"Ahipara","lat":-35.16667,"lon":173.16667,"geocoding":{},"distantMaxMiles":5},"Dargaville":{"countryName":"New Zealand","stateName":"Northland Region","name":"Dargaville","lat":-35.93333,"lon":173.88333,"geocoding":{},"distantMaxMiles":5},"Far North District":{"countryName":"New Zealand","stateName":"Northland Region","name":"Far North District","lat":-35.03359,"lon":173.48841,"geocoding":{},"distantMaxMiles":5},"Kaipara District":{"countryName":"New Zealand","stateName":"Northland Region","name":"Kaipara District","lat":-35.99546,"lon":174.04688,"geocoding":{},"distantMaxMiles":5},"Kaitaia":{"countryName":"New Zealand","stateName":"Northland Region","name":"Kaitaia","lat":-35.11485,"lon":173.26366,"geocoding":{},"distantMaxMiles":5},"Kawakawa":{"countryName":"New Zealand","stateName":"Northland Region","name":"Kawakawa","lat":-35.38333,"lon":174.06667,"geocoding":{},"distantMaxMiles":5},"Kerikeri":{"countryName":"New Zealand","stateName":"Northland Region","name":"Kerikeri","lat":-35.22676,"lon":173.94739,"geocoding":{},"distantMaxMiles":5},"Maungatapere":{"countryName":"New Zealand","stateName":"Northland Region","name":"Maungatapere","lat":-35.75,"lon":174.2,"geocoding":{},"distantMaxMiles":5},"Moerewa":{"countryName":"New Zealand","stateName":"Northland Region","name":"Moerewa","lat":-35.38333,"lon":174.03333,"geocoding":{},"distantMaxMiles":5},"Ngunguru":{"countryName":"New Zealand","stateName":"Northland Region","name":"Ngunguru","lat":-35.61667,"lon":174.5,"geocoding":{},"distantMaxMiles":5},"Paihia":{"countryName":"New Zealand","stateName":"Northland Region","name":"Paihia","lat":-35.28067,"lon":174.09103,"geocoding":{},"distantMaxMiles":5},"Ruakaka":{"countryName":"New Zealand","stateName":"Northland Region","name":"Ruakaka","lat":-35.90818,"lon":174.45019,"geocoding":{},"distantMaxMiles":5},"Taipa":{"countryName":"New Zealand","stateName":"Northland Region","name":"Taipa","lat":-34.99604,"lon":173.46665,"geocoding":{},"distantMaxMiles":5},"Waimate North":{"countryName":"New Zealand","stateName":"Northland Region","name":"Waimate North","lat":-35.31667,"lon":173.88333,"geocoding":{},"distantMaxMiles":5},"Whangarei":{"countryName":"New Zealand","stateName":"Northland Region","name":"Whangarei","lat":-35.73167,"lon":174.32391,"geocoding":{},"distantMaxMiles":5}}},"Otago Region":{"countryName":"New Zealand","name":"Otago Region","isoCode":"OTA","lat":-45.4790671,"lon":170.1547567,"geocoding":{},"distantMaxMiles":5,"cities":{"Arrowtown":{"countryName":"New Zealand","stateName":"Otago Region","name":"Arrowtown","lat":-44.93837,"lon":168.81007,"geocoding":{},"distantMaxMiles":5},"Balclutha":{"countryName":"New Zealand","stateName":"Otago Region","name":"Balclutha","lat":-46.23389,"lon":169.75,"geocoding":{},"distantMaxMiles":5},"Clutha District":{"countryName":"New Zealand","stateName":"Otago Region","name":"Clutha District","lat":-46.03883,"lon":169.60617,"geocoding":{},"distantMaxMiles":5},"Cromwell":{"countryName":"New Zealand","stateName":"Otago Region","name":"Cromwell","lat":-45.03837,"lon":169.20008,"geocoding":{},"distantMaxMiles":5},"Dunedin":{"countryName":"New Zealand","stateName":"Otago Region","name":"Dunedin","lat":-45.87416,"lon":170.50361,"geocoding":{},"distantMaxMiles":5},"Kingston":{"countryName":"New Zealand","stateName":"Otago Region","name":"Kingston","lat":-45.33288,"lon":168.71476,"geocoding":{},"distantMaxMiles":5},"Milton":{"countryName":"New Zealand","stateName":"Otago Region","name":"Milton","lat":-46.12083,"lon":169.96944,"geocoding":{},"distantMaxMiles":5},"Oamaru":{"countryName":"New Zealand","stateName":"Otago Region","name":"Oamaru","lat":-45.09758,"lon":170.97087,"geocoding":{},"distantMaxMiles":5},"Papatowai":{"countryName":"New Zealand","stateName":"Otago Region","name":"Papatowai","lat":-46.56069,"lon":169.47068,"geocoding":{},"distantMaxMiles":5},"Portobello":{"countryName":"New Zealand","stateName":"Otago Region","name":"Portobello","lat":-45.85,"lon":170.65,"geocoding":{},"distantMaxMiles":5},"Queenstown":{"countryName":"New Zealand","stateName":"Otago Region","name":"Queenstown","lat":-45.03023,"lon":168.66271,"geocoding":{},"distantMaxMiles":5},"Wanaka":{"countryName":"New Zealand","stateName":"Otago Region","name":"Wanaka","lat":-44.7,"lon":169.15,"geocoding":{},"distantMaxMiles":5}}},"Southland Region":{"countryName":"New Zealand","name":"Southland Region","isoCode":"STL","lat":-45.8489159,"lon":167.6755387,"geocoding":{},"distantMaxMiles":5,"cities":{"Bluff":{"countryName":"New Zealand","stateName":"Southland Region","name":"Bluff","lat":-46.6,"lon":168.33333,"geocoding":{},"distantMaxMiles":5},"Gore":{"countryName":"New Zealand","stateName":"Southland Region","name":"Gore","lat":-46.10282,"lon":168.94357,"geocoding":{},"distantMaxMiles":5},"Invercargill":{"countryName":"New Zealand","stateName":"Southland Region","name":"Invercargill","lat":-46.4,"lon":168.35,"geocoding":{},"distantMaxMiles":5},"Riverton":{"countryName":"New Zealand","stateName":"Southland Region","name":"Riverton","lat":-46.35,"lon":168.01667,"geocoding":{},"distantMaxMiles":5},"Southland District":{"countryName":"New Zealand","stateName":"Southland Region","name":"Southland District","lat":-45.77256,"lon":167.85266,"geocoding":{},"distantMaxMiles":5},"Te Anau":{"countryName":"New Zealand","stateName":"Southland Region","name":"Te Anau","lat":-45.41667,"lon":167.71667,"geocoding":{},"distantMaxMiles":5},"Winton":{"countryName":"New Zealand","stateName":"Southland Region","name":"Winton","lat":-46.15,"lon":168.33333,"geocoding":{},"distantMaxMiles":5}}},"Taranaki Region":{"countryName":"New Zealand","name":"Taranaki Region","isoCode":"TKI","lat":-39.3538149,"lon":174.4382721,"geocoding":{},"distantMaxMiles":5,"cities":{"Eltham":{"countryName":"New Zealand","stateName":"Taranaki Region","name":"Eltham","lat":-39.42917,"lon":174.3,"geocoding":{},"distantMaxMiles":5},"Hawera":{"countryName":"New Zealand","stateName":"Taranaki Region","name":"Hawera","lat":-39.59167,"lon":174.28333,"geocoding":{},"distantMaxMiles":5},"New Plymouth":{"countryName":"New Zealand","stateName":"Taranaki Region","name":"New Plymouth","lat":-39.06667,"lon":174.08333,"geocoding":{},"distantMaxMiles":5},"New Plymouth District":{"countryName":"New Zealand","stateName":"Taranaki Region","name":"New Plymouth District","lat":-39.05865,"lon":174.10309,"geocoding":{},"distantMaxMiles":5},"Opunake":{"countryName":"New Zealand","stateName":"Taranaki Region","name":"Opunake","lat":-39.45556,"lon":173.85833,"geocoding":{},"distantMaxMiles":5},"Patea":{"countryName":"New Zealand","stateName":"Taranaki Region","name":"Patea","lat":-39.75833,"lon":174.48333,"geocoding":{},"distantMaxMiles":5},"South Taranaki District":{"countryName":"New Zealand","stateName":"Taranaki Region","name":"South Taranaki District","lat":-39.52156,"lon":174.3716,"geocoding":{},"distantMaxMiles":5},"Waitara":{"countryName":"New Zealand","stateName":"Taranaki Region","name":"Waitara","lat":-39.00158,"lon":174.23836,"geocoding":{},"distantMaxMiles":5}}},"Tasman District":{"countryName":"New Zealand","name":"Tasman District","isoCode":"TAS","lat":-41.4571184,"lon":172.820974,"geocoding":{},"distantMaxMiles":5,"cities":{"Brightwater":{"countryName":"New Zealand","stateName":"Tasman District","name":"Brightwater","lat":-41.38333,"lon":173.11667,"geocoding":{},"distantMaxMiles":5},"Mapua":{"countryName":"New Zealand","stateName":"Tasman District","name":"Mapua","lat":-41.25,"lon":173.1,"geocoding":{},"distantMaxMiles":5},"Motueka":{"countryName":"New Zealand","stateName":"Tasman District","name":"Motueka","lat":-41.13333,"lon":173.01667,"geocoding":{},"distantMaxMiles":5},"Richmond":{"countryName":"New Zealand","stateName":"Tasman District","name":"Richmond","lat":-41.33333,"lon":173.18333,"geocoding":{},"distantMaxMiles":5},"Takaka":{"countryName":"New Zealand","stateName":"Tasman District","name":"Takaka","lat":-40.85,"lon":172.8,"geocoding":{},"distantMaxMiles":5},"Wakefield":{"countryName":"New Zealand","stateName":"Tasman District","name":"Wakefield","lat":-41.4,"lon":173.05,"geocoding":{},"distantMaxMiles":5}}},"Waikato Region":{"countryName":"New Zealand","name":"Waikato Region","isoCode":"WKO","lat":-37.6190862,"lon":175.023346,"geocoding":{},"distantMaxMiles":5,"cities":{"Cambridge":{"countryName":"New Zealand","stateName":"Waikato Region","name":"Cambridge","lat":-37.87822,"lon":175.4402,"geocoding":{},"distantMaxMiles":5},"Coromandel":{"countryName":"New Zealand","stateName":"Waikato Region","name":"Coromandel","lat":-36.7611,"lon":175.49634,"geocoding":{},"distantMaxMiles":5},"Hamilton":{"countryName":"New Zealand","stateName":"Waikato Region","name":"Hamilton","lat":-37.78333,"lon":175.28333,"geocoding":{},"distantMaxMiles":5},"Matamata":{"countryName":"New Zealand","stateName":"Waikato Region","name":"Matamata","lat":-37.8106,"lon":175.76237,"geocoding":{},"distantMaxMiles":5},"Ngaruawahia":{"countryName":"New Zealand","stateName":"Waikato Region","name":"Ngaruawahia","lat":-37.66738,"lon":175.15554,"geocoding":{},"distantMaxMiles":5},"Ngatea":{"countryName":"New Zealand","stateName":"Waikato Region","name":"Ngatea","lat":-37.28333,"lon":175.5,"geocoding":{},"distantMaxMiles":5},"Otorohanga":{"countryName":"New Zealand","stateName":"Waikato Region","name":"Otorohanga","lat":-38.18333,"lon":175.2,"geocoding":{},"distantMaxMiles":5},"Paeroa":{"countryName":"New Zealand","stateName":"Waikato Region","name":"Paeroa","lat":-37.36667,"lon":175.66667,"geocoding":{},"distantMaxMiles":5},"Raglan":{"countryName":"New Zealand","stateName":"Waikato Region","name":"Raglan","lat":-37.8,"lon":174.88333,"geocoding":{},"distantMaxMiles":5},"South Waikato District":{"countryName":"New Zealand","stateName":"Waikato Region","name":"South Waikato District","lat":-38.16797,"lon":175.88624,"geocoding":{},"distantMaxMiles":5},"Tairua":{"countryName":"New Zealand","stateName":"Waikato Region","name":"Tairua","lat":-37.01667,"lon":175.85,"geocoding":{},"distantMaxMiles":5},"Taupo":{"countryName":"New Zealand","stateName":"Waikato Region","name":"Taupo","lat":-38.68333,"lon":176.08333,"geocoding":{},"distantMaxMiles":5},"Te Kauwhata":{"countryName":"New Zealand","stateName":"Waikato Region","name":"Te Kauwhata","lat":-37.4,"lon":175.15,"geocoding":{},"distantMaxMiles":5},"Thames":{"countryName":"New Zealand","stateName":"Waikato Region","name":"Thames","lat":-37.13832,"lon":175.54011,"geocoding":{},"distantMaxMiles":5},"Tokoroa":{"countryName":"New Zealand","stateName":"Waikato Region","name":"Tokoroa","lat":-38.23333,"lon":175.86667,"geocoding":{},"distantMaxMiles":5},"Turangi":{"countryName":"New Zealand","stateName":"Waikato Region","name":"Turangi","lat":-38.99037,"lon":175.80837,"geocoding":{},"distantMaxMiles":5},"Waihi":{"countryName":"New Zealand","stateName":"Waikato Region","name":"Waihi","lat":-37.38333,"lon":175.83333,"geocoding":{},"distantMaxMiles":5},"Whangamata":{"countryName":"New Zealand","stateName":"Waikato Region","name":"Whangamata","lat":-37.2,"lon":175.86667,"geocoding":{},"distantMaxMiles":5},"Whitianga":{"countryName":"New Zealand","stateName":"Waikato Region","name":"Whitianga","lat":-36.83333,"lon":175.7,"geocoding":{},"distantMaxMiles":5}}},"Wellington Region":{"countryName":"New Zealand","name":"Wellington Region","isoCode":"WGN","lat":-41.0299323,"lon":175.4375574,"geocoding":{},"distantMaxMiles":5,"cities":{"Brooklyn":{"countryName":"New Zealand","stateName":"Wellington Region","name":"Brooklyn","lat":-41.30586,"lon":174.76257,"geocoding":{},"distantMaxMiles":5},"Castlepoint":{"countryName":"New Zealand","stateName":"Wellington Region","name":"Castlepoint","lat":-40.9,"lon":176.21667,"geocoding":{},"distantMaxMiles":5},"Kapiti Coast District":{"countryName":"New Zealand","stateName":"Wellington Region","name":"Kapiti Coast District","lat":-40.85682,"lon":175.1469,"geocoding":{},"distantMaxMiles":5},"Kelburn":{"countryName":"New Zealand","stateName":"Wellington Region","name":"Kelburn","lat":-41.28333,"lon":174.76667,"geocoding":{},"distantMaxMiles":5},"Khandallah":{"countryName":"New Zealand","stateName":"Wellington Region","name":"Khandallah","lat":-41.245,"lon":174.79422,"geocoding":{},"distantMaxMiles":5},"Lower Hutt":{"countryName":"New Zealand","stateName":"Wellington Region","name":"Lower Hutt","lat":-41.21667,"lon":174.91667,"geocoding":{},"distantMaxMiles":5},"Masterton":{"countryName":"New Zealand","stateName":"Wellington Region","name":"Masterton","lat":-40.95972,"lon":175.6575,"geocoding":{},"distantMaxMiles":5},"Otaki":{"countryName":"New Zealand","stateName":"Wellington Region","name":"Otaki","lat":-40.75833,"lon":175.15,"geocoding":{},"distantMaxMiles":5},"Paraparaumu":{"countryName":"New Zealand","stateName":"Wellington Region","name":"Paraparaumu","lat":-40.91667,"lon":175.01667,"geocoding":{},"distantMaxMiles":5},"Petone":{"countryName":"New Zealand","stateName":"Wellington Region","name":"Petone","lat":-41.22827,"lon":174.87019,"geocoding":{},"distantMaxMiles":5},"Porirua":{"countryName":"New Zealand","stateName":"Wellington Region","name":"Porirua","lat":-41.13333,"lon":174.85,"geocoding":{},"distantMaxMiles":5},"South Wairarapa District":{"countryName":"New Zealand","stateName":"Wellington Region","name":"South Wairarapa District","lat":-41.26731,"lon":175.38442,"geocoding":{},"distantMaxMiles":5},"Upper Hutt":{"countryName":"New Zealand","stateName":"Wellington Region","name":"Upper Hutt","lat":-41.13827,"lon":175.0502,"geocoding":{},"distantMaxMiles":5},"Waipawa":{"countryName":"New Zealand","stateName":"Wellington Region","name":"Waipawa","lat":-41.41222,"lon":175.51528,"geocoding":{},"distantMaxMiles":5},"Wellington":{"countryName":"New Zealand","stateName":"Wellington Region","name":"Wellington","lat":-41.28664,"lon":174.77557,"geocoding":{},"distantMaxMiles":5},"Wellington City":{"countryName":"New Zealand","stateName":"Wellington Region","name":"Wellington City","lat":-41.253,"lon":174.75424,"geocoding":{},"distantMaxMiles":5}}},"West Coast Region":{"countryName":"New Zealand","name":"West Coast Region","isoCode":"WTC","lat":62.4113634,"lon":-149.0729714,"geocoding":{},"distantMaxMiles":5,"cities":{"Greymouth":{"countryName":"New Zealand","stateName":"West Coast Region","name":"Greymouth","lat":-42.46667,"lon":171.2,"geocoding":{},"distantMaxMiles":5},"Hokitika":{"countryName":"New Zealand","stateName":"West Coast Region","name":"Hokitika","lat":-42.71667,"lon":170.96667,"geocoding":{},"distantMaxMiles":5},"Westport":{"countryName":"New Zealand","stateName":"West Coast Region","name":"Westport","lat":-41.75262,"lon":171.6037,"geocoding":{},"distantMaxMiles":5}}}}}