{"name":"Austria","isoCode":"AT","lat":47.33333333,"lon":13.33333333,"geocoding":{},"distantMaxMiles":5,"states":{"Burgenland":{"countryName":"Austria","name":"Burgenland","isoCode":"1","lat":47.1537165,"lon":16.2688797,"geocoding":{},"distantMaxMiles":5,"cities":{"Andau":{"countryName":"Austria","stateName":"Burgenland","name":"Andau","lat":47.77441,"lon":17.03293,"geocoding":{},"distantMaxMiles":5},"Antau":{"countryName":"Austria","stateName":"Burgenland","name":"Antau","lat":47.77377,"lon":16.47984,"geocoding":{},"distantMaxMiles":5},"Apetlon":{"countryName":"Austria","stateName":"Burgenland","name":"Apetlon","lat":47.74394,"lon":16.8302,"geocoding":{},"distantMaxMiles":5},"Bad Sauerbrunn":{"countryName":"Austria","stateName":"Burgenland","name":"Bad Sauerbrunn","lat":47.77439,"lon":16.32841,"geocoding":{},"distantMaxMiles":5},"Bad Tatzmannsdorf":{"countryName":"Austria","stateName":"Burgenland","name":"Bad Tatzmannsdorf","lat":47.33126,"lon":16.23067,"geocoding":{},"distantMaxMiles":5},"Badersdorf":{"countryName":"Austria","stateName":"Burgenland","name":"Badersdorf","lat":47.2,"lon":16.36667,"geocoding":{},"distantMaxMiles":5},"Bernstein":{"countryName":"Austria","stateName":"Burgenland","name":"Bernstein","lat":47.4,"lon":16.25,"geocoding":{},"distantMaxMiles":5},"Bocksdorf":{"countryName":"Austria","stateName":"Burgenland","name":"Bocksdorf","lat":47.14256,"lon":16.17784,"geocoding":{},"distantMaxMiles":5},"Breitenbrunn":{"countryName":"Austria","stateName":"Burgenland","name":"Breitenbrunn","lat":47.94452,"lon":16.73149,"geocoding":{},"distantMaxMiles":5},"Bruckneudorf":{"countryName":"Austria","stateName":"Burgenland","name":"Bruckneudorf","lat":48.01667,"lon":16.78333,"geocoding":{},"distantMaxMiles":5},"Deutsch Jahrndorf":{"countryName":"Austria","stateName":"Burgenland","name":"Deutsch Jahrndorf","lat":48.01667,"lon":17.1,"geocoding":{},"distantMaxMiles":5},"Deutsch Kaltenbrunn":{"countryName":"Austria","stateName":"Burgenland","name":"Deutsch Kaltenbrunn","lat":47.09455,"lon":16.13145,"geocoding":{},"distantMaxMiles":5},"Deutschkreutz":{"countryName":"Austria","stateName":"Burgenland","name":"Deutschkreutz","lat":47.6,"lon":16.63333,"geocoding":{},"distantMaxMiles":5},"Donnerskirchen":{"countryName":"Austria","stateName":"Burgenland","name":"Donnerskirchen","lat":47.89425,"lon":16.64635,"geocoding":{},"distantMaxMiles":5},"Drassburg":{"countryName":"Austria","stateName":"Burgenland","name":"Drassburg","lat":47.74645,"lon":16.48679,"geocoding":{},"distantMaxMiles":5},"Eberau":{"countryName":"Austria","stateName":"Burgenland","name":"Eberau","lat":47.10764,"lon":16.46044,"geocoding":{},"distantMaxMiles":5},"Edelstal":{"countryName":"Austria","stateName":"Burgenland","name":"Edelstal","lat":48.1,"lon":16.98333,"geocoding":{},"distantMaxMiles":5},"Eisenstadt":{"countryName":"Austria","stateName":"Burgenland","name":"Eisenstadt","lat":47.84565,"lon":16.52327,"geocoding":{},"distantMaxMiles":5},"Eisenstadt Stadt":{"countryName":"Austria","stateName":"Burgenland","name":"Eisenstadt Stadt","lat":47.8445,"lon":16.52575,"geocoding":{},"distantMaxMiles":5},"Eisenstadt-Umgebung":{"countryName":"Austria","stateName":"Burgenland","name":"Eisenstadt-Umgebung","lat":47.83333,"lon":16.58333,"geocoding":{},"distantMaxMiles":5},"Eltendorf":{"countryName":"Austria","stateName":"Burgenland","name":"Eltendorf","lat":47.0087,"lon":16.20239,"geocoding":{},"distantMaxMiles":5},"Forchtenstein":{"countryName":"Austria","stateName":"Burgenland","name":"Forchtenstein","lat":47.71161,"lon":16.34525,"geocoding":{},"distantMaxMiles":5},"Frauenkirchen":{"countryName":"Austria","stateName":"Burgenland","name":"Frauenkirchen","lat":47.83678,"lon":16.92581,"geocoding":{},"distantMaxMiles":5},"Gattendorf":{"countryName":"Austria","stateName":"Burgenland","name":"Gattendorf","lat":48.01667,"lon":16.98333,"geocoding":{},"distantMaxMiles":5},"Gols":{"countryName":"Austria","stateName":"Burgenland","name":"Gols","lat":47.89689,"lon":16.91113,"geocoding":{},"distantMaxMiles":5},"Grafenschachen":{"countryName":"Austria","stateName":"Burgenland","name":"Grafenschachen","lat":47.36667,"lon":16.06667,"geocoding":{},"distantMaxMiles":5},"Grosshöflein":{"countryName":"Austria","stateName":"Burgenland","name":"Grosshöflein","lat":47.83586,"lon":16.48035,"geocoding":{},"distantMaxMiles":5},"Grosspetersdorf":{"countryName":"Austria","stateName":"Burgenland","name":"Grosspetersdorf","lat":47.23895,"lon":16.31783,"geocoding":{},"distantMaxMiles":5},"Güssing":{"countryName":"Austria","stateName":"Burgenland","name":"Güssing","lat":47.05936,"lon":16.32431,"geocoding":{},"distantMaxMiles":5},"Güttenbach":{"countryName":"Austria","stateName":"Burgenland","name":"Güttenbach","lat":47.1571,"lon":16.2923,"geocoding":{},"distantMaxMiles":5},"Hackerberg":{"countryName":"Austria","stateName":"Burgenland","name":"Hackerberg","lat":47.2,"lon":16.11667,"geocoding":{},"distantMaxMiles":5},"Halbturn":{"countryName":"Austria","stateName":"Burgenland","name":"Halbturn","lat":47.87019,"lon":16.97542,"geocoding":{},"distantMaxMiles":5},"Hannersdorf":{"countryName":"Austria","stateName":"Burgenland","name":"Hannersdorf","lat":47.22895,"lon":16.3825,"geocoding":{},"distantMaxMiles":5},"Heiligenbrunn":{"countryName":"Austria","stateName":"Burgenland","name":"Heiligenbrunn","lat":47.02705,"lon":16.41688,"geocoding":{},"distantMaxMiles":5},"Heiligenkreuz im Lafnitztal":{"countryName":"Austria","stateName":"Burgenland","name":"Heiligenkreuz im Lafnitztal","lat":46.98917,"lon":16.26083,"geocoding":{},"distantMaxMiles":5},"Heugraben":{"countryName":"Austria","stateName":"Burgenland","name":"Heugraben","lat":47.11783,"lon":16.19041,"geocoding":{},"distantMaxMiles":5},"Hirm":{"countryName":"Austria","stateName":"Burgenland","name":"Hirm","lat":47.78652,"lon":16.4546,"geocoding":{},"distantMaxMiles":5},"Horitschon":{"countryName":"Austria","stateName":"Burgenland","name":"Horitschon","lat":47.58729,"lon":16.54696,"geocoding":{},"distantMaxMiles":5},"Hornstein":{"countryName":"Austria","stateName":"Burgenland","name":"Hornstein","lat":47.88049,"lon":16.44447,"geocoding":{},"distantMaxMiles":5},"Illmitz":{"countryName":"Austria","stateName":"Burgenland","name":"Illmitz","lat":47.76148,"lon":16.80024,"geocoding":{},"distantMaxMiles":5},"Inzenhof":{"countryName":"Austria","stateName":"Burgenland","name":"Inzenhof","lat":47.01667,"lon":16.31667,"geocoding":{},"distantMaxMiles":5},"Jabing":{"countryName":"Austria","stateName":"Burgenland","name":"Jabing","lat":47.2388,"lon":16.27659,"geocoding":{},"distantMaxMiles":5},"Jennersdorf":{"countryName":"Austria","stateName":"Burgenland","name":"Jennersdorf","lat":46.93848,"lon":16.14158,"geocoding":{},"distantMaxMiles":5},"Jois":{"countryName":"Austria","stateName":"Burgenland","name":"Jois","lat":47.96165,"lon":16.79604,"geocoding":{},"distantMaxMiles":5},"Kaisersdorf":{"countryName":"Austria","stateName":"Burgenland","name":"Kaisersdorf","lat":47.53741,"lon":16.39198,"geocoding":{},"distantMaxMiles":5},"Kemeten":{"countryName":"Austria","stateName":"Burgenland","name":"Kemeten","lat":47.24859,"lon":16.15213,"geocoding":{},"distantMaxMiles":5},"Kittsee":{"countryName":"Austria","stateName":"Burgenland","name":"Kittsee","lat":48.0925,"lon":17.06389,"geocoding":{},"distantMaxMiles":5},"Kleinhöflein im Burgenland":{"countryName":"Austria","stateName":"Burgenland","name":"Kleinhöflein im Burgenland","lat":47.84151,"lon":16.50413,"geocoding":{},"distantMaxMiles":5},"Kleinmürbisch":{"countryName":"Austria","stateName":"Burgenland","name":"Kleinmürbisch","lat":47.03299,"lon":16.32448,"geocoding":{},"distantMaxMiles":5},"Klingenbach":{"countryName":"Austria","stateName":"Burgenland","name":"Klingenbach","lat":47.75202,"lon":16.54069,"geocoding":{},"distantMaxMiles":5},"Kobersdorf":{"countryName":"Austria","stateName":"Burgenland","name":"Kobersdorf","lat":47.59572,"lon":16.39173,"geocoding":{},"distantMaxMiles":5},"Kohfidisch":{"countryName":"Austria","stateName":"Burgenland","name":"Kohfidisch","lat":47.17472,"lon":16.35701,"geocoding":{},"distantMaxMiles":5},"Krensdorf":{"countryName":"Austria","stateName":"Burgenland","name":"Krensdorf","lat":47.78552,"lon":16.41495,"geocoding":{},"distantMaxMiles":5},"Kukmirn":{"countryName":"Austria","stateName":"Burgenland","name":"Kukmirn","lat":47.07544,"lon":16.21033,"geocoding":{},"distantMaxMiles":5},"Königsdorf":{"countryName":"Austria","stateName":"Burgenland","name":"Königsdorf","lat":47,"lon":16.16667,"geocoding":{},"distantMaxMiles":5},"Lackenbach":{"countryName":"Austria","stateName":"Burgenland","name":"Lackenbach","lat":47.59042,"lon":16.46533,"geocoding":{},"distantMaxMiles":5},"Lackendorf":{"countryName":"Austria","stateName":"Burgenland","name":"Lackendorf","lat":47.58996,"lon":16.50404,"geocoding":{},"distantMaxMiles":5},"Leithaprodersdorf":{"countryName":"Austria","stateName":"Burgenland","name":"Leithaprodersdorf","lat":47.93348,"lon":16.47915,"geocoding":{},"distantMaxMiles":5},"Litzelsdorf":{"countryName":"Austria","stateName":"Burgenland","name":"Litzelsdorf","lat":47.20826,"lon":16.1717,"geocoding":{},"distantMaxMiles":5},"Lockenhaus":{"countryName":"Austria","stateName":"Burgenland","name":"Lockenhaus","lat":47.40753,"lon":16.41623,"geocoding":{},"distantMaxMiles":5},"Loipersbach im Burgenland":{"countryName":"Austria","stateName":"Burgenland","name":"Loipersbach im Burgenland","lat":47.69656,"lon":16.47919,"geocoding":{},"distantMaxMiles":5},"Loretto":{"countryName":"Austria","stateName":"Burgenland","name":"Loretto","lat":47.91559,"lon":16.5179,"geocoding":{},"distantMaxMiles":5},"Lutzmannsburg":{"countryName":"Austria","stateName":"Burgenland","name":"Lutzmannsburg","lat":47.46373,"lon":16.63665,"geocoding":{},"distantMaxMiles":5},"Mannersdorf an der Rabnitz":{"countryName":"Austria","stateName":"Burgenland","name":"Mannersdorf an der Rabnitz","lat":47.42815,"lon":16.52678,"geocoding":{},"distantMaxMiles":5},"Mariasdorf":{"countryName":"Austria","stateName":"Burgenland","name":"Mariasdorf","lat":47.3658,"lon":16.23136,"geocoding":{},"distantMaxMiles":5},"Markt Allhau":{"countryName":"Austria","stateName":"Burgenland","name":"Markt Allhau","lat":47.28333,"lon":16.08333,"geocoding":{},"distantMaxMiles":5},"Markt Neuhodis":{"countryName":"Austria","stateName":"Burgenland","name":"Markt Neuhodis","lat":47.29565,"lon":16.39564,"geocoding":{},"distantMaxMiles":5},"Markt Sankt Martin":{"countryName":"Austria","stateName":"Burgenland","name":"Markt Sankt Martin","lat":47.56205,"lon":16.42508,"geocoding":{},"distantMaxMiles":5},"Marz":{"countryName":"Austria","stateName":"Burgenland","name":"Marz","lat":47.71667,"lon":16.41667,"geocoding":{},"distantMaxMiles":5},"Mattersburg":{"countryName":"Austria","stateName":"Burgenland","name":"Mattersburg","lat":47.73333,"lon":16.4,"geocoding":{},"distantMaxMiles":5},"Mischendorf":{"countryName":"Austria","stateName":"Burgenland","name":"Mischendorf","lat":47.19277,"lon":16.31444,"geocoding":{},"distantMaxMiles":5},"Mitterpullendorf":{"countryName":"Austria","stateName":"Burgenland","name":"Mitterpullendorf","lat":47.49325,"lon":16.52129,"geocoding":{},"distantMaxMiles":5},"Mogersdorf":{"countryName":"Austria","stateName":"Burgenland","name":"Mogersdorf","lat":46.94917,"lon":16.23222,"geocoding":{},"distantMaxMiles":5},"Moschendorf":{"countryName":"Austria","stateName":"Burgenland","name":"Moschendorf","lat":47.05843,"lon":16.47728,"geocoding":{},"distantMaxMiles":5},"Mönchhof":{"countryName":"Austria","stateName":"Burgenland","name":"Mönchhof","lat":47.8802,"lon":16.94126,"geocoding":{},"distantMaxMiles":5},"Mörbisch am See":{"countryName":"Austria","stateName":"Burgenland","name":"Mörbisch am See","lat":47.75,"lon":16.66667,"geocoding":{},"distantMaxMiles":5},"Mühlgraben":{"countryName":"Austria","stateName":"Burgenland","name":"Mühlgraben","lat":46.88972,"lon":16.04083,"geocoding":{},"distantMaxMiles":5},"Müllendorf":{"countryName":"Austria","stateName":"Burgenland","name":"Müllendorf","lat":47.83943,"lon":16.46258,"geocoding":{},"distantMaxMiles":5},"Neckenmarkt":{"countryName":"Austria","stateName":"Burgenland","name":"Neckenmarkt","lat":47.59964,"lon":16.5467,"geocoding":{},"distantMaxMiles":5},"Neuberg im Burgenland":{"countryName":"Austria","stateName":"Burgenland","name":"Neuberg im Burgenland","lat":47.16894,"lon":16.26054,"geocoding":{},"distantMaxMiles":5},"Neudörfl":{"countryName":"Austria","stateName":"Burgenland","name":"Neudörfl","lat":47.79655,"lon":16.2977,"geocoding":{},"distantMaxMiles":5},"Neufeld an der Leitha":{"countryName":"Austria","stateName":"Burgenland","name":"Neufeld an der Leitha","lat":47.86558,"lon":16.37856,"geocoding":{},"distantMaxMiles":5},"Neuhaus am Klausenbach":{"countryName":"Austria","stateName":"Burgenland","name":"Neuhaus am Klausenbach","lat":46.86667,"lon":16.03333,"geocoding":{},"distantMaxMiles":5},"Neusiedl am See":{"countryName":"Austria","stateName":"Burgenland","name":"Neusiedl am See","lat":47.94901,"lon":16.8417,"geocoding":{},"distantMaxMiles":5},"Neustift an der Lafnitz":{"countryName":"Austria","stateName":"Burgenland","name":"Neustift an der Lafnitz","lat":47.36667,"lon":16.03333,"geocoding":{},"distantMaxMiles":5},"Neustift bei Güssing":{"countryName":"Austria","stateName":"Burgenland","name":"Neustift bei Güssing","lat":47.02474,"lon":16.26041,"geocoding":{},"distantMaxMiles":5},"Neutal":{"countryName":"Austria","stateName":"Burgenland","name":"Neutal","lat":47.54548,"lon":16.44619,"geocoding":{},"distantMaxMiles":5},"Nickelsdorf":{"countryName":"Austria","stateName":"Burgenland","name":"Nickelsdorf","lat":47.94056,"lon":17.06944,"geocoding":{},"distantMaxMiles":5},"Nikitsch":{"countryName":"Austria","stateName":"Burgenland","name":"Nikitsch","lat":47.53615,"lon":16.66017,"geocoding":{},"distantMaxMiles":5},"Oberdorf im Burgenland":{"countryName":"Austria","stateName":"Burgenland","name":"Oberdorf im Burgenland","lat":47.21667,"lon":16.21667,"geocoding":{},"distantMaxMiles":5},"Oberloisdorf":{"countryName":"Austria","stateName":"Burgenland","name":"Oberloisdorf","lat":47.44736,"lon":16.50764,"geocoding":{},"distantMaxMiles":5},"Oberpullendorf":{"countryName":"Austria","stateName":"Burgenland","name":"Oberpullendorf","lat":47.50352,"lon":16.50447,"geocoding":{},"distantMaxMiles":5},"Oberschützen":{"countryName":"Austria","stateName":"Burgenland","name":"Oberschützen","lat":47.35138,"lon":16.20732,"geocoding":{},"distantMaxMiles":5},"Oberwart":{"countryName":"Austria","stateName":"Burgenland","name":"Oberwart","lat":47.28971,"lon":16.20595,"geocoding":{},"distantMaxMiles":5},"Oggau":{"countryName":"Austria","stateName":"Burgenland","name":"Oggau","lat":47.83333,"lon":16.66667,"geocoding":{},"distantMaxMiles":5},"Olbendorf":{"countryName":"Austria","stateName":"Burgenland","name":"Olbendorf","lat":47.18333,"lon":16.2,"geocoding":{},"distantMaxMiles":5},"Ollersdorf im Burgenland":{"countryName":"Austria","stateName":"Burgenland","name":"Ollersdorf im Burgenland","lat":47.18333,"lon":16.16667,"geocoding":{},"distantMaxMiles":5},"Oslip":{"countryName":"Austria","stateName":"Burgenland","name":"Oslip","lat":47.82906,"lon":16.61957,"geocoding":{},"distantMaxMiles":5},"Pama":{"countryName":"Austria","stateName":"Burgenland","name":"Pama","lat":48.05,"lon":17.03333,"geocoding":{},"distantMaxMiles":5},"Pamhagen":{"countryName":"Austria","stateName":"Burgenland","name":"Pamhagen","lat":47.70092,"lon":16.90779,"geocoding":{},"distantMaxMiles":5},"Parndorf":{"countryName":"Austria","stateName":"Burgenland","name":"Parndorf","lat":47.99963,"lon":16.86049,"geocoding":{},"distantMaxMiles":5},"Pilgersdorf":{"countryName":"Austria","stateName":"Burgenland","name":"Pilgersdorf","lat":47.44106,"lon":16.3492,"geocoding":{},"distantMaxMiles":5},"Pinkafeld":{"countryName":"Austria","stateName":"Burgenland","name":"Pinkafeld","lat":47.36667,"lon":16.11667,"geocoding":{},"distantMaxMiles":5},"Piringsdorf":{"countryName":"Austria","stateName":"Burgenland","name":"Piringsdorf","lat":47.44826,"lon":16.41516,"geocoding":{},"distantMaxMiles":5},"Podersdorf am See":{"countryName":"Austria","stateName":"Burgenland","name":"Podersdorf am See","lat":47.85412,"lon":16.83706,"geocoding":{},"distantMaxMiles":5},"Politischer Bezirk Güssing":{"countryName":"Austria","stateName":"Burgenland","name":"Politischer Bezirk Güssing","lat":47.10164,"lon":16.30363,"geocoding":{},"distantMaxMiles":5},"Politischer Bezirk Jennersdorf":{"countryName":"Austria","stateName":"Burgenland","name":"Politischer Bezirk Jennersdorf","lat":46.96667,"lon":16.15,"geocoding":{},"distantMaxMiles":5},"Politischer Bezirk Mattersburg":{"countryName":"Austria","stateName":"Burgenland","name":"Politischer Bezirk Mattersburg","lat":47.73823,"lon":16.39486,"geocoding":{},"distantMaxMiles":5},"Politischer Bezirk Neusiedl am See":{"countryName":"Austria","stateName":"Burgenland","name":"Politischer Bezirk Neusiedl am See","lat":47.88853,"lon":16.92465,"geocoding":{},"distantMaxMiles":5},"Politischer Bezirk Oberpullendorf":{"countryName":"Austria","stateName":"Burgenland","name":"Politischer Bezirk Oberpullendorf","lat":47.50184,"lon":16.50593,"geocoding":{},"distantMaxMiles":5},"Politischer Bezirk Oberwart":{"countryName":"Austria","stateName":"Burgenland","name":"Politischer Bezirk Oberwart","lat":47.28854,"lon":16.20861,"geocoding":{},"distantMaxMiles":5},"Potzneusiedl":{"countryName":"Austria","stateName":"Burgenland","name":"Potzneusiedl","lat":48.04504,"lon":16.9477,"geocoding":{},"distantMaxMiles":5},"Purbach am Neusiedler See":{"countryName":"Austria","stateName":"Burgenland","name":"Purbach am Neusiedler See","lat":47.91289,"lon":16.69561,"geocoding":{},"distantMaxMiles":5},"Pöttelsdorf":{"countryName":"Austria","stateName":"Burgenland","name":"Pöttelsdorf","lat":47.75369,"lon":16.43864,"geocoding":{},"distantMaxMiles":5},"Pöttsching":{"countryName":"Austria","stateName":"Burgenland","name":"Pöttsching","lat":47.80445,"lon":16.37109,"geocoding":{},"distantMaxMiles":5},"Raiding":{"countryName":"Austria","stateName":"Burgenland","name":"Raiding","lat":47.56581,"lon":16.53056,"geocoding":{},"distantMaxMiles":5},"Rechnitz":{"countryName":"Austria","stateName":"Burgenland","name":"Rechnitz","lat":47.30467,"lon":16.44095,"geocoding":{},"distantMaxMiles":5},"Riedlingsdorf":{"countryName":"Austria","stateName":"Burgenland","name":"Riedlingsdorf","lat":47.35,"lon":16.13333,"geocoding":{},"distantMaxMiles":5},"Ritzing":{"countryName":"Austria","stateName":"Burgenland","name":"Ritzing","lat":47.61316,"lon":16.49546,"geocoding":{},"distantMaxMiles":5},"Rohr im Burgenland":{"countryName":"Austria","stateName":"Burgenland","name":"Rohr im Burgenland","lat":47.11667,"lon":16.16667,"geocoding":{},"distantMaxMiles":5},"Rohrbach bei Mattersburg":{"countryName":"Austria","stateName":"Burgenland","name":"Rohrbach bei Mattersburg","lat":47.7052,"lon":16.43005,"geocoding":{},"distantMaxMiles":5},"Rotenturm an der Pinka":{"countryName":"Austria","stateName":"Burgenland","name":"Rotenturm an der Pinka","lat":47.25,"lon":16.25,"geocoding":{},"distantMaxMiles":5},"Rudersdorf":{"countryName":"Austria","stateName":"Burgenland","name":"Rudersdorf","lat":47.05,"lon":16.11667,"geocoding":{},"distantMaxMiles":5},"Rust":{"countryName":"Austria","stateName":"Burgenland","name":"Rust","lat":47.80122,"lon":16.67158,"geocoding":{},"distantMaxMiles":5},"Rust Stadt":{"countryName":"Austria","stateName":"Burgenland","name":"Rust Stadt","lat":47.80174,"lon":16.6721,"geocoding":{},"distantMaxMiles":5},"Sankt Andrä am Zicksee":{"countryName":"Austria","stateName":"Burgenland","name":"Sankt Andrä am Zicksee","lat":47.7841,"lon":16.94195,"geocoding":{},"distantMaxMiles":5},"Sankt Georgen am Leithagebirge":{"countryName":"Austria","stateName":"Burgenland","name":"Sankt Georgen am Leithagebirge","lat":47.85,"lon":16.55,"geocoding":{},"distantMaxMiles":5},"Sankt Margarethen im Burgenland":{"countryName":"Austria","stateName":"Burgenland","name":"Sankt Margarethen im Burgenland","lat":47.80335,"lon":16.60875,"geocoding":{},"distantMaxMiles":5},"Sankt Martin an der Raab":{"countryName":"Austria","stateName":"Burgenland","name":"Sankt Martin an der Raab","lat":46.9225,"lon":16.13611,"geocoding":{},"distantMaxMiles":5},"Sankt Michael im Burgenland":{"countryName":"Austria","stateName":"Burgenland","name":"Sankt Michael im Burgenland","lat":47.12852,"lon":16.27148,"geocoding":{},"distantMaxMiles":5},"Schachendorf":{"countryName":"Austria","stateName":"Burgenland","name":"Schachendorf","lat":47.26667,"lon":16.43333,"geocoding":{},"distantMaxMiles":5},"Schandorf":{"countryName":"Austria","stateName":"Burgenland","name":"Schandorf","lat":47.24183,"lon":16.42267,"geocoding":{},"distantMaxMiles":5},"Schattendorf":{"countryName":"Austria","stateName":"Burgenland","name":"Schattendorf","lat":47.70973,"lon":16.50979,"geocoding":{},"distantMaxMiles":5},"Schützen am Gebirge":{"countryName":"Austria","stateName":"Burgenland","name":"Schützen am Gebirge","lat":47.85233,"lon":16.62334,"geocoding":{},"distantMaxMiles":5},"Siegendorf im Burgenland":{"countryName":"Austria","stateName":"Burgenland","name":"Siegendorf im Burgenland","lat":47.78098,"lon":16.54232,"geocoding":{},"distantMaxMiles":5},"Sieggraben":{"countryName":"Austria","stateName":"Burgenland","name":"Sieggraben","lat":47.65128,"lon":16.37993,"geocoding":{},"distantMaxMiles":5},"Sigless":{"countryName":"Austria","stateName":"Burgenland","name":"Sigless","lat":47.77533,"lon":16.39503,"geocoding":{},"distantMaxMiles":5},"Stadtschlaining":{"countryName":"Austria","stateName":"Burgenland","name":"Stadtschlaining","lat":47.31667,"lon":16.28333,"geocoding":{},"distantMaxMiles":5},"Stegersbach":{"countryName":"Austria","stateName":"Burgenland","name":"Stegersbach","lat":47.16667,"lon":16.16667,"geocoding":{},"distantMaxMiles":5},"Steinbrunn":{"countryName":"Austria","stateName":"Burgenland","name":"Steinbrunn","lat":47.83333,"lon":16.41667,"geocoding":{},"distantMaxMiles":5},"Stinatz":{"countryName":"Austria","stateName":"Burgenland","name":"Stinatz","lat":47.20266,"lon":16.13312,"geocoding":{},"distantMaxMiles":5},"Stoob":{"countryName":"Austria","stateName":"Burgenland","name":"Stoob","lat":47.52845,"lon":16.4776,"geocoding":{},"distantMaxMiles":5},"Stotzing":{"countryName":"Austria","stateName":"Burgenland","name":"Stotzing","lat":47.90688,"lon":16.5458,"geocoding":{},"distantMaxMiles":5},"Strem":{"countryName":"Austria","stateName":"Burgenland","name":"Strem","lat":47.04498,"lon":16.41426,"geocoding":{},"distantMaxMiles":5},"Tadten":{"countryName":"Austria","stateName":"Burgenland","name":"Tadten","lat":47.76667,"lon":16.98333,"geocoding":{},"distantMaxMiles":5},"Tobaj":{"countryName":"Austria","stateName":"Burgenland","name":"Tobaj","lat":47.08333,"lon":16.3,"geocoding":{},"distantMaxMiles":5},"Trausdorf an der Wulka":{"countryName":"Austria","stateName":"Burgenland","name":"Trausdorf an der Wulka","lat":47.8135,"lon":16.5576,"geocoding":{},"distantMaxMiles":5},"Tschanigraben":{"countryName":"Austria","stateName":"Burgenland","name":"Tschanigraben","lat":47.01667,"lon":16.3,"geocoding":{},"distantMaxMiles":5},"Unterfrauenhaid":{"countryName":"Austria","stateName":"Burgenland","name":"Unterfrauenhaid","lat":47.57116,"lon":16.49885,"geocoding":{},"distantMaxMiles":5},"Unterkohlstätten":{"countryName":"Austria","stateName":"Burgenland","name":"Unterkohlstätten","lat":47.38333,"lon":16.31667,"geocoding":{},"distantMaxMiles":5},"Unterwart":{"countryName":"Austria","stateName":"Burgenland","name":"Unterwart","lat":47.25,"lon":16.23333,"geocoding":{},"distantMaxMiles":5},"Wallern im Burgenland":{"countryName":"Austria","stateName":"Burgenland","name":"Wallern im Burgenland","lat":47.72847,"lon":16.93706,"geocoding":{},"distantMaxMiles":5},"Weichselbaum":{"countryName":"Austria","stateName":"Burgenland","name":"Weichselbaum","lat":46.9425,"lon":16.1875,"geocoding":{},"distantMaxMiles":5},"Weiden am See":{"countryName":"Austria","stateName":"Burgenland","name":"Weiden am See","lat":47.92532,"lon":16.86899,"geocoding":{},"distantMaxMiles":5},"Weiden bei Rechnitz":{"countryName":"Austria","stateName":"Burgenland","name":"Weiden bei Rechnitz","lat":47.3,"lon":16.35,"geocoding":{},"distantMaxMiles":5},"Weingraben":{"countryName":"Austria","stateName":"Burgenland","name":"Weingraben","lat":47.51393,"lon":16.36375,"geocoding":{},"distantMaxMiles":5},"Weppersdorf":{"countryName":"Austria","stateName":"Burgenland","name":"Weppersdorf","lat":47.57954,"lon":16.42679,"geocoding":{},"distantMaxMiles":5},"Wiesen":{"countryName":"Austria","stateName":"Burgenland","name":"Wiesen","lat":47.73776,"lon":16.33798,"geocoding":{},"distantMaxMiles":5},"Wiesfleck":{"countryName":"Austria","stateName":"Burgenland","name":"Wiesfleck","lat":47.38458,"lon":16.14552,"geocoding":{},"distantMaxMiles":5},"Wimpassing an der Leitha":{"countryName":"Austria","stateName":"Burgenland","name":"Wimpassing an der Leitha","lat":47.91667,"lon":16.43333,"geocoding":{},"distantMaxMiles":5},"Winden am See":{"countryName":"Austria","stateName":"Burgenland","name":"Winden am See","lat":47.95,"lon":16.75,"geocoding":{},"distantMaxMiles":5},"Wolfau":{"countryName":"Austria","stateName":"Burgenland","name":"Wolfau","lat":47.25,"lon":16.1,"geocoding":{},"distantMaxMiles":5},"Wulkaprodersdorf":{"countryName":"Austria","stateName":"Burgenland","name":"Wulkaprodersdorf","lat":47.79753,"lon":16.50447,"geocoding":{},"distantMaxMiles":5},"Wörterberg":{"countryName":"Austria","stateName":"Burgenland","name":"Wörterberg","lat":47.21667,"lon":16.1,"geocoding":{},"distantMaxMiles":5},"Zagersdorf":{"countryName":"Austria","stateName":"Burgenland","name":"Zagersdorf","lat":47.76471,"lon":16.51382,"geocoding":{},"distantMaxMiles":5},"Zillingtal":{"countryName":"Austria","stateName":"Burgenland","name":"Zillingtal","lat":47.81442,"lon":16.40928,"geocoding":{},"distantMaxMiles":5},"Zurndorf":{"countryName":"Austria","stateName":"Burgenland","name":"Zurndorf","lat":47.98314,"lon":17.00315,"geocoding":{},"distantMaxMiles":5}}},"Carinthia":{"countryName":"Austria","name":"Carinthia","isoCode":"2","lat":46.722203,"lon":14.1805882,"geocoding":{},"distantMaxMiles":5,"cities":{"Albeck":{"countryName":"Austria","stateName":"Carinthia","name":"Albeck","lat":46.81666667,"lon":14.1,"geocoding":{},"distantMaxMiles":5},"Althofen":{"countryName":"Austria","stateName":"Carinthia","name":"Althofen","lat":46.87298,"lon":14.47449,"geocoding":{},"distantMaxMiles":5},"Annabichl":{"countryName":"Austria","stateName":"Carinthia","name":"Annabichl","lat":46.65,"lon":14.31667,"geocoding":{},"distantMaxMiles":5},"Arnoldstein":{"countryName":"Austria","stateName":"Carinthia","name":"Arnoldstein","lat":46.54611,"lon":13.71,"geocoding":{},"distantMaxMiles":5},"Arriach":{"countryName":"Austria","stateName":"Carinthia","name":"Arriach","lat":46.72921,"lon":13.85046,"geocoding":{},"distantMaxMiles":5},"Auen":{"countryName":"Austria","stateName":"Carinthia","name":"Auen","lat":46.59963,"lon":13.84389,"geocoding":{},"distantMaxMiles":5},"Bad Bleiberg":{"countryName":"Austria","stateName":"Carinthia","name":"Bad Bleiberg","lat":46.62416667,"lon":13.68777778,"geocoding":{},"distantMaxMiles":5},"Bad Eisenkappel":{"countryName":"Austria","stateName":"Carinthia","name":"Bad Eisenkappel","lat":46.48333333,"lon":14.6,"geocoding":{},"distantMaxMiles":5},"Bad Kleinkirchheim":{"countryName":"Austria","stateName":"Carinthia","name":"Bad Kleinkirchheim","lat":46.81361111,"lon":13.79277778,"geocoding":{},"distantMaxMiles":5},"Bad Sankt Leonhard im Lavanttal":{"countryName":"Austria","stateName":"Carinthia","name":"Bad Sankt Leonhard im Lavanttal","lat":46.96278,"lon":14.79167,"geocoding":{},"distantMaxMiles":5},"Baldramsdorf":{"countryName":"Austria","stateName":"Carinthia","name":"Baldramsdorf","lat":46.80111,"lon":13.45333,"geocoding":{},"distantMaxMiles":5},"Berg im Drautal":{"countryName":"Austria","stateName":"Carinthia","name":"Berg im Drautal","lat":46.74915,"lon":13.13536,"geocoding":{},"distantMaxMiles":5},"Bleiburg":{"countryName":"Austria","stateName":"Carinthia","name":"Bleiburg","lat":46.59,"lon":14.79889,"geocoding":{},"distantMaxMiles":5},"Bodensdorf":{"countryName":"Austria","stateName":"Carinthia","name":"Bodensdorf","lat":46.69111,"lon":13.97111,"geocoding":{},"distantMaxMiles":5},"Brückl":{"countryName":"Austria","stateName":"Carinthia","name":"Brückl","lat":46.75167,"lon":14.53667,"geocoding":{},"distantMaxMiles":5},"Dellach":{"countryName":"Austria","stateName":"Carinthia","name":"Dellach","lat":46.66175,"lon":13.07965,"geocoding":{},"distantMaxMiles":5},"Dellach im Drautal":{"countryName":"Austria","stateName":"Carinthia","name":"Dellach im Drautal","lat":46.7375,"lon":13.07833,"geocoding":{},"distantMaxMiles":5},"Deutsch Griffen":{"countryName":"Austria","stateName":"Carinthia","name":"Deutsch Griffen","lat":46.85606,"lon":14.07501,"geocoding":{},"distantMaxMiles":5},"Deutsch-Griffen":{"countryName":"Austria","stateName":"Carinthia","name":"Deutsch-Griffen","lat":46.855,"lon":14.07388889,"geocoding":{},"distantMaxMiles":5},"Diex":{"countryName":"Austria","stateName":"Carinthia","name":"Diex","lat":46.75,"lon":14.6,"geocoding":{},"distantMaxMiles":5},"Draschen":{"countryName":"Austria","stateName":"Carinthia","name":"Draschen","lat":46.76909,"lon":14.06758,"geocoding":{},"distantMaxMiles":5},"Döbriach":{"countryName":"Austria","stateName":"Carinthia","name":"Döbriach","lat":46.78049,"lon":13.65738,"geocoding":{},"distantMaxMiles":5},"Ebenthal":{"countryName":"Austria","stateName":"Carinthia","name":"Ebenthal","lat":46.60806,"lon":14.36417,"geocoding":{},"distantMaxMiles":5},"Eberndorf":{"countryName":"Austria","stateName":"Carinthia","name":"Eberndorf","lat":46.59139,"lon":14.64361,"geocoding":{},"distantMaxMiles":5},"Eberstein":{"countryName":"Austria","stateName":"Carinthia","name":"Eberstein","lat":46.80806,"lon":14.56,"geocoding":{},"distantMaxMiles":5},"Ebriach":{"countryName":"Austria","stateName":"Carinthia","name":"Ebriach","lat":46.46667,"lon":14.51667,"geocoding":{},"distantMaxMiles":5},"Eisenkappel-Vellach":{"countryName":"Austria","stateName":"Carinthia","name":"Eisenkappel-Vellach","lat":46.48638889,"lon":14.59611111,"geocoding":{},"distantMaxMiles":5},"Faak am See":{"countryName":"Austria","stateName":"Carinthia","name":"Faak am See","lat":46.56806,"lon":13.90972,"geocoding":{},"distantMaxMiles":5},"Feffernitz":{"countryName":"Austria","stateName":"Carinthia","name":"Feffernitz","lat":46.68333333,"lon":13.7,"geocoding":{},"distantMaxMiles":5},"Feistritz an der Drau":{"countryName":"Austria","stateName":"Carinthia","name":"Feistritz an der Drau","lat":46.70157,"lon":13.66479,"geocoding":{},"distantMaxMiles":5},"Feistritz an der Gail":{"countryName":"Austria","stateName":"Carinthia","name":"Feistritz an der Gail","lat":46.5775,"lon":13.60667,"geocoding":{},"distantMaxMiles":5},"Feistritz im Rosental":{"countryName":"Austria","stateName":"Carinthia","name":"Feistritz im Rosental","lat":46.51667,"lon":14.16667,"geocoding":{},"distantMaxMiles":5},"Feistritz ob Bleiburg":{"countryName":"Austria","stateName":"Carinthia","name":"Feistritz ob Bleiburg","lat":46.55,"lon":14.76667,"geocoding":{},"distantMaxMiles":5},"Feld am See":{"countryName":"Austria","stateName":"Carinthia","name":"Feld am See","lat":46.77639,"lon":13.74778,"geocoding":{},"distantMaxMiles":5},"Feldkirchen District":{"countryName":"Austria","stateName":"Carinthia","name":"Feldkirchen District","lat":46.72127,"lon":14.09683,"geocoding":{},"distantMaxMiles":5},"Feldkirchen in Kärnten":{"countryName":"Austria","stateName":"Carinthia","name":"Feldkirchen in Kärnten","lat":46.72368,"lon":14.0958,"geocoding":{},"distantMaxMiles":5},"Ferlach":{"countryName":"Austria","stateName":"Carinthia","name":"Ferlach","lat":46.52694,"lon":14.30194,"geocoding":{},"distantMaxMiles":5},"Ferndorf":{"countryName":"Austria","stateName":"Carinthia","name":"Ferndorf","lat":46.73651,"lon":13.62661,"geocoding":{},"distantMaxMiles":5},"Finkenstein":{"countryName":"Austria","stateName":"Carinthia","name":"Finkenstein","lat":46.56155,"lon":13.87086,"geocoding":{},"distantMaxMiles":5},"Finkenstein am Faaker See":{"countryName":"Austria","stateName":"Carinthia","name":"Finkenstein am Faaker See","lat":46.57904,"lon":13.93496,"geocoding":{},"distantMaxMiles":5},"Flattach":{"countryName":"Austria","stateName":"Carinthia","name":"Flattach","lat":46.93861,"lon":13.13444,"geocoding":{},"distantMaxMiles":5},"Frantschach-Sankt Gertraud":{"countryName":"Austria","stateName":"Carinthia","name":"Frantschach-Sankt Gertraud","lat":46.86111111,"lon":14.86027778,"geocoding":{},"distantMaxMiles":5},"Frauenstein":{"countryName":"Austria","stateName":"Carinthia","name":"Frauenstein","lat":46.81417,"lon":14.29417,"geocoding":{},"distantMaxMiles":5},"Fresach":{"countryName":"Austria","stateName":"Carinthia","name":"Fresach","lat":46.71556,"lon":13.69083,"geocoding":{},"distantMaxMiles":5},"Fresen":{"countryName":"Austria","stateName":"Carinthia","name":"Fresen","lat":46.70516,"lon":14.04513,"geocoding":{},"distantMaxMiles":5},"Friesach":{"countryName":"Austria","stateName":"Carinthia","name":"Friesach","lat":46.95528,"lon":14.40583,"geocoding":{},"distantMaxMiles":5},"Föderlach I":{"countryName":"Austria","stateName":"Carinthia","name":"Föderlach I","lat":46.59998,"lon":13.96128,"geocoding":{},"distantMaxMiles":5},"Fürnitz":{"countryName":"Austria","stateName":"Carinthia","name":"Fürnitz","lat":46.56188,"lon":13.81732,"geocoding":{},"distantMaxMiles":5},"Gailitz":{"countryName":"Austria","stateName":"Carinthia","name":"Gailitz","lat":46.56083,"lon":13.70444,"geocoding":{},"distantMaxMiles":5},"Gallizien":{"countryName":"Austria","stateName":"Carinthia","name":"Gallizien","lat":46.55,"lon":14.51667,"geocoding":{},"distantMaxMiles":5},"Gemmersdorf":{"countryName":"Austria","stateName":"Carinthia","name":"Gemmersdorf","lat":46.7574,"lon":14.9022,"geocoding":{},"distantMaxMiles":5},"Gerlamoos":{"countryName":"Austria","stateName":"Carinthia","name":"Gerlamoos","lat":46.76391,"lon":13.272,"geocoding":{},"distantMaxMiles":5},"Gitschtal":{"countryName":"Austria","stateName":"Carinthia","name":"Gitschtal","lat":46.67972222,"lon":13.26055556,"geocoding":{},"distantMaxMiles":5},"Glanegg":{"countryName":"Austria","stateName":"Carinthia","name":"Glanegg","lat":46.72259,"lon":14.19893,"geocoding":{},"distantMaxMiles":5},"Globasnitz":{"countryName":"Austria","stateName":"Carinthia","name":"Globasnitz","lat":46.55694,"lon":14.70278,"geocoding":{},"distantMaxMiles":5},"Glödnitz":{"countryName":"Austria","stateName":"Carinthia","name":"Glödnitz","lat":46.87398,"lon":14.11915,"geocoding":{},"distantMaxMiles":5},"Gmünd":{"countryName":"Austria","stateName":"Carinthia","name":"Gmünd","lat":46.90722,"lon":13.52944,"geocoding":{},"distantMaxMiles":5},"Gmünd in Kärnten":{"countryName":"Austria","stateName":"Carinthia","name":"Gmünd in Kärnten","lat":46.91472,"lon":13.5467,"geocoding":{},"distantMaxMiles":5},"Gnesau":{"countryName":"Austria","stateName":"Carinthia","name":"Gnesau","lat":46.77544,"lon":13.96251,"geocoding":{},"distantMaxMiles":5},"Grafenstein":{"countryName":"Austria","stateName":"Carinthia","name":"Grafenstein","lat":46.61393,"lon":14.46719,"geocoding":{},"distantMaxMiles":5},"Greifenburg":{"countryName":"Austria","stateName":"Carinthia","name":"Greifenburg","lat":46.75027,"lon":13.17982,"geocoding":{},"distantMaxMiles":5},"Gries":{"countryName":"Austria","stateName":"Carinthia","name":"Gries","lat":46.8316,"lon":14.85103,"geocoding":{},"distantMaxMiles":5},"Griffen":{"countryName":"Austria","stateName":"Carinthia","name":"Griffen","lat":46.70444,"lon":14.73278,"geocoding":{},"distantMaxMiles":5},"Großkirchheim":{"countryName":"Austria","stateName":"Carinthia","name":"Großkirchheim","lat":46.9727,"lon":12.89589,"geocoding":{},"distantMaxMiles":5},"Gurk":{"countryName":"Austria","stateName":"Carinthia","name":"Gurk","lat":46.87389,"lon":14.29167,"geocoding":{},"distantMaxMiles":5},"Guttaring":{"countryName":"Austria","stateName":"Carinthia","name":"Guttaring","lat":46.88536,"lon":14.51071,"geocoding":{},"distantMaxMiles":5},"Görtschach":{"countryName":"Austria","stateName":"Carinthia","name":"Görtschach","lat":46.61278,"lon":13.465,"geocoding":{},"distantMaxMiles":5},"Heiligenblut":{"countryName":"Austria","stateName":"Carinthia","name":"Heiligenblut","lat":47.03979,"lon":12.84345,"geocoding":{},"distantMaxMiles":5},"Hermagor":{"countryName":"Austria","stateName":"Carinthia","name":"Hermagor","lat":46.62722,"lon":13.36722,"geocoding":{},"distantMaxMiles":5},"Hermagor District":{"countryName":"Austria","stateName":"Carinthia","name":"Hermagor District","lat":46.63137,"lon":13.13246,"geocoding":{},"distantMaxMiles":5},"Hermagor-Pressegger See":{"countryName":"Austria","stateName":"Carinthia","name":"Hermagor-Pressegger See","lat":46.62722222,"lon":13.36722222,"geocoding":{},"distantMaxMiles":5},"Himmelberg":{"countryName":"Austria","stateName":"Carinthia","name":"Himmelberg","lat":46.75667,"lon":14.03056,"geocoding":{},"distantMaxMiles":5},"Hohenthurn":{"countryName":"Austria","stateName":"Carinthia","name":"Hohenthurn","lat":46.55774,"lon":13.66038,"geocoding":{},"distantMaxMiles":5},"Hörtendorf":{"countryName":"Austria","stateName":"Carinthia","name":"Hörtendorf","lat":46.63333,"lon":14.4,"geocoding":{},"distantMaxMiles":5},"Hüttenberg":{"countryName":"Austria","stateName":"Carinthia","name":"Hüttenberg","lat":46.94139,"lon":14.55,"geocoding":{},"distantMaxMiles":5},"Irschen":{"countryName":"Austria","stateName":"Carinthia","name":"Irschen","lat":46.75694,"lon":13.02528,"geocoding":{},"distantMaxMiles":5},"Kappel am Krappfeld":{"countryName":"Austria","stateName":"Carinthia","name":"Kappel am Krappfeld","lat":46.83861,"lon":14.48639,"geocoding":{},"distantMaxMiles":5},"Keutschach am See":{"countryName":"Austria","stateName":"Carinthia","name":"Keutschach am See","lat":46.59306,"lon":14.18889,"geocoding":{},"distantMaxMiles":5},"Kirchbach":{"countryName":"Austria","stateName":"Carinthia","name":"Kirchbach","lat":46.6416,"lon":13.18454,"geocoding":{},"distantMaxMiles":5},"Klagenfurt":{"countryName":"Austria","stateName":"Carinthia","name":"Klagenfurt","lat":46.63873,"lon":14.2973,"geocoding":{},"distantMaxMiles":5},"Klagenfurt am Wörthersee":{"countryName":"Austria","stateName":"Carinthia","name":"Klagenfurt am Wörthersee","lat":46.63333,"lon":14.3,"geocoding":{},"distantMaxMiles":5},"Klagenfurt-Land District":{"countryName":"Austria","stateName":"Carinthia","name":"Klagenfurt-Land District","lat":46.56722,"lon":14.29295,"geocoding":{},"distantMaxMiles":5},"Kleblach-Lind":{"countryName":"Austria","stateName":"Carinthia","name":"Kleblach-Lind","lat":46.76722222,"lon":13.35805556,"geocoding":{},"distantMaxMiles":5},"Klein Sankt Paul":{"countryName":"Austria","stateName":"Carinthia","name":"Klein Sankt Paul","lat":46.83611,"lon":14.54139,"geocoding":{},"distantMaxMiles":5},"Kleinedling":{"countryName":"Austria","stateName":"Carinthia","name":"Kleinedling","lat":46.81417,"lon":14.82778,"geocoding":{},"distantMaxMiles":5},"Krems":{"countryName":"Austria","stateName":"Carinthia","name":"Krems","lat":46.9225,"lon":13.5675,"geocoding":{},"distantMaxMiles":5},"Krumpendorf":{"countryName":"Austria","stateName":"Carinthia","name":"Krumpendorf","lat":46.63333,"lon":14.21667,"geocoding":{},"distantMaxMiles":5},"Kötschach":{"countryName":"Austria","stateName":"Carinthia","name":"Kötschach","lat":46.68167,"lon":13.00694,"geocoding":{},"distantMaxMiles":5},"Kötschach-Mauthen":{"countryName":"Austria","stateName":"Carinthia","name":"Kötschach-Mauthen","lat":46.66666667,"lon":13,"geocoding":{},"distantMaxMiles":5},"Köttmannsdorf":{"countryName":"Austria","stateName":"Carinthia","name":"Köttmannsdorf","lat":46.56139,"lon":14.23389,"geocoding":{},"distantMaxMiles":5},"Kühnsdorf":{"countryName":"Austria","stateName":"Carinthia","name":"Kühnsdorf","lat":46.62194,"lon":14.63639,"geocoding":{},"distantMaxMiles":5},"Lamnitz":{"countryName":"Austria","stateName":"Carinthia","name":"Lamnitz","lat":46.86666667,"lon":12.98333333,"geocoding":{},"distantMaxMiles":5},"Landskron":{"countryName":"Austria","stateName":"Carinthia","name":"Landskron","lat":46.61667,"lon":13.88333,"geocoding":{},"distantMaxMiles":5},"Launsdorf":{"countryName":"Austria","stateName":"Carinthia","name":"Launsdorf","lat":46.77056,"lon":14.45194,"geocoding":{},"distantMaxMiles":5},"Lavamünd":{"countryName":"Austria","stateName":"Carinthia","name":"Lavamünd","lat":46.64019,"lon":14.94733,"geocoding":{},"distantMaxMiles":5},"Ledenitzen":{"countryName":"Austria","stateName":"Carinthia","name":"Ledenitzen","lat":46.56639,"lon":13.96139,"geocoding":{},"distantMaxMiles":5},"Lendorf":{"countryName":"Austria","stateName":"Carinthia","name":"Lendorf","lat":46.83528,"lon":13.43028,"geocoding":{},"distantMaxMiles":5},"Leppen":{"countryName":"Austria","stateName":"Carinthia","name":"Leppen","lat":46.48333,"lon":14.63333,"geocoding":{},"distantMaxMiles":5},"Lesachtal":{"countryName":"Austria","stateName":"Carinthia","name":"Lesachtal","lat":46.69388889,"lon":12.81583333,"geocoding":{},"distantMaxMiles":5},"Liebenfels":{"countryName":"Austria","stateName":"Carinthia","name":"Liebenfels","lat":46.73778,"lon":14.28667,"geocoding":{},"distantMaxMiles":5},"Lind":{"countryName":"Austria","stateName":"Carinthia","name":"Lind","lat":46.62244,"lon":13.84715,"geocoding":{},"distantMaxMiles":5},"Lobersberg":{"countryName":"Austria","stateName":"Carinthia","name":"Lobersberg","lat":46.865,"lon":12.91111111,"geocoding":{},"distantMaxMiles":5},"Ludmannsdorf":{"countryName":"Austria","stateName":"Carinthia","name":"Ludmannsdorf","lat":46.54139,"lon":14.13425,"geocoding":{},"distantMaxMiles":5},"Lurnfeld":{"countryName":"Austria","stateName":"Carinthia","name":"Lurnfeld","lat":46.83333333,"lon":13.36666667,"geocoding":{},"distantMaxMiles":5},"Magdalensberg":{"countryName":"Austria","stateName":"Carinthia","name":"Magdalensberg","lat":46.70111111,"lon":14.43111111,"geocoding":{},"distantMaxMiles":5},"Mallnitz":{"countryName":"Austria","stateName":"Carinthia","name":"Mallnitz","lat":46.98972222,"lon":13.17,"geocoding":{},"distantMaxMiles":5},"Malta":{"countryName":"Austria","stateName":"Carinthia","name":"Malta","lat":46.96666667,"lon":13.51666667,"geocoding":{},"distantMaxMiles":5},"Maria Rain":{"countryName":"Austria","stateName":"Carinthia","name":"Maria Rain","lat":46.55389,"lon":14.29556,"geocoding":{},"distantMaxMiles":5},"Maria Saal":{"countryName":"Austria","stateName":"Carinthia","name":"Maria Saal","lat":46.68083,"lon":14.34861,"geocoding":{},"distantMaxMiles":5},"Maria Wörth":{"countryName":"Austria","stateName":"Carinthia","name":"Maria Wörth","lat":46.61639,"lon":14.16306,"geocoding":{},"distantMaxMiles":5},"Mautbrücken":{"countryName":"Austria","stateName":"Carinthia","name":"Mautbrücken","lat":46.72037,"lon":14.19399,"geocoding":{},"distantMaxMiles":5},"Metnitz":{"countryName":"Austria","stateName":"Carinthia","name":"Metnitz","lat":46.98056,"lon":14.21667,"geocoding":{},"distantMaxMiles":5},"Micheldorf":{"countryName":"Austria","stateName":"Carinthia","name":"Micheldorf","lat":46.91667,"lon":14.41667,"geocoding":{},"distantMaxMiles":5},"Millstatt":{"countryName":"Austria","stateName":"Carinthia","name":"Millstatt","lat":46.80417,"lon":13.58056,"geocoding":{},"distantMaxMiles":5},"Moosburg":{"countryName":"Austria","stateName":"Carinthia","name":"Moosburg","lat":46.6575,"lon":14.17472,"geocoding":{},"distantMaxMiles":5},"Mölbling":{"countryName":"Austria","stateName":"Carinthia","name":"Mölbling","lat":46.85,"lon":14.43333,"geocoding":{},"distantMaxMiles":5},"Möllbrücke":{"countryName":"Austria","stateName":"Carinthia","name":"Möllbrücke","lat":46.83639,"lon":13.37278,"geocoding":{},"distantMaxMiles":5},"Mörtschach":{"countryName":"Austria","stateName":"Carinthia","name":"Mörtschach","lat":46.92389,"lon":12.91778,"geocoding":{},"distantMaxMiles":5},"Mühldorf":{"countryName":"Austria","stateName":"Carinthia","name":"Mühldorf","lat":46.86028,"lon":13.35361,"geocoding":{},"distantMaxMiles":5},"Neu-Feffernitz":{"countryName":"Austria","stateName":"Carinthia","name":"Neu-Feffernitz","lat":46.68772,"lon":13.67914,"geocoding":{},"distantMaxMiles":5},"Neuhaus":{"countryName":"Austria","stateName":"Carinthia","name":"Neuhaus","lat":46.63333,"lon":14.88333,"geocoding":{},"distantMaxMiles":5},"Niederdorf":{"countryName":"Austria","stateName":"Carinthia","name":"Niederdorf","lat":46.61667,"lon":14.4,"geocoding":{},"distantMaxMiles":5},"Nötsch im Gailtal":{"countryName":"Austria","stateName":"Carinthia","name":"Nötsch im Gailtal","lat":46.59,"lon":13.62277778,"geocoding":{},"distantMaxMiles":5},"Oberdrauburg":{"countryName":"Austria","stateName":"Carinthia","name":"Oberdrauburg","lat":46.74306,"lon":12.97028,"geocoding":{},"distantMaxMiles":5},"Oberdörfl":{"countryName":"Austria","stateName":"Carinthia","name":"Oberdörfl","lat":46.55528,"lon":14.10806,"geocoding":{},"distantMaxMiles":5},"Obermillstatt":{"countryName":"Austria","stateName":"Carinthia","name":"Obermillstatt","lat":46.8106,"lon":13.5908,"geocoding":{},"distantMaxMiles":5},"Obervellach":{"countryName":"Austria","stateName":"Carinthia","name":"Obervellach","lat":46.93667,"lon":13.20417,"geocoding":{},"distantMaxMiles":5},"Ossiach":{"countryName":"Austria","stateName":"Carinthia","name":"Ossiach","lat":46.67435,"lon":13.98358,"geocoding":{},"distantMaxMiles":5},"Paternion":{"countryName":"Austria","stateName":"Carinthia","name":"Paternion","lat":46.71417,"lon":13.63611,"geocoding":{},"distantMaxMiles":5},"Pischeldorf":{"countryName":"Austria","stateName":"Carinthia","name":"Pischeldorf","lat":46.68333,"lon":14.45,"geocoding":{},"distantMaxMiles":5},"Poggersdorf":{"countryName":"Austria","stateName":"Carinthia","name":"Poggersdorf","lat":46.65,"lon":14.45,"geocoding":{},"distantMaxMiles":5},"Preitenegg":{"countryName":"Austria","stateName":"Carinthia","name":"Preitenegg","lat":46.94,"lon":14.92583,"geocoding":{},"distantMaxMiles":5},"Priel":{"countryName":"Austria","stateName":"Carinthia","name":"Priel","lat":46.82758,"lon":14.8333,"geocoding":{},"distantMaxMiles":5},"Pusarnitz":{"countryName":"Austria","stateName":"Carinthia","name":"Pusarnitz","lat":46.83333,"lon":13.4,"geocoding":{},"distantMaxMiles":5},"Pöckau":{"countryName":"Austria","stateName":"Carinthia","name":"Pöckau","lat":46.55,"lon":13.7333,"geocoding":{},"distantMaxMiles":5},"Pörtschach am Wörthersee":{"countryName":"Austria","stateName":"Carinthia","name":"Pörtschach am Wörthersee","lat":46.63639,"lon":14.14639,"geocoding":{},"distantMaxMiles":5},"Radenthein":{"countryName":"Austria","stateName":"Carinthia","name":"Radenthein","lat":46.80056,"lon":13.71167,"geocoding":{},"distantMaxMiles":5},"Rain":{"countryName":"Austria","stateName":"Carinthia","name":"Rain","lat":46.60528,"lon":14.38611,"geocoding":{},"distantMaxMiles":5},"Rangersdorf":{"countryName":"Austria","stateName":"Carinthia","name":"Rangersdorf","lat":46.86001,"lon":12.94923,"geocoding":{},"distantMaxMiles":5},"Reding":{"countryName":"Austria","stateName":"Carinthia","name":"Reding","lat":46.81667,"lon":14.85,"geocoding":{},"distantMaxMiles":5},"Reichenau":{"countryName":"Austria","stateName":"Carinthia","name":"Reichenau","lat":46.85416667,"lon":13.89305556,"geocoding":{},"distantMaxMiles":5},"Reichenfels":{"countryName":"Austria","stateName":"Carinthia","name":"Reichenfels","lat":47.00718,"lon":14.74425,"geocoding":{},"distantMaxMiles":5},"Reißeck":{"countryName":"Austria","stateName":"Carinthia","name":"Reißeck","lat":46.87694444,"lon":13.30555556,"geocoding":{},"distantMaxMiles":5},"Rennweg am Katschberg":{"countryName":"Austria","stateName":"Carinthia","name":"Rennweg am Katschberg","lat":47.01667,"lon":13.61667,"geocoding":{},"distantMaxMiles":5},"Rittersdorf":{"countryName":"Austria","stateName":"Carinthia","name":"Rittersdorf","lat":46.75111,"lon":13.03444,"geocoding":{},"distantMaxMiles":5},"Rosegg":{"countryName":"Austria","stateName":"Carinthia","name":"Rosegg","lat":46.58833,"lon":14.01718,"geocoding":{},"distantMaxMiles":5},"Ruden":{"countryName":"Austria","stateName":"Carinthia","name":"Ruden","lat":46.65833,"lon":14.77639,"geocoding":{},"distantMaxMiles":5},"Sachsenburg":{"countryName":"Austria","stateName":"Carinthia","name":"Sachsenburg","lat":46.82917,"lon":13.355,"geocoding":{},"distantMaxMiles":5},"Sankt Andrä":{"countryName":"Austria","stateName":"Carinthia","name":"Sankt Andrä","lat":46.76829,"lon":14.81991,"geocoding":{},"distantMaxMiles":5},"Sankt Egyden an der Drau":{"countryName":"Austria","stateName":"Carinthia","name":"Sankt Egyden an der Drau","lat":46.57722,"lon":14.06167,"geocoding":{},"distantMaxMiles":5},"Sankt Georgen am Längsee":{"countryName":"Austria","stateName":"Carinthia","name":"Sankt Georgen am Längsee","lat":46.78061,"lon":14.43033,"geocoding":{},"distantMaxMiles":5},"Sankt Georgen im Lavanttal":{"countryName":"Austria","stateName":"Carinthia","name":"Sankt Georgen im Lavanttal","lat":46.71666667,"lon":14.91666667,"geocoding":{},"distantMaxMiles":5},"Sankt Jakob":{"countryName":"Austria","stateName":"Carinthia","name":"Sankt Jakob","lat":46.54777778,"lon":14.05722222,"geocoding":{},"distantMaxMiles":5},"Sankt Jakob im Rosental":{"countryName":"Austria","stateName":"Carinthia","name":"Sankt Jakob im Rosental","lat":46.54777778,"lon":14.05722222,"geocoding":{},"distantMaxMiles":5},"Sankt Kanzian am Klopeiner See":{"countryName":"Austria","stateName":"Carinthia","name":"Sankt Kanzian am Klopeiner See","lat":46.61444444,"lon":14.57583333,"geocoding":{},"distantMaxMiles":5},"Sankt Leonhard":{"countryName":"Austria","stateName":"Carinthia","name":"Sankt Leonhard","lat":46.62528,"lon":13.85865,"geocoding":{},"distantMaxMiles":5},"Sankt Magdalen":{"countryName":"Austria","stateName":"Carinthia","name":"Sankt Magdalen","lat":46.61667,"lon":13.88333,"geocoding":{},"distantMaxMiles":5},"Sankt Margareten im Rosental":{"countryName":"Austria","stateName":"Carinthia","name":"Sankt Margareten im Rosental","lat":46.54417,"lon":14.42444,"geocoding":{},"distantMaxMiles":5},"Sankt Martin":{"countryName":"Austria","stateName":"Carinthia","name":"Sankt Martin","lat":46.61667,"lon":14.28333,"geocoding":{},"distantMaxMiles":5},"Sankt Paul im Lavanttal":{"countryName":"Austria","stateName":"Carinthia","name":"Sankt Paul im Lavanttal","lat":46.70056,"lon":14.87556,"geocoding":{},"distantMaxMiles":5},"Sankt Peter":{"countryName":"Austria","stateName":"Carinthia","name":"Sankt Peter","lat":46.62978,"lon":14.34016,"geocoding":{},"distantMaxMiles":5},"Sankt Ruprecht":{"countryName":"Austria","stateName":"Carinthia","name":"Sankt Ruprecht","lat":46.6,"lon":14.31667,"geocoding":{},"distantMaxMiles":5},"Sankt Stefan":{"countryName":"Austria","stateName":"Carinthia","name":"Sankt Stefan","lat":46.8075,"lon":14.85167,"geocoding":{},"distantMaxMiles":5},"Sankt Stefan im Gailtal":{"countryName":"Austria","stateName":"Carinthia","name":"Sankt Stefan im Gailtal","lat":46.61666667,"lon":13.51666667,"geocoding":{},"distantMaxMiles":5},"Sankt Urban":{"countryName":"Austria","stateName":"Carinthia","name":"Sankt Urban","lat":46.75027778,"lon":14.16916667,"geocoding":{},"distantMaxMiles":5},"Sankt Veit an der Glan":{"countryName":"Austria","stateName":"Carinthia","name":"Sankt Veit an der Glan","lat":46.76806,"lon":14.36028,"geocoding":{},"distantMaxMiles":5},"Sankt Veit an der Glan District":{"countryName":"Austria","stateName":"Carinthia","name":"Sankt Veit an der Glan District","lat":46.83333,"lon":14.4,"geocoding":{},"distantMaxMiles":5},"Schiefling am See":{"countryName":"Austria","stateName":"Carinthia","name":"Schiefling am See","lat":46.60444,"lon":14.0975,"geocoding":{},"distantMaxMiles":5},"Schleben":{"countryName":"Austria","stateName":"Carinthia","name":"Schleben","lat":46.62039,"lon":13.93301,"geocoding":{},"distantMaxMiles":5},"Seebach":{"countryName":"Austria","stateName":"Carinthia","name":"Seebach","lat":46.61667,"lon":13.86667,"geocoding":{},"distantMaxMiles":5},"Seeboden":{"countryName":"Austria","stateName":"Carinthia","name":"Seeboden","lat":46.81909,"lon":13.5143,"geocoding":{},"distantMaxMiles":5},"Seitenberg":{"countryName":"Austria","stateName":"Carinthia","name":"Seitenberg","lat":46.74801,"lon":14.08825,"geocoding":{},"distantMaxMiles":5},"Sirnitz":{"countryName":"Austria","stateName":"Carinthia","name":"Sirnitz","lat":46.82361,"lon":14.05944,"geocoding":{},"distantMaxMiles":5},"Sittersdorf":{"countryName":"Austria","stateName":"Carinthia","name":"Sittersdorf","lat":46.54444,"lon":14.60583,"geocoding":{},"distantMaxMiles":5},"Spittal an der Drau":{"countryName":"Austria","stateName":"Carinthia","name":"Spittal an der Drau","lat":46.8,"lon":13.5,"geocoding":{},"distantMaxMiles":5},"Spittal an der Drau District":{"countryName":"Austria","stateName":"Carinthia","name":"Spittal an der Drau District","lat":46.85,"lon":13.33333,"geocoding":{},"distantMaxMiles":5},"St. Agathen und Perau":{"countryName":"Austria","stateName":"Carinthia","name":"St. Agathen und Perau","lat":46.60627,"lon":13.85615,"geocoding":{},"distantMaxMiles":5},"St. Andrä":{"countryName":"Austria","stateName":"Carinthia","name":"St. Andrä","lat":46.76473,"lon":14.82442,"geocoding":{},"distantMaxMiles":5},"St. Margareten im Rosental":{"countryName":"Austria","stateName":"Carinthia","name":"St. Margareten im Rosental","lat":46.52498,"lon":14.416,"geocoding":{},"distantMaxMiles":5},"St. Paul im Lavanttal":{"countryName":"Austria","stateName":"Carinthia","name":"St. Paul im Lavanttal","lat":46.69869,"lon":14.84877,"geocoding":{},"distantMaxMiles":5},"St. Stefan im Gailtal":{"countryName":"Austria","stateName":"Carinthia","name":"St. Stefan im Gailtal","lat":46.60796,"lon":13.50973,"geocoding":{},"distantMaxMiles":5},"St. Urban":{"countryName":"Austria","stateName":"Carinthia","name":"St. Urban","lat":46.76128,"lon":14.16658,"geocoding":{},"distantMaxMiles":5},"St. Veit an der Glan":{"countryName":"Austria","stateName":"Carinthia","name":"St. Veit an der Glan","lat":46.73536,"lon":14.35404,"geocoding":{},"distantMaxMiles":5},"St. Veiter Vorstadt":{"countryName":"Austria","stateName":"Carinthia","name":"St. Veiter Vorstadt","lat":46.6317,"lon":14.30579,"geocoding":{},"distantMaxMiles":5},"Stall":{"countryName":"Austria","stateName":"Carinthia","name":"Stall","lat":46.89056,"lon":13.03694,"geocoding":{},"distantMaxMiles":5},"Steindorf am Ossiacher See":{"countryName":"Austria","stateName":"Carinthia","name":"Steindorf am Ossiacher See","lat":46.69833,"lon":14.00917,"geocoding":{},"distantMaxMiles":5},"Steinfeld":{"countryName":"Austria","stateName":"Carinthia","name":"Steinfeld","lat":46.75812,"lon":13.24934,"geocoding":{},"distantMaxMiles":5},"Steuerberg":{"countryName":"Austria","stateName":"Carinthia","name":"Steuerberg","lat":46.78804,"lon":14.1129,"geocoding":{},"distantMaxMiles":5},"Stockenboi":{"countryName":"Austria","stateName":"Carinthia","name":"Stockenboi","lat":46.72611,"lon":13.52306,"geocoding":{},"distantMaxMiles":5},"Straßburg":{"countryName":"Austria","stateName":"Carinthia","name":"Straßburg","lat":46.89555556,"lon":14.33083333,"geocoding":{},"distantMaxMiles":5},"Straßburg-Stadt":{"countryName":"Austria","stateName":"Carinthia","name":"Straßburg-Stadt","lat":46.89444,"lon":14.32861,"geocoding":{},"distantMaxMiles":5},"Suetschach":{"countryName":"Austria","stateName":"Carinthia","name":"Suetschach","lat":46.52694444,"lon":14.15638889,"geocoding":{},"distantMaxMiles":5},"Techelsberg":{"countryName":"Austria","stateName":"Carinthia","name":"Techelsberg","lat":46.65861111,"lon":14.10194444,"geocoding":{},"distantMaxMiles":5},"Timenitz":{"countryName":"Austria","stateName":"Carinthia","name":"Timenitz","lat":46.68333,"lon":14.41667,"geocoding":{},"distantMaxMiles":5},"Trebesing":{"countryName":"Austria","stateName":"Carinthia","name":"Trebesing","lat":46.88639,"lon":13.51028,"geocoding":{},"distantMaxMiles":5},"Treffen":{"countryName":"Austria","stateName":"Carinthia","name":"Treffen","lat":46.66833333,"lon":13.85555556,"geocoding":{},"distantMaxMiles":5},"Treibach":{"countryName":"Austria","stateName":"Carinthia","name":"Treibach","lat":46.86667,"lon":14.46667,"geocoding":{},"distantMaxMiles":5},"Tschachoritsch":{"countryName":"Austria","stateName":"Carinthia","name":"Tschachoritsch","lat":46.55352,"lon":14.21461,"geocoding":{},"distantMaxMiles":5},"Umberg":{"countryName":"Austria","stateName":"Carinthia","name":"Umberg","lat":46.64833,"lon":13.9575,"geocoding":{},"distantMaxMiles":5},"Untere Fellach":{"countryName":"Austria","stateName":"Carinthia","name":"Untere Fellach","lat":46.62504,"lon":13.82681,"geocoding":{},"distantMaxMiles":5},"Velden am Wörther See":{"countryName":"Austria","stateName":"Carinthia","name":"Velden am Wörther See","lat":46.6125,"lon":14.04194444,"geocoding":{},"distantMaxMiles":5},"Velden am Wörthersee":{"countryName":"Austria","stateName":"Carinthia","name":"Velden am Wörthersee","lat":46.61301,"lon":14.0413,"geocoding":{},"distantMaxMiles":5},"Viktring":{"countryName":"Austria","stateName":"Carinthia","name":"Viktring","lat":46.59194,"lon":14.26917,"geocoding":{},"distantMaxMiles":5},"Viktringer Vorstadt":{"countryName":"Austria","stateName":"Carinthia","name":"Viktringer Vorstadt","lat":46.61773,"lon":14.30931,"geocoding":{},"distantMaxMiles":5},"Villach":{"countryName":"Austria","stateName":"Carinthia","name":"Villach","lat":46.61028,"lon":13.85583,"geocoding":{},"distantMaxMiles":5},"Villach-Innere Stadt":{"countryName":"Austria","stateName":"Carinthia","name":"Villach-Innere Stadt","lat":46.61275,"lon":13.84638,"geocoding":{},"distantMaxMiles":5},"Villach-Land District":{"countryName":"Austria","stateName":"Carinthia","name":"Villach-Land District","lat":46.65308,"lon":13.77287,"geocoding":{},"distantMaxMiles":5},"Villacher Vorstadt":{"countryName":"Austria","stateName":"Carinthia","name":"Villacher Vorstadt","lat":46.62368,"lon":14.28892,"geocoding":{},"distantMaxMiles":5},"Völkendorf":{"countryName":"Austria","stateName":"Carinthia","name":"Völkendorf","lat":46.60806,"lon":13.83153,"geocoding":{},"distantMaxMiles":5},"Völkermarkt":{"countryName":"Austria","stateName":"Carinthia","name":"Völkermarkt","lat":46.66222,"lon":14.63444,"geocoding":{},"distantMaxMiles":5},"Völkermarkt District":{"countryName":"Austria","stateName":"Carinthia","name":"Völkermarkt District","lat":46.59641,"lon":14.66664,"geocoding":{},"distantMaxMiles":5},"Völkermarkter Vorstadt":{"countryName":"Austria","stateName":"Carinthia","name":"Völkermarkter Vorstadt","lat":46.62418,"lon":14.32081,"geocoding":{},"distantMaxMiles":5},"Waiern":{"countryName":"Austria","stateName":"Carinthia","name":"Waiern","lat":46.73028,"lon":14.08194,"geocoding":{},"distantMaxMiles":5},"Warmbad-Judendorf":{"countryName":"Austria","stateName":"Carinthia","name":"Warmbad-Judendorf","lat":46.60126,"lon":13.82241,"geocoding":{},"distantMaxMiles":5},"Weitensfeld":{"countryName":"Austria","stateName":"Carinthia","name":"Weitensfeld","lat":46.84743,"lon":14.19213,"geocoding":{},"distantMaxMiles":5},"Weitensfeld im Gurktal":{"countryName":"Austria","stateName":"Carinthia","name":"Weitensfeld im Gurktal","lat":46.84861111,"lon":14.19166667,"geocoding":{},"distantMaxMiles":5},"Weißensee":{"countryName":"Austria","stateName":"Carinthia","name":"Weißensee","lat":46.71666667,"lon":13.3,"geocoding":{},"distantMaxMiles":5},"Weißenstein":{"countryName":"Austria","stateName":"Carinthia","name":"Weißenstein","lat":46.68222222,"lon":13.72361111,"geocoding":{},"distantMaxMiles":5},"Wernberg":{"countryName":"Austria","stateName":"Carinthia","name":"Wernberg","lat":46.61667,"lon":13.93333,"geocoding":{},"distantMaxMiles":5},"Winklern":{"countryName":"Austria","stateName":"Carinthia","name":"Winklern","lat":46.87361,"lon":12.87472,"geocoding":{},"distantMaxMiles":5},"Wolfsberg":{"countryName":"Austria","stateName":"Carinthia","name":"Wolfsberg","lat":46.84056,"lon":14.84417,"geocoding":{},"distantMaxMiles":5},"Wolfsberg District":{"countryName":"Austria","stateName":"Carinthia","name":"Wolfsberg District","lat":46.83333,"lon":14.83333,"geocoding":{},"distantMaxMiles":5},"Wudmath":{"countryName":"Austria","stateName":"Carinthia","name":"Wudmath","lat":46.59634,"lon":13.98067,"geocoding":{},"distantMaxMiles":5},"Wölfnitz":{"countryName":"Austria","stateName":"Carinthia","name":"Wölfnitz","lat":46.66639,"lon":14.25806,"geocoding":{},"distantMaxMiles":5},"Zell":{"countryName":"Austria","stateName":"Carinthia","name":"Zell","lat":46.47222222,"lon":14.38888889,"geocoding":{},"distantMaxMiles":5}}},"Lower Austria":{"countryName":"Austria","name":"Lower Austria","isoCode":"3","lat":48.108077,"lon":15.8049558,"geocoding":{},"distantMaxMiles":5,"cities":{"Absdorf":{"countryName":"Austria","stateName":"Lower Austria","name":"Absdorf","lat":48.40021,"lon":15.97874,"geocoding":{},"distantMaxMiles":5},"Achau":{"countryName":"Austria","stateName":"Lower Austria","name":"Achau","lat":48.08026,"lon":16.38611,"geocoding":{},"distantMaxMiles":5},"Aderklaa":{"countryName":"Austria","stateName":"Lower Austria","name":"Aderklaa","lat":48.28333,"lon":16.53333,"geocoding":{},"distantMaxMiles":5},"Aggsbach":{"countryName":"Austria","stateName":"Lower Austria","name":"Aggsbach","lat":48.29404,"lon":15.40382,"geocoding":{},"distantMaxMiles":5},"Alland":{"countryName":"Austria","stateName":"Lower Austria","name":"Alland","lat":48.05829,"lon":16.07901,"geocoding":{},"distantMaxMiles":5},"Allentsteig":{"countryName":"Austria","stateName":"Lower Austria","name":"Allentsteig","lat":48.69725,"lon":15.32756,"geocoding":{},"distantMaxMiles":5},"Allhartsberg":{"countryName":"Austria","stateName":"Lower Austria","name":"Allhartsberg","lat":48.02633,"lon":14.79009,"geocoding":{},"distantMaxMiles":5},"Altenburg":{"countryName":"Austria","stateName":"Lower Austria","name":"Altenburg","lat":48.64765,"lon":15.59295,"geocoding":{},"distantMaxMiles":5},"Altendorf":{"countryName":"Austria","stateName":"Lower Austria","name":"Altendorf","lat":47.65,"lon":16.01667,"geocoding":{},"distantMaxMiles":5},"Altenmarkt an der Triesting":{"countryName":"Austria","stateName":"Lower Austria","name":"Altenmarkt an der Triesting","lat":48.01553,"lon":15.99661,"geocoding":{},"distantMaxMiles":5},"Altlengbach":{"countryName":"Austria","stateName":"Lower Austria","name":"Altlengbach","lat":48.15355,"lon":15.92606,"geocoding":{},"distantMaxMiles":5},"Altlichtenwarth":{"countryName":"Austria","stateName":"Lower Austria","name":"Altlichtenwarth","lat":48.64442,"lon":16.79664,"geocoding":{},"distantMaxMiles":5},"Altmelon":{"countryName":"Austria","stateName":"Lower Austria","name":"Altmelon","lat":48.46222,"lon":14.96552,"geocoding":{},"distantMaxMiles":5},"Amstetten":{"countryName":"Austria","stateName":"Lower Austria","name":"Amstetten","lat":48.1229,"lon":14.87206,"geocoding":{},"distantMaxMiles":5},"Andlersdorf":{"countryName":"Austria","stateName":"Lower Austria","name":"Andlersdorf","lat":48.18333,"lon":16.66667,"geocoding":{},"distantMaxMiles":5},"Angern an der March":{"countryName":"Austria","stateName":"Lower Austria","name":"Angern an der March","lat":48.37778,"lon":16.82806,"geocoding":{},"distantMaxMiles":5},"Arbesbach":{"countryName":"Austria","stateName":"Lower Austria","name":"Arbesbach","lat":48.49337,"lon":14.95308,"geocoding":{},"distantMaxMiles":5},"Ardagger Stift":{"countryName":"Austria","stateName":"Lower Austria","name":"Ardagger Stift","lat":48.15,"lon":14.83333,"geocoding":{},"distantMaxMiles":5},"Aschbach Markt":{"countryName":"Austria","stateName":"Lower Austria","name":"Aschbach Markt","lat":48.07234,"lon":14.75395,"geocoding":{},"distantMaxMiles":5},"Aspang Markt":{"countryName":"Austria","stateName":"Lower Austria","name":"Aspang Markt","lat":47.55,"lon":16.08333,"geocoding":{},"distantMaxMiles":5},"Asparn an der Zaya":{"countryName":"Austria","stateName":"Lower Austria","name":"Asparn an der Zaya","lat":48.58333,"lon":16.5,"geocoding":{},"distantMaxMiles":5},"Asperhofen":{"countryName":"Austria","stateName":"Lower Austria","name":"Asperhofen","lat":48.24583,"lon":15.92606,"geocoding":{},"distantMaxMiles":5},"Atzenbrugg":{"countryName":"Austria","stateName":"Lower Austria","name":"Atzenbrugg","lat":48.29119,"lon":15.90614,"geocoding":{},"distantMaxMiles":5},"Au am Leithaberge":{"countryName":"Austria","stateName":"Lower Austria","name":"Au am Leithaberge","lat":47.92296,"lon":16.55794,"geocoding":{},"distantMaxMiles":5},"Auersthal":{"countryName":"Austria","stateName":"Lower Austria","name":"Auersthal","lat":48.37373,"lon":16.63596,"geocoding":{},"distantMaxMiles":5},"Bad Deutsch-Altenburg":{"countryName":"Austria","stateName":"Lower Austria","name":"Bad Deutsch-Altenburg","lat":48.13425,"lon":16.90624,"geocoding":{},"distantMaxMiles":5},"Bad Erlach":{"countryName":"Austria","stateName":"Lower Austria","name":"Bad Erlach","lat":47.72722,"lon":16.21444,"geocoding":{},"distantMaxMiles":5},"Bad Fischau":{"countryName":"Austria","stateName":"Lower Austria","name":"Bad Fischau","lat":47.83137,"lon":16.16707,"geocoding":{},"distantMaxMiles":5},"Bad Pirawarth":{"countryName":"Austria","stateName":"Lower Austria","name":"Bad Pirawarth","lat":48.45194,"lon":16.59833,"geocoding":{},"distantMaxMiles":5},"Bad Schönau":{"countryName":"Austria","stateName":"Lower Austria","name":"Bad Schönau","lat":47.49473,"lon":16.2341,"geocoding":{},"distantMaxMiles":5},"Bad Traunstein":{"countryName":"Austria","stateName":"Lower Austria","name":"Bad Traunstein","lat":48.4385,"lon":15.11712,"geocoding":{},"distantMaxMiles":5},"Bad Vöslau":{"countryName":"Austria","stateName":"Lower Austria","name":"Bad Vöslau","lat":47.96533,"lon":16.21359,"geocoding":{},"distantMaxMiles":5},"Baden":{"countryName":"Austria","stateName":"Lower Austria","name":"Baden","lat":48.00543,"lon":16.23264,"geocoding":{},"distantMaxMiles":5},"Behamberg":{"countryName":"Austria","stateName":"Lower Austria","name":"Behamberg","lat":48.01667,"lon":14.48333,"geocoding":{},"distantMaxMiles":5},"Berg":{"countryName":"Austria","stateName":"Lower Austria","name":"Berg","lat":48.10147,"lon":17.03842,"geocoding":{},"distantMaxMiles":5},"Bergland":{"countryName":"Austria","stateName":"Lower Austria","name":"Bergland","lat":48.15595,"lon":15.18553,"geocoding":{},"distantMaxMiles":5},"Berndorf":{"countryName":"Austria","stateName":"Lower Austria","name":"Berndorf","lat":47.94567,"lon":16.10973,"geocoding":{},"distantMaxMiles":5},"Bernhardsthal":{"countryName":"Austria","stateName":"Lower Austria","name":"Bernhardsthal","lat":48.69158,"lon":16.86951,"geocoding":{},"distantMaxMiles":5},"Biberbach":{"countryName":"Austria","stateName":"Lower Austria","name":"Biberbach","lat":48.03006,"lon":14.70795,"geocoding":{},"distantMaxMiles":5},"Biedermannsdorf":{"countryName":"Austria","stateName":"Lower Austria","name":"Biedermannsdorf","lat":48.08393,"lon":16.34542,"geocoding":{},"distantMaxMiles":5},"Bisamberg":{"countryName":"Austria","stateName":"Lower Austria","name":"Bisamberg","lat":48.33333,"lon":16.35,"geocoding":{},"distantMaxMiles":5},"Bischofstetten":{"countryName":"Austria","stateName":"Lower Austria","name":"Bischofstetten","lat":48.12222,"lon":15.46909,"geocoding":{},"distantMaxMiles":5},"Blindenmarkt":{"countryName":"Austria","stateName":"Lower Austria","name":"Blindenmarkt","lat":48.12749,"lon":14.98647,"geocoding":{},"distantMaxMiles":5},"Bockfließ":{"countryName":"Austria","stateName":"Lower Austria","name":"Bockfließ","lat":48.36,"lon":16.60389,"geocoding":{},"distantMaxMiles":5},"Breitenau":{"countryName":"Austria","stateName":"Lower Austria","name":"Breitenau","lat":47.73355,"lon":16.14338,"geocoding":{},"distantMaxMiles":5},"Breitenfurt bei Wien":{"countryName":"Austria","stateName":"Lower Austria","name":"Breitenfurt bei Wien","lat":48.13333,"lon":16.15,"geocoding":{},"distantMaxMiles":5},"Bromberg":{"countryName":"Austria","stateName":"Lower Austria","name":"Bromberg","lat":47.66539,"lon":16.2099,"geocoding":{},"distantMaxMiles":5},"Bruck an der Leitha":{"countryName":"Austria","stateName":"Lower Austria","name":"Bruck an der Leitha","lat":48.01667,"lon":16.76667,"geocoding":{},"distantMaxMiles":5},"Brunn am Gebirge":{"countryName":"Austria","stateName":"Lower Austria","name":"Brunn am Gebirge","lat":48.10697,"lon":16.28466,"geocoding":{},"distantMaxMiles":5},"Brunn an der Schneebergbahn":{"countryName":"Austria","stateName":"Lower Austria","name":"Brunn an der Schneebergbahn","lat":47.82376,"lon":16.15934,"geocoding":{},"distantMaxMiles":5},"Brunn an der Wild":{"countryName":"Austria","stateName":"Lower Austria","name":"Brunn an der Wild","lat":48.69425,"lon":15.52008,"geocoding":{},"distantMaxMiles":5},"Buchbach":{"countryName":"Austria","stateName":"Lower Austria","name":"Buchbach","lat":47.69648,"lon":15.98425,"geocoding":{},"distantMaxMiles":5},"Bärnkopf":{"countryName":"Austria","stateName":"Lower Austria","name":"Bärnkopf","lat":48.39046,"lon":15.00479,"geocoding":{},"distantMaxMiles":5},"Böheimkirchen":{"countryName":"Austria","stateName":"Lower Austria","name":"Böheimkirchen","lat":48.19779,"lon":15.76178,"geocoding":{},"distantMaxMiles":5},"Deutsch-Wagram":{"countryName":"Austria","stateName":"Lower Austria","name":"Deutsch-Wagram","lat":48.29972,"lon":16.56667,"geocoding":{},"distantMaxMiles":5},"Dobersberg":{"countryName":"Austria","stateName":"Lower Austria","name":"Dobersberg","lat":48.9151,"lon":15.32188,"geocoding":{},"distantMaxMiles":5},"Dorfstetten":{"countryName":"Austria","stateName":"Lower Austria","name":"Dorfstetten","lat":48.32573,"lon":14.98218,"geocoding":{},"distantMaxMiles":5},"Drasenhofen":{"countryName":"Austria","stateName":"Lower Austria","name":"Drasenhofen","lat":48.75,"lon":16.65,"geocoding":{},"distantMaxMiles":5},"Droß":{"countryName":"Austria","stateName":"Lower Austria","name":"Droß","lat":48.46393,"lon":15.57561,"geocoding":{},"distantMaxMiles":5},"Drösing":{"countryName":"Austria","stateName":"Lower Austria","name":"Drösing","lat":48.539,"lon":16.90264,"geocoding":{},"distantMaxMiles":5},"Dürnkrut":{"countryName":"Austria","stateName":"Lower Austria","name":"Dürnkrut","lat":48.47315,"lon":16.85062,"geocoding":{},"distantMaxMiles":5},"Dürnstein":{"countryName":"Austria","stateName":"Lower Austria","name":"Dürnstein","lat":48.39582,"lon":15.51973,"geocoding":{},"distantMaxMiles":5},"Ebenfurth":{"countryName":"Austria","stateName":"Lower Austria","name":"Ebenfurth","lat":47.87738,"lon":16.36731,"geocoding":{},"distantMaxMiles":5},"Ebenthal":{"countryName":"Austria","stateName":"Lower Austria","name":"Ebenthal","lat":48.43333,"lon":16.78333,"geocoding":{},"distantMaxMiles":5},"Ebergassing":{"countryName":"Austria","stateName":"Lower Austria","name":"Ebergassing","lat":48.04567,"lon":16.51709,"geocoding":{},"distantMaxMiles":5},"Ebreichsdorf":{"countryName":"Austria","stateName":"Lower Austria","name":"Ebreichsdorf","lat":47.95579,"lon":16.40705,"geocoding":{},"distantMaxMiles":5},"Echsenbach":{"countryName":"Austria","stateName":"Lower Austria","name":"Echsenbach","lat":48.71667,"lon":15.21667,"geocoding":{},"distantMaxMiles":5},"Eckartsau":{"countryName":"Austria","stateName":"Lower Austria","name":"Eckartsau","lat":48.14507,"lon":16.79737,"geocoding":{},"distantMaxMiles":5},"Edlitz":{"countryName":"Austria","stateName":"Lower Austria","name":"Edlitz","lat":47.59797,"lon":16.14052,"geocoding":{},"distantMaxMiles":5},"Eggenburg":{"countryName":"Austria","stateName":"Lower Austria","name":"Eggenburg","lat":48.63892,"lon":15.81903,"geocoding":{},"distantMaxMiles":5},"Eggendorf":{"countryName":"Austria","stateName":"Lower Austria","name":"Eggendorf","lat":47.85809,"lon":16.32182,"geocoding":{},"distantMaxMiles":5},"Eggern":{"countryName":"Austria","stateName":"Lower Austria","name":"Eggern","lat":48.90829,"lon":15.14877,"geocoding":{},"distantMaxMiles":5},"Eichgraben":{"countryName":"Austria","stateName":"Lower Austria","name":"Eichgraben","lat":48.17204,"lon":15.98391,"geocoding":{},"distantMaxMiles":5},"Eisgarn":{"countryName":"Austria","stateName":"Lower Austria","name":"Eisgarn","lat":48.91675,"lon":15.1032,"geocoding":{},"distantMaxMiles":5},"Emmersdorf an der Donau":{"countryName":"Austria","stateName":"Lower Austria","name":"Emmersdorf an der Donau","lat":48.2414,"lon":15.33721,"geocoding":{},"distantMaxMiles":5},"Engelhartstetten":{"countryName":"Austria","stateName":"Lower Austria","name":"Engelhartstetten","lat":48.1816,"lon":16.88367,"geocoding":{},"distantMaxMiles":5},"Ennsdorf":{"countryName":"Austria","stateName":"Lower Austria","name":"Ennsdorf","lat":48.21181,"lon":14.5029,"geocoding":{},"distantMaxMiles":5},"Enzenreith":{"countryName":"Austria","stateName":"Lower Austria","name":"Enzenreith","lat":47.66839,"lon":15.95249,"geocoding":{},"distantMaxMiles":5},"Enzersdorf an der Fischa":{"countryName":"Austria","stateName":"Lower Austria","name":"Enzersdorf an der Fischa","lat":48.08502,"lon":16.60832,"geocoding":{},"distantMaxMiles":5},"Enzersfeld":{"countryName":"Austria","stateName":"Lower Austria","name":"Enzersfeld","lat":48.36338,"lon":16.42387,"geocoding":{},"distantMaxMiles":5},"Erlauf":{"countryName":"Austria","stateName":"Lower Austria","name":"Erlauf","lat":48.18333,"lon":15.18333,"geocoding":{},"distantMaxMiles":5},"Ernstbrunn":{"countryName":"Austria","stateName":"Lower Austria","name":"Ernstbrunn","lat":48.53333,"lon":16.35,"geocoding":{},"distantMaxMiles":5},"Ernsthofen":{"countryName":"Austria","stateName":"Lower Austria","name":"Ernsthofen","lat":48.12915,"lon":14.48058,"geocoding":{},"distantMaxMiles":5},"Erpersdorf":{"countryName":"Austria","stateName":"Lower Austria","name":"Erpersdorf","lat":48.3421,"lon":15.91747,"geocoding":{},"distantMaxMiles":5},"Ertl":{"countryName":"Austria","stateName":"Lower Austria","name":"Ertl","lat":47.97704,"lon":14.63134,"geocoding":{},"distantMaxMiles":5},"Eschenau":{"countryName":"Austria","stateName":"Lower Austria","name":"Eschenau","lat":48.04825,"lon":15.56694,"geocoding":{},"distantMaxMiles":5},"Euratsfeld":{"countryName":"Austria","stateName":"Lower Austria","name":"Euratsfeld","lat":48.08181,"lon":14.93154,"geocoding":{},"distantMaxMiles":5},"Falkenstein":{"countryName":"Austria","stateName":"Lower Austria","name":"Falkenstein","lat":48.71667,"lon":16.58333,"geocoding":{},"distantMaxMiles":5},"Fallbach":{"countryName":"Austria","stateName":"Lower Austria","name":"Fallbach","lat":48.65,"lon":16.41667,"geocoding":{},"distantMaxMiles":5},"Feistritz am Wechsel":{"countryName":"Austria","stateName":"Lower Austria","name":"Feistritz am Wechsel","lat":47.6,"lon":16.05,"geocoding":{},"distantMaxMiles":5},"Felixdorf":{"countryName":"Austria","stateName":"Lower Austria","name":"Felixdorf","lat":47.88159,"lon":16.24208,"geocoding":{},"distantMaxMiles":5},"Fels am Wagram":{"countryName":"Austria","stateName":"Lower Austria","name":"Fels am Wagram","lat":48.43333,"lon":15.81667,"geocoding":{},"distantMaxMiles":5},"Ferschnitz":{"countryName":"Austria","stateName":"Lower Austria","name":"Ferschnitz","lat":48.09419,"lon":14.98454,"geocoding":{},"distantMaxMiles":5},"Fischamend-Markt":{"countryName":"Austria","stateName":"Lower Austria","name":"Fischamend-Markt","lat":48.11667,"lon":16.6,"geocoding":{},"distantMaxMiles":5},"Frankenfels":{"countryName":"Austria","stateName":"Lower Austria","name":"Frankenfels","lat":47.98234,"lon":15.32593,"geocoding":{},"distantMaxMiles":5},"Frohsdorf":{"countryName":"Austria","stateName":"Lower Austria","name":"Frohsdorf","lat":47.73333,"lon":16.25,"geocoding":{},"distantMaxMiles":5},"Furth an der Triesting":{"countryName":"Austria","stateName":"Lower Austria","name":"Furth an der Triesting","lat":47.97326,"lon":15.97326,"geocoding":{},"distantMaxMiles":5},"Furth bei Göttweig":{"countryName":"Austria","stateName":"Lower Austria","name":"Furth bei Göttweig","lat":48.37385,"lon":15.61408,"geocoding":{},"distantMaxMiles":5},"Gaaden":{"countryName":"Austria","stateName":"Lower Austria","name":"Gaaden","lat":48.05364,"lon":16.20003,"geocoding":{},"distantMaxMiles":5},"Gablitz":{"countryName":"Austria","stateName":"Lower Austria","name":"Gablitz","lat":48.22856,"lon":16.15437,"geocoding":{},"distantMaxMiles":5},"Gainfarn":{"countryName":"Austria","stateName":"Lower Austria","name":"Gainfarn","lat":47.9628,"lon":16.19368,"geocoding":{},"distantMaxMiles":5},"Gaming":{"countryName":"Austria","stateName":"Lower Austria","name":"Gaming","lat":47.929,"lon":15.08818,"geocoding":{},"distantMaxMiles":5},"Gars am Kamp":{"countryName":"Austria","stateName":"Lower Austria","name":"Gars am Kamp","lat":48.58899,"lon":15.65363,"geocoding":{},"distantMaxMiles":5},"Gastern":{"countryName":"Austria","stateName":"Lower Austria","name":"Gastern","lat":48.89446,"lon":15.22027,"geocoding":{},"distantMaxMiles":5},"Gaubitsch":{"countryName":"Austria","stateName":"Lower Austria","name":"Gaubitsch","lat":48.65,"lon":16.38333,"geocoding":{},"distantMaxMiles":5},"Gaweinstal":{"countryName":"Austria","stateName":"Lower Austria","name":"Gaweinstal","lat":48.48003,"lon":16.5879,"geocoding":{},"distantMaxMiles":5},"Gedersdorf":{"countryName":"Austria","stateName":"Lower Austria","name":"Gedersdorf","lat":48.43319,"lon":15.68865,"geocoding":{},"distantMaxMiles":5},"Geras":{"countryName":"Austria","stateName":"Lower Austria","name":"Geras","lat":48.79725,"lon":15.67268,"geocoding":{},"distantMaxMiles":5},"Gerasdorf bei Wien":{"countryName":"Austria","stateName":"Lower Austria","name":"Gerasdorf bei Wien","lat":48.29447,"lon":16.46765,"geocoding":{},"distantMaxMiles":5},"Gerersdorf":{"countryName":"Austria","stateName":"Lower Austria","name":"Gerersdorf","lat":48.20088,"lon":15.55613,"geocoding":{},"distantMaxMiles":5},"Gerolding":{"countryName":"Austria","stateName":"Lower Austria","name":"Gerolding","lat":48.25,"lon":15.41667,"geocoding":{},"distantMaxMiles":5},"Gföhl":{"countryName":"Austria","stateName":"Lower Austria","name":"Gföhl","lat":48.51667,"lon":15.48333,"geocoding":{},"distantMaxMiles":5},"Gießhübl":{"countryName":"Austria","stateName":"Lower Austria","name":"Gießhübl","lat":48.0978,"lon":16.23479,"geocoding":{},"distantMaxMiles":5},"Glinzendorf":{"countryName":"Austria","stateName":"Lower Austria","name":"Glinzendorf","lat":48.24605,"lon":16.6406,"geocoding":{},"distantMaxMiles":5},"Gloggnitz":{"countryName":"Austria","stateName":"Lower Austria","name":"Gloggnitz","lat":47.67487,"lon":15.93893,"geocoding":{},"distantMaxMiles":5},"Gmünd":{"countryName":"Austria","stateName":"Lower Austria","name":"Gmünd","lat":48.7683,"lon":14.9808,"geocoding":{},"distantMaxMiles":5},"Gnadendorf":{"countryName":"Austria","stateName":"Lower Austria","name":"Gnadendorf","lat":48.61667,"lon":16.4,"geocoding":{},"distantMaxMiles":5},"Gneixendorf":{"countryName":"Austria","stateName":"Lower Austria","name":"Gneixendorf","lat":48.43751,"lon":15.6181,"geocoding":{},"distantMaxMiles":5},"Grafenegg":{"countryName":"Austria","stateName":"Lower Austria","name":"Grafenegg","lat":48.4304,"lon":15.74907,"geocoding":{},"distantMaxMiles":5},"Grafenschlag":{"countryName":"Austria","stateName":"Lower Austria","name":"Grafenschlag","lat":48.5,"lon":15.16667,"geocoding":{},"distantMaxMiles":5},"Grafenwörth":{"countryName":"Austria","stateName":"Lower Austria","name":"Grafenwörth","lat":48.4079,"lon":15.77826,"geocoding":{},"distantMaxMiles":5},"Gramatneusiedl":{"countryName":"Austria","stateName":"Lower Austria","name":"Gramatneusiedl","lat":48.0304,"lon":16.48936,"geocoding":{},"distantMaxMiles":5},"Greinsfurth":{"countryName":"Austria","stateName":"Lower Austria","name":"Greinsfurth","lat":48.10846,"lon":14.8439,"geocoding":{},"distantMaxMiles":5},"Gresten":{"countryName":"Austria","stateName":"Lower Austria","name":"Gresten","lat":47.98521,"lon":15.02552,"geocoding":{},"distantMaxMiles":5},"Grimmenstein":{"countryName":"Austria","stateName":"Lower Austria","name":"Grimmenstein","lat":47.61635,"lon":16.12724,"geocoding":{},"distantMaxMiles":5},"Groß-Engersdorf":{"countryName":"Austria","stateName":"Lower Austria","name":"Groß-Engersdorf","lat":48.35873,"lon":16.5661,"geocoding":{},"distantMaxMiles":5},"Groß-Enzersdorf":{"countryName":"Austria","stateName":"Lower Austria","name":"Groß-Enzersdorf","lat":48.20278,"lon":16.55083,"geocoding":{},"distantMaxMiles":5},"Groß-Gerungs":{"countryName":"Austria","stateName":"Lower Austria","name":"Groß-Gerungs","lat":48.57422,"lon":14.95789,"geocoding":{},"distantMaxMiles":5},"Groß-Schweinbarth":{"countryName":"Austria","stateName":"Lower Austria","name":"Groß-Schweinbarth","lat":48.41472,"lon":16.63194,"geocoding":{},"distantMaxMiles":5},"Groß-Siegharts":{"countryName":"Austria","stateName":"Lower Austria","name":"Groß-Siegharts","lat":48.7918,"lon":15.40429,"geocoding":{},"distantMaxMiles":5},"Großebersdorf":{"countryName":"Austria","stateName":"Lower Austria","name":"Großebersdorf","lat":48.36405,"lon":16.47076,"geocoding":{},"distantMaxMiles":5},"Großharras":{"countryName":"Austria","stateName":"Lower Austria","name":"Großharras","lat":48.66389,"lon":16.24556,"geocoding":{},"distantMaxMiles":5},"Großhofen":{"countryName":"Austria","stateName":"Lower Austria","name":"Großhofen","lat":48.25834,"lon":16.6194,"geocoding":{},"distantMaxMiles":5},"Großkrut":{"countryName":"Austria","stateName":"Lower Austria","name":"Großkrut","lat":48.64389,"lon":16.72361,"geocoding":{},"distantMaxMiles":5},"Großmugl":{"countryName":"Austria","stateName":"Lower Austria","name":"Großmugl","lat":48.49917,"lon":16.23056,"geocoding":{},"distantMaxMiles":5},"Großriedenthal":{"countryName":"Austria","stateName":"Lower Austria","name":"Großriedenthal","lat":48.48333,"lon":15.86667,"geocoding":{},"distantMaxMiles":5},"Großrußbach":{"countryName":"Austria","stateName":"Lower Austria","name":"Großrußbach","lat":48.47412,"lon":16.41649,"geocoding":{},"distantMaxMiles":5},"Großweikersdorf":{"countryName":"Austria","stateName":"Lower Austria","name":"Großweikersdorf","lat":48.47123,"lon":15.98251,"geocoding":{},"distantMaxMiles":5},"Grünbach am Schneeberg":{"countryName":"Austria","stateName":"Lower Austria","name":"Grünbach am Schneeberg","lat":47.79747,"lon":15.98785,"geocoding":{},"distantMaxMiles":5},"Gugging":{"countryName":"Austria","stateName":"Lower Austria","name":"Gugging","lat":48.31385,"lon":16.24852,"geocoding":{},"distantMaxMiles":5},"Gumpoldskirchen":{"countryName":"Austria","stateName":"Lower Austria","name":"Gumpoldskirchen","lat":48.04538,"lon":16.2771,"geocoding":{},"distantMaxMiles":5},"Guntersdorf":{"countryName":"Austria","stateName":"Lower Austria","name":"Guntersdorf","lat":48.65,"lon":16.05,"geocoding":{},"distantMaxMiles":5},"Guntramsdorf":{"countryName":"Austria","stateName":"Lower Austria","name":"Guntramsdorf","lat":48.04687,"lon":16.31384,"geocoding":{},"distantMaxMiles":5},"Gutenbrunn":{"countryName":"Austria","stateName":"Lower Austria","name":"Gutenbrunn","lat":48.3652,"lon":15.11899,"geocoding":{},"distantMaxMiles":5},"Gutenstein":{"countryName":"Austria","stateName":"Lower Austria","name":"Gutenstein","lat":47.876,"lon":15.88881,"geocoding":{},"distantMaxMiles":5},"Gänserndorf":{"countryName":"Austria","stateName":"Lower Austria","name":"Gänserndorf","lat":48.33925,"lon":16.72016,"geocoding":{},"distantMaxMiles":5},"Göllersdorf":{"countryName":"Austria","stateName":"Lower Austria","name":"Göllersdorf","lat":48.49357,"lon":16.11943,"geocoding":{},"distantMaxMiles":5},"Göpfritz an der Wild":{"countryName":"Austria","stateName":"Lower Austria","name":"Göpfritz an der Wild","lat":48.72497,"lon":15.40236,"geocoding":{},"distantMaxMiles":5},"Göstling an der Ybbs":{"countryName":"Austria","stateName":"Lower Austria","name":"Göstling an der Ybbs","lat":47.80664,"lon":14.93797,"geocoding":{},"distantMaxMiles":5},"Götzendorf an der Leitha":{"countryName":"Austria","stateName":"Lower Austria","name":"Götzendorf an der Leitha","lat":48.01667,"lon":16.58333,"geocoding":{},"distantMaxMiles":5},"Günselsdorf":{"countryName":"Austria","stateName":"Lower Austria","name":"Günselsdorf","lat":47.94395,"lon":16.26062,"geocoding":{},"distantMaxMiles":5},"Haag":{"countryName":"Austria","stateName":"Lower Austria","name":"Haag","lat":48.11362,"lon":14.56753,"geocoding":{},"distantMaxMiles":5},"Hadersdorf am Kamp":{"countryName":"Austria","stateName":"Lower Austria","name":"Hadersdorf am Kamp","lat":48.45,"lon":15.71667,"geocoding":{},"distantMaxMiles":5},"Hadres":{"countryName":"Austria","stateName":"Lower Austria","name":"Hadres","lat":48.70965,"lon":16.13038,"geocoding":{},"distantMaxMiles":5},"Hafnerbach":{"countryName":"Austria","stateName":"Lower Austria","name":"Hafnerbach","lat":48.21667,"lon":15.48333,"geocoding":{},"distantMaxMiles":5},"Hagenbrunn":{"countryName":"Austria","stateName":"Lower Austria","name":"Hagenbrunn","lat":48.33333,"lon":16.4,"geocoding":{},"distantMaxMiles":5},"Haidershofen":{"countryName":"Austria","stateName":"Lower Austria","name":"Haidershofen","lat":48.07579,"lon":14.46131,"geocoding":{},"distantMaxMiles":5},"Hainburg an der Donau":{"countryName":"Austria","stateName":"Lower Austria","name":"Hainburg an der Donau","lat":48.14627,"lon":16.94504,"geocoding":{},"distantMaxMiles":5},"Hainfeld":{"countryName":"Austria","stateName":"Lower Austria","name":"Hainfeld","lat":48.0339,"lon":15.77414,"geocoding":{},"distantMaxMiles":5},"Hardegg":{"countryName":"Austria","stateName":"Lower Austria","name":"Hardegg","lat":48.85,"lon":15.85,"geocoding":{},"distantMaxMiles":5},"Haringsee":{"countryName":"Austria","stateName":"Lower Austria","name":"Haringsee","lat":48.1927,"lon":16.78741,"geocoding":{},"distantMaxMiles":5},"Harland":{"countryName":"Austria","stateName":"Lower Austria","name":"Harland","lat":48.16162,"lon":15.63835,"geocoding":{},"distantMaxMiles":5},"Harmannsdorf":{"countryName":"Austria","stateName":"Lower Austria","name":"Harmannsdorf","lat":48.39724,"lon":16.3722,"geocoding":{},"distantMaxMiles":5},"Hart":{"countryName":"Austria","stateName":"Lower Austria","name":"Hart","lat":48.1532,"lon":15.61569,"geocoding":{},"distantMaxMiles":5},"Haugschlag":{"countryName":"Austria","stateName":"Lower Austria","name":"Haugschlag","lat":48.98333,"lon":15.05,"geocoding":{},"distantMaxMiles":5},"Haugsdorf":{"countryName":"Austria","stateName":"Lower Austria","name":"Haugsdorf","lat":48.70762,"lon":16.07656,"geocoding":{},"distantMaxMiles":5},"Haunoldstein":{"countryName":"Austria","stateName":"Lower Austria","name":"Haunoldstein","lat":48.2,"lon":15.45,"geocoding":{},"distantMaxMiles":5},"Hausbrunn":{"countryName":"Austria","stateName":"Lower Austria","name":"Hausbrunn","lat":48.62602,"lon":16.82844,"geocoding":{},"distantMaxMiles":5},"Hauskirchen":{"countryName":"Austria","stateName":"Lower Austria","name":"Hauskirchen","lat":48.6,"lon":16.76667,"geocoding":{},"distantMaxMiles":5},"Hausleiten":{"countryName":"Austria","stateName":"Lower Austria","name":"Hausleiten","lat":48.38333,"lon":16.1,"geocoding":{},"distantMaxMiles":5},"Hausmening":{"countryName":"Austria","stateName":"Lower Austria","name":"Hausmening","lat":48.07074,"lon":14.81438,"geocoding":{},"distantMaxMiles":5},"Heidenreichstein":{"countryName":"Austria","stateName":"Lower Austria","name":"Heidenreichstein","lat":48.86667,"lon":15.11667,"geocoding":{},"distantMaxMiles":5},"Heiligeneich":{"countryName":"Austria","stateName":"Lower Austria","name":"Heiligeneich","lat":48.29964,"lon":15.89413,"geocoding":{},"distantMaxMiles":5},"Heiligenkreuz":{"countryName":"Austria","stateName":"Lower Austria","name":"Heiligenkreuz","lat":48.05559,"lon":16.12493,"geocoding":{},"distantMaxMiles":5},"Hennersdorf":{"countryName":"Austria","stateName":"Lower Austria","name":"Hennersdorf","lat":48.11173,"lon":16.36311,"geocoding":{},"distantMaxMiles":5},"Hernstein":{"countryName":"Austria","stateName":"Lower Austria","name":"Hernstein","lat":47.89465,"lon":16.10561,"geocoding":{},"distantMaxMiles":5},"Herrnbaumgarten":{"countryName":"Austria","stateName":"Lower Austria","name":"Herrnbaumgarten","lat":48.69606,"lon":16.68283,"geocoding":{},"distantMaxMiles":5},"Herzogenburg":{"countryName":"Austria","stateName":"Lower Austria","name":"Herzogenburg","lat":48.28137,"lon":15.69431,"geocoding":{},"distantMaxMiles":5},"Himberg":{"countryName":"Austria","stateName":"Lower Austria","name":"Himberg","lat":48.08333,"lon":16.43333,"geocoding":{},"distantMaxMiles":5},"Hinterbrühl":{"countryName":"Austria","stateName":"Lower Austria","name":"Hinterbrühl","lat":48.08611,"lon":16.24809,"geocoding":{},"distantMaxMiles":5},"Hinterleiten":{"countryName":"Austria","stateName":"Lower Austria","name":"Hinterleiten","lat":48.16513,"lon":15.96654,"geocoding":{},"distantMaxMiles":5},"Hirschbach":{"countryName":"Austria","stateName":"Lower Austria","name":"Hirschbach","lat":48.74329,"lon":15.12521,"geocoding":{},"distantMaxMiles":5},"Hirtenberg":{"countryName":"Austria","stateName":"Lower Austria","name":"Hirtenberg","lat":47.93095,"lon":16.17908,"geocoding":{},"distantMaxMiles":5},"Hochleithen":{"countryName":"Austria","stateName":"Lower Austria","name":"Hochleithen","lat":48.45317,"lon":16.5309,"geocoding":{},"distantMaxMiles":5},"Hochwolkersdorf":{"countryName":"Austria","stateName":"Lower Austria","name":"Hochwolkersdorf","lat":47.66127,"lon":16.28072,"geocoding":{},"distantMaxMiles":5},"Hof am Leithaberge":{"countryName":"Austria","stateName":"Lower Austria","name":"Hof am Leithaberge","lat":47.95,"lon":16.58333,"geocoding":{},"distantMaxMiles":5},"Hofamt Priel":{"countryName":"Austria","stateName":"Lower Austria","name":"Hofamt Priel","lat":48.19581,"lon":15.07746,"geocoding":{},"distantMaxMiles":5},"Hofstetten":{"countryName":"Austria","stateName":"Lower Austria","name":"Hofstetten","lat":48.09711,"lon":15.51149,"geocoding":{},"distantMaxMiles":5},"Hohenau":{"countryName":"Austria","stateName":"Lower Austria","name":"Hohenau","lat":48.6042,"lon":16.9047,"geocoding":{},"distantMaxMiles":5},"Hohenberg":{"countryName":"Austria","stateName":"Lower Austria","name":"Hohenberg","lat":47.90679,"lon":15.61998,"geocoding":{},"distantMaxMiles":5},"Hoheneich":{"countryName":"Austria","stateName":"Lower Austria","name":"Hoheneich","lat":48.77195,"lon":15.02857,"geocoding":{},"distantMaxMiles":5},"Hohenruppersdorf":{"countryName":"Austria","stateName":"Lower Austria","name":"Hohenruppersdorf","lat":48.46439,"lon":16.65244,"geocoding":{},"distantMaxMiles":5},"Hollabrunn":{"countryName":"Austria","stateName":"Lower Austria","name":"Hollabrunn","lat":48.55,"lon":16.08333,"geocoding":{},"distantMaxMiles":5},"Hollenstein an der Ybbs":{"countryName":"Austria","stateName":"Lower Austria","name":"Hollenstein an der Ybbs","lat":47.80305,"lon":14.77312,"geocoding":{},"distantMaxMiles":5},"Hollenthon":{"countryName":"Austria","stateName":"Lower Austria","name":"Hollenthon","lat":47.58938,"lon":16.26131,"geocoding":{},"distantMaxMiles":5},"Horn":{"countryName":"Austria","stateName":"Lower Austria","name":"Horn","lat":48.66274,"lon":15.65663,"geocoding":{},"distantMaxMiles":5},"Hundsheim":{"countryName":"Austria","stateName":"Lower Austria","name":"Hundsheim","lat":48.11749,"lon":16.93581,"geocoding":{},"distantMaxMiles":5},"Hutten":{"countryName":"Austria","stateName":"Lower Austria","name":"Hutten","lat":48.17856,"lon":15.98579,"geocoding":{},"distantMaxMiles":5},"Höflein":{"countryName":"Austria","stateName":"Lower Austria","name":"Höflein","lat":48.06667,"lon":16.78333,"geocoding":{},"distantMaxMiles":5},"Höfling":{"countryName":"Austria","stateName":"Lower Austria","name":"Höfling","lat":48.05444,"lon":15.03672,"geocoding":{},"distantMaxMiles":5},"Hürm":{"countryName":"Austria","stateName":"Lower Austria","name":"Hürm","lat":48.15601,"lon":15.41262,"geocoding":{},"distantMaxMiles":5},"Jaidhof":{"countryName":"Austria","stateName":"Lower Austria","name":"Jaidhof","lat":48.53333,"lon":15.48333,"geocoding":{},"distantMaxMiles":5},"Japons":{"countryName":"Austria","stateName":"Lower Austria","name":"Japons","lat":48.7925,"lon":15.56831,"geocoding":{},"distantMaxMiles":5},"Jedenspeigen":{"countryName":"Austria","stateName":"Lower Austria","name":"Jedenspeigen","lat":48.49807,"lon":16.87225,"geocoding":{},"distantMaxMiles":5},"Kaltenleutgeben":{"countryName":"Austria","stateName":"Lower Austria","name":"Kaltenleutgeben","lat":48.11646,"lon":16.19956,"geocoding":{},"distantMaxMiles":5},"Kapelln":{"countryName":"Austria","stateName":"Lower Austria","name":"Kapelln","lat":48.25817,"lon":15.75731,"geocoding":{},"distantMaxMiles":5},"Karlstetten":{"countryName":"Austria","stateName":"Lower Austria","name":"Karlstetten","lat":48.2592,"lon":15.56544,"geocoding":{},"distantMaxMiles":5},"Kasten bei Böheimkirchen":{"countryName":"Austria","stateName":"Lower Austria","name":"Kasten bei Böheimkirchen","lat":48.1532,"lon":15.77946,"geocoding":{},"distantMaxMiles":5},"Katzelsdorf":{"countryName":"Austria","stateName":"Lower Austria","name":"Katzelsdorf","lat":47.78055,"lon":16.26985,"geocoding":{},"distantMaxMiles":5},"Kaumberg":{"countryName":"Austria","stateName":"Lower Austria","name":"Kaumberg","lat":48.02415,"lon":15.89842,"geocoding":{},"distantMaxMiles":5},"Kautzen":{"countryName":"Austria","stateName":"Lower Austria","name":"Kautzen","lat":48.93,"lon":15.23932,"geocoding":{},"distantMaxMiles":5},"Kematen an der Ybbs":{"countryName":"Austria","stateName":"Lower Austria","name":"Kematen an der Ybbs","lat":48.02541,"lon":14.76468,"geocoding":{},"distantMaxMiles":5},"Kierling":{"countryName":"Austria","stateName":"Lower Austria","name":"Kierling","lat":48.30997,"lon":16.27616,"geocoding":{},"distantMaxMiles":5},"Kilb":{"countryName":"Austria","stateName":"Lower Austria","name":"Kilb","lat":48.10101,"lon":15.4085,"geocoding":{},"distantMaxMiles":5},"Kirchberg am Wagram":{"countryName":"Austria","stateName":"Lower Austria","name":"Kirchberg am Wagram","lat":48.43182,"lon":15.89692,"geocoding":{},"distantMaxMiles":5},"Kirchberg am Walde":{"countryName":"Austria","stateName":"Lower Austria","name":"Kirchberg am Walde","lat":48.72477,"lon":15.08826,"geocoding":{},"distantMaxMiles":5},"Kirchberg am Wechsel":{"countryName":"Austria","stateName":"Lower Austria","name":"Kirchberg am Wechsel","lat":47.60738,"lon":15.99103,"geocoding":{},"distantMaxMiles":5},"Kirchberg an der Pielach":{"countryName":"Austria","stateName":"Lower Austria","name":"Kirchberg an der Pielach","lat":48.0269,"lon":15.42875,"geocoding":{},"distantMaxMiles":5},"Kirchschlag":{"countryName":"Austria","stateName":"Lower Austria","name":"Kirchschlag","lat":48.39345,"lon":15.22285,"geocoding":{},"distantMaxMiles":5},"Kirchschlag in der Buckligen Welt":{"countryName":"Austria","stateName":"Lower Austria","name":"Kirchschlag in der Buckligen Welt","lat":47.5,"lon":16.28333,"geocoding":{},"distantMaxMiles":5},"Kirchstetten":{"countryName":"Austria","stateName":"Lower Austria","name":"Kirchstetten","lat":48.18333,"lon":15.81667,"geocoding":{},"distantMaxMiles":5},"Kirnberg an der Mank":{"countryName":"Austria","stateName":"Lower Austria","name":"Kirnberg an der Mank","lat":48.07246,"lon":15.32232,"geocoding":{},"distantMaxMiles":5},"Klausen-Leopoldsdorf":{"countryName":"Austria","stateName":"Lower Austria","name":"Klausen-Leopoldsdorf","lat":48.08771,"lon":16.01686,"geocoding":{},"distantMaxMiles":5},"Klein-Neusiedl":{"countryName":"Austria","stateName":"Lower Austria","name":"Klein-Neusiedl","lat":48.09379,"lon":16.60661,"geocoding":{},"distantMaxMiles":5},"Klein-Pöchlarn":{"countryName":"Austria","stateName":"Lower Austria","name":"Klein-Pöchlarn","lat":48.21667,"lon":15.21667,"geocoding":{},"distantMaxMiles":5},"Kleinzell":{"countryName":"Austria","stateName":"Lower Austria","name":"Kleinzell","lat":47.97993,"lon":15.7362,"geocoding":{},"distantMaxMiles":5},"Klosterneuburg":{"countryName":"Austria","stateName":"Lower Austria","name":"Klosterneuburg","lat":48.30521,"lon":16.32522,"geocoding":{},"distantMaxMiles":5},"Korneuburg":{"countryName":"Austria","stateName":"Lower Austria","name":"Korneuburg","lat":48.35,"lon":16.33333,"geocoding":{},"distantMaxMiles":5},"Kottingbrunn":{"countryName":"Austria","stateName":"Lower Austria","name":"Kottingbrunn","lat":47.95096,"lon":16.22715,"geocoding":{},"distantMaxMiles":5},"Krems an der Donau":{"countryName":"Austria","stateName":"Lower Austria","name":"Krems an der Donau","lat":48.40921,"lon":15.61415,"geocoding":{},"distantMaxMiles":5},"Krems an der Donau Stadt":{"countryName":"Austria","stateName":"Lower Austria","name":"Krems an der Donau Stadt","lat":48.4104,"lon":15.60574,"geocoding":{},"distantMaxMiles":5},"Kritzendorf":{"countryName":"Austria","stateName":"Lower Austria","name":"Kritzendorf","lat":48.32932,"lon":16.30011,"geocoding":{},"distantMaxMiles":5},"Krumau am Kamp":{"countryName":"Austria","stateName":"Lower Austria","name":"Krumau am Kamp","lat":48.58879,"lon":15.44914,"geocoding":{},"distantMaxMiles":5},"Krumbach Markt":{"countryName":"Austria","stateName":"Lower Austria","name":"Krumbach Markt","lat":47.51667,"lon":16.18333,"geocoding":{},"distantMaxMiles":5},"Krumnussbaum":{"countryName":"Austria","stateName":"Lower Austria","name":"Krumnussbaum","lat":48.20877,"lon":15.16212,"geocoding":{},"distantMaxMiles":5},"Königstetten":{"countryName":"Austria","stateName":"Lower Austria","name":"Königstetten","lat":48.30198,"lon":16.14492,"geocoding":{},"distantMaxMiles":5},"Laa an der Thaya":{"countryName":"Austria","stateName":"Lower Austria","name":"Laa an der Thaya","lat":48.71667,"lon":16.38333,"geocoding":{},"distantMaxMiles":5},"Laab im Walde":{"countryName":"Austria","stateName":"Lower Austria","name":"Laab im Walde","lat":48.15486,"lon":16.17359,"geocoding":{},"distantMaxMiles":5},"Ladendorf":{"countryName":"Austria","stateName":"Lower Austria","name":"Ladendorf","lat":48.53333,"lon":16.48333,"geocoding":{},"distantMaxMiles":5},"Landegg":{"countryName":"Austria","stateName":"Lower Austria","name":"Landegg","lat":47.9,"lon":16.4,"geocoding":{},"distantMaxMiles":5},"Langau":{"countryName":"Austria","stateName":"Lower Austria","name":"Langau","lat":48.83207,"lon":15.7156,"geocoding":{},"distantMaxMiles":5},"Langenlebarn-Oberaigen":{"countryName":"Austria","stateName":"Lower Austria","name":"Langenlebarn-Oberaigen","lat":48.33023,"lon":16.11059,"geocoding":{},"distantMaxMiles":5},"Langenlois":{"countryName":"Austria","stateName":"Lower Austria","name":"Langenlois","lat":48.46667,"lon":15.66667,"geocoding":{},"distantMaxMiles":5},"Langenrohr":{"countryName":"Austria","stateName":"Lower Austria","name":"Langenrohr","lat":48.30489,"lon":16.01034,"geocoding":{},"distantMaxMiles":5},"Langenzersdorf":{"countryName":"Austria","stateName":"Lower Austria","name":"Langenzersdorf","lat":48.30432,"lon":16.36143,"geocoding":{},"distantMaxMiles":5},"Langschlag":{"countryName":"Austria","stateName":"Lower Austria","name":"Langschlag","lat":48.57448,"lon":14.88459,"geocoding":{},"distantMaxMiles":5},"Lanzendorf":{"countryName":"Austria","stateName":"Lower Austria","name":"Lanzendorf","lat":48.11056,"lon":16.445,"geocoding":{},"distantMaxMiles":5},"Lanzenkirchen":{"countryName":"Austria","stateName":"Lower Austria","name":"Lanzenkirchen","lat":47.73621,"lon":16.21985,"geocoding":{},"distantMaxMiles":5},"Lassee":{"countryName":"Austria","stateName":"Lower Austria","name":"Lassee","lat":48.22479,"lon":16.8223,"geocoding":{},"distantMaxMiles":5},"Laxenburg":{"countryName":"Austria","stateName":"Lower Austria","name":"Laxenburg","lat":48.06833,"lon":16.35607,"geocoding":{},"distantMaxMiles":5},"Leiben":{"countryName":"Austria","stateName":"Lower Austria","name":"Leiben","lat":48.24628,"lon":15.2746,"geocoding":{},"distantMaxMiles":5},"Leitzersdorf":{"countryName":"Austria","stateName":"Lower Austria","name":"Leitzersdorf","lat":48.41918,"lon":16.24513,"geocoding":{},"distantMaxMiles":5},"Lengenfeld":{"countryName":"Austria","stateName":"Lower Austria","name":"Lengenfeld","lat":48.47187,"lon":15.5987,"geocoding":{},"distantMaxMiles":5},"Leobendorf":{"countryName":"Austria","stateName":"Lower Austria","name":"Leobendorf","lat":48.38333,"lon":16.31667,"geocoding":{},"distantMaxMiles":5},"Leobersdorf":{"countryName":"Austria","stateName":"Lower Austria","name":"Leobersdorf","lat":47.92796,"lon":16.21651,"geocoding":{},