{"name":"Indonesia","isoCode":"ID","lat":-5,"lon":120,"geocoding":{},"distantMaxMiles":5,"states":{"Aceh":{"countryName":"Indonesia","name":"Aceh","isoCode":"AC","lat":4.695135,"lon":96.7493993,"geocoding":{},"distantMaxMiles":5,"cities":{"Banda Aceh":{"countryName":"Indonesia","stateName":"Aceh","name":"Banda Aceh","lat":5.54167,"lon":95.33333,"geocoding":{},"distantMaxMiles":5},"Bireun":{"countryName":"Indonesia","stateName":"Aceh","name":"Bireun","lat":5.203,"lon":96.7009,"geocoding":{},"distantMaxMiles":5},"Kabupaten Aceh Barat":{"countryName":"Indonesia","stateName":"Aceh","name":"Kabupaten Aceh Barat","lat":4.45,"lon":96.16667,"geocoding":{},"distantMaxMiles":5},"Kabupaten Aceh Barat Daya":{"countryName":"Indonesia","stateName":"Aceh","name":"Kabupaten Aceh Barat Daya","lat":3.83333,"lon":96.88333,"geocoding":{},"distantMaxMiles":5},"Kabupaten Aceh Besar":{"countryName":"Indonesia","stateName":"Aceh","name":"Kabupaten Aceh Besar","lat":5.38333,"lon":95.51667,"geocoding":{},"distantMaxMiles":5},"Kabupaten Aceh Jaya":{"countryName":"Indonesia","stateName":"Aceh","name":"Kabupaten Aceh Jaya","lat":4.86,"lon":95.64,"geocoding":{},"distantMaxMiles":5},"Kabupaten Aceh Selatan":{"countryName":"Indonesia","stateName":"Aceh","name":"Kabupaten Aceh Selatan","lat":3.16667,"lon":97.41667,"geocoding":{},"distantMaxMiles":5},"Kabupaten Aceh Singkil":{"countryName":"Indonesia","stateName":"Aceh","name":"Kabupaten Aceh Singkil","lat":2.41667,"lon":97.91667,"geocoding":{},"distantMaxMiles":5},"Kabupaten Aceh Tamiang":{"countryName":"Indonesia","stateName":"Aceh","name":"Kabupaten Aceh Tamiang","lat":4.25,"lon":97.96667,"geocoding":{},"distantMaxMiles":5},"Kabupaten Aceh Tengah":{"countryName":"Indonesia","stateName":"Aceh","name":"Kabupaten Aceh Tengah","lat":4.51,"lon":96.855,"geocoding":{},"distantMaxMiles":5},"Kabupaten Aceh Tenggara":{"countryName":"Indonesia","stateName":"Aceh","name":"Kabupaten Aceh Tenggara","lat":3.36667,"lon":97.7,"geocoding":{},"distantMaxMiles":5},"Kabupaten Aceh Timur":{"countryName":"Indonesia","stateName":"Aceh","name":"Kabupaten Aceh Timur","lat":4.63333,"lon":97.63333,"geocoding":{},"distantMaxMiles":5},"Kabupaten Aceh Utara":{"countryName":"Indonesia","stateName":"Aceh","name":"Kabupaten Aceh Utara","lat":4.97,"lon":97.14,"geocoding":{},"distantMaxMiles":5},"Kabupaten Bener Meriah":{"countryName":"Indonesia","stateName":"Aceh","name":"Kabupaten Bener Meriah","lat":4.73015,"lon":96.86156,"geocoding":{},"distantMaxMiles":5},"Kabupaten Bireuen":{"countryName":"Indonesia","stateName":"Aceh","name":"Kabupaten Bireuen","lat":5.08333,"lon":96.58333,"geocoding":{},"distantMaxMiles":5},"Kabupaten Gayo Lues":{"countryName":"Indonesia","stateName":"Aceh","name":"Kabupaten Gayo Lues","lat":3.95,"lon":97.39,"geocoding":{},"distantMaxMiles":5},"Kabupaten Nagan Raya":{"countryName":"Indonesia","stateName":"Aceh","name":"Kabupaten Nagan Raya","lat":4.16667,"lon":96.51667,"geocoding":{},"distantMaxMiles":5},"Kabupaten Pidie":{"countryName":"Indonesia","stateName":"Aceh","name":"Kabupaten Pidie","lat":5.08,"lon":96.11,"geocoding":{},"distantMaxMiles":5},"Kabupaten Simeulue":{"countryName":"Indonesia","stateName":"Aceh","name":"Kabupaten Simeulue","lat":2.61667,"lon":96.08333,"geocoding":{},"distantMaxMiles":5},"Kota Banda Aceh":{"countryName":"Indonesia","stateName":"Aceh","name":"Kota Banda Aceh","lat":5.54167,"lon":95.33333,"geocoding":{},"distantMaxMiles":5},"Kota Langsa":{"countryName":"Indonesia","stateName":"Aceh","name":"Kota Langsa","lat":4.47,"lon":97.93,"geocoding":{},"distantMaxMiles":5},"Kota Lhokseumawe":{"countryName":"Indonesia","stateName":"Aceh","name":"Kota Lhokseumawe","lat":5.13333,"lon":97.06667,"geocoding":{},"distantMaxMiles":5},"Kota Sabang":{"countryName":"Indonesia","stateName":"Aceh","name":"Kota Sabang","lat":5.87944,"lon":95.33223,"geocoding":{},"distantMaxMiles":5},"Kota Subulussalam":{"countryName":"Indonesia","stateName":"Aceh","name":"Kota Subulussalam","lat":2.75,"lon":97.93333,"geocoding":{},"distantMaxMiles":5},"Langsa":{"countryName":"Indonesia","stateName":"Aceh","name":"Langsa","lat":4.4683,"lon":97.9683,"geocoding":{},"distantMaxMiles":5},"Lhokseumawe":{"countryName":"Indonesia","stateName":"Aceh","name":"Lhokseumawe","lat":5.1801,"lon":97.1507,"geocoding":{},"distantMaxMiles":5},"Meulaboh":{"countryName":"Indonesia","stateName":"Aceh","name":"Meulaboh","lat":4.14402,"lon":96.12664,"geocoding":{},"distantMaxMiles":5},"Reuleuet":{"countryName":"Indonesia","stateName":"Aceh","name":"Reuleuet","lat":5.21667,"lon":96.28333,"geocoding":{},"distantMaxMiles":5},"Sabang":{"countryName":"Indonesia","stateName":"Aceh","name":"Sabang","lat":5.88969,"lon":95.31644,"geocoding":{},"distantMaxMiles":5},"Sigli":{"countryName":"Indonesia","stateName":"Aceh","name":"Sigli","lat":5.3848,"lon":95.9609,"geocoding":{},"distantMaxMiles":5},"Sinabang":{"countryName":"Indonesia","stateName":"Aceh","name":"Sinabang","lat":2.4803,"lon":96.3801,"geocoding":{},"distantMaxMiles":5},"Singkil":{"countryName":"Indonesia","stateName":"Aceh","name":"Singkil","lat":2.2874,"lon":97.7884,"geocoding":{},"distantMaxMiles":5}}},"Bali":{"countryName":"Indonesia","name":"Bali","isoCode":"BA","lat":-8.3405389,"lon":115.0919509,"geocoding":{},"distantMaxMiles":5,"cities":{"Amlapura":{"countryName":"Indonesia","stateName":"Bali","name":"Amlapura","lat":-8.45,"lon":115.61667,"geocoding":{},"distantMaxMiles":5},"Amlapura city":{"countryName":"Indonesia","stateName":"Bali","name":"Amlapura city","lat":-8.44869,"lon":115.60621,"geocoding":{},"distantMaxMiles":5},"Banjar":{"countryName":"Indonesia","stateName":"Bali","name":"Banjar","lat":-8.19,"lon":114.9675,"geocoding":{},"distantMaxMiles":5},"Banjar Wangsian":{"countryName":"Indonesia","stateName":"Bali","name":"Banjar Wangsian","lat":-8.49497,"lon":115.42342,"geocoding":{},"distantMaxMiles":5},"Bedugul":{"countryName":"Indonesia","stateName":"Bali","name":"Bedugul","lat":-8.4504,"lon":115.5925,"geocoding":{},"distantMaxMiles":5},"Denpasar":{"countryName":"Indonesia","stateName":"Bali","name":"Denpasar","lat":-8.65,"lon":115.21667,"geocoding":{},"distantMaxMiles":5},"Jimbaran":{"countryName":"Indonesia","stateName":"Bali","name":"Jimbaran","lat":-8.79093,"lon":115.16006,"geocoding":{},"distantMaxMiles":5},"Kabupaten Badung":{"countryName":"Indonesia","stateName":"Bali","name":"Kabupaten Badung","lat":-8.51667,"lon":115.2,"geocoding":{},"distantMaxMiles":5},"Kabupaten Bangli":{"countryName":"Indonesia","stateName":"Bali","name":"Kabupaten Bangli","lat":-8.28333,"lon":115.35,"geocoding":{},"distantMaxMiles":5},"Kabupaten Buleleng":{"countryName":"Indonesia","stateName":"Bali","name":"Kabupaten Buleleng","lat":-8.25,"lon":114.96667,"geocoding":{},"distantMaxMiles":5},"Kabupaten Gianyar":{"countryName":"Indonesia","stateName":"Bali","name":"Kabupaten Gianyar","lat":-8.46667,"lon":115.28333,"geocoding":{},"distantMaxMiles":5},"Kabupaten Jembrana":{"countryName":"Indonesia","stateName":"Bali","name":"Kabupaten Jembrana","lat":-8.3,"lon":114.66667,"geocoding":{},"distantMaxMiles":5},"Kabupaten Karang Asem":{"countryName":"Indonesia","stateName":"Bali","name":"Kabupaten Karang Asem","lat":-8.3891,"lon":115.5393,"geocoding":{},"distantMaxMiles":5},"Kabupaten Klungkung":{"countryName":"Indonesia","stateName":"Bali","name":"Kabupaten Klungkung","lat":-8.55,"lon":115.4,"geocoding":{},"distantMaxMiles":5},"Kabupaten Tabanan":{"countryName":"Indonesia","stateName":"Bali","name":"Kabupaten Tabanan","lat":-8.43333,"lon":115.06667,"geocoding":{},"distantMaxMiles":5},"Klungkung":{"countryName":"Indonesia","stateName":"Bali","name":"Klungkung","lat":-8.53333,"lon":115.4,"geocoding":{},"distantMaxMiles":5},"Kota Denpasar":{"countryName":"Indonesia","stateName":"Bali","name":"Kota Denpasar","lat":-8.66667,"lon":115.21663,"geocoding":{},"distantMaxMiles":5},"Kuta":{"countryName":"Indonesia","stateName":"Bali","name":"Kuta","lat":-8.72332,"lon":115.17234,"geocoding":{},"distantMaxMiles":5},"Legian":{"countryName":"Indonesia","stateName":"Bali","name":"Legian","lat":-8.70415,"lon":115.17028,"geocoding":{},"distantMaxMiles":5},"Lovina":{"countryName":"Indonesia","stateName":"Bali","name":"Lovina","lat":-8.14927,"lon":115.03999,"geocoding":{},"distantMaxMiles":5},"Munduk":{"countryName":"Indonesia","stateName":"Bali","name":"Munduk","lat":-8.26866,"lon":115.07947,"geocoding":{},"distantMaxMiles":5},"Negara":{"countryName":"Indonesia","stateName":"Bali","name":"Negara","lat":-8.35694,"lon":114.61694,"geocoding":{},"distantMaxMiles":5},"Nusa Dua":{"countryName":"Indonesia","stateName":"Bali","name":"Nusa Dua","lat":-8.80047,"lon":115.23341,"geocoding":{},"distantMaxMiles":5},"Seririt":{"countryName":"Indonesia","stateName":"Bali","name":"Seririt","lat":-8.1928,"lon":114.9388,"geocoding":{},"distantMaxMiles":5},"Singaraja":{"countryName":"Indonesia","stateName":"Bali","name":"Singaraja","lat":-8.112,"lon":115.08818,"geocoding":{},"distantMaxMiles":5},"Tabanan":{"countryName":"Indonesia","stateName":"Bali","name":"Tabanan","lat":-8.5413,"lon":115.12522,"geocoding":{},"distantMaxMiles":5},"Ubud":{"countryName":"Indonesia","stateName":"Bali","name":"Ubud","lat":-8.5098,"lon":115.2654,"geocoding":{},"distantMaxMiles":5}}},"Banten":{"countryName":"Indonesia","name":"Banten","isoCode":"BT","lat":-6.4058172,"lon":106.0640179,"geocoding":{},"distantMaxMiles":5,"cities":{"Curug":{"countryName":"Indonesia","stateName":"Banten","name":"Curug","lat":-6.26583,"lon":106.55639,"geocoding":{},"distantMaxMiles":5},"Kabupaten Lebak":{"countryName":"Indonesia","stateName":"Banten","name":"Kabupaten Lebak","lat":-6.65,"lon":106.21667,"geocoding":{},"distantMaxMiles":5},"Kabupaten Pandeglang":{"countryName":"Indonesia","stateName":"Banten","name":"Kabupaten Pandeglang","lat":-6.63333,"lon":105.75,"geocoding":{},"distantMaxMiles":5},"Kabupaten Serang":{"countryName":"Indonesia","stateName":"Banten","name":"Kabupaten Serang","lat":-6.15,"lon":106,"geocoding":{},"distantMaxMiles":5},"Kabupaten Tangerang":{"countryName":"Indonesia","stateName":"Banten","name":"Kabupaten Tangerang","lat":-6.2,"lon":106.46667,"geocoding":{},"distantMaxMiles":5},"Kota Cilegon":{"countryName":"Indonesia","stateName":"Banten","name":"Kota Cilegon","lat":-6.01667,"lon":106.01667,"geocoding":{},"distantMaxMiles":5},"Kota Serang":{"countryName":"Indonesia","stateName":"Banten","name":"Kota Serang","lat":-6.12563,"lon":106.14999,"geocoding":{},"distantMaxMiles":5},"Kota Tangerang":{"countryName":"Indonesia","stateName":"Banten","name":"Kota Tangerang","lat":-6.17944,"lon":106.62991,"geocoding":{},"distantMaxMiles":5},"Kota Tangerang Selatan":{"countryName":"Indonesia","stateName":"Banten","name":"Kota Tangerang Selatan","lat":-6.29373,"lon":106.71244,"geocoding":{},"distantMaxMiles":5},"Labuan":{"countryName":"Indonesia","stateName":"Banten","name":"Labuan","lat":-6.3784,"lon":105.83,"geocoding":{},"distantMaxMiles":5},"Pandeglang":{"countryName":"Indonesia","stateName":"Banten","name":"Pandeglang","lat":-6.3084,"lon":106.1067,"geocoding":{},"distantMaxMiles":5},"Rangkasbitung":{"countryName":"Indonesia","stateName":"Banten","name":"Rangkasbitung","lat":-6.3591,"lon":106.2494,"geocoding":{},"distantMaxMiles":5},"Serang":{"countryName":"Indonesia","stateName":"Banten","name":"Serang","lat":-6.11528,"lon":106.15417,"geocoding":{},"distantMaxMiles":5},"South Tangerang":{"countryName":"Indonesia","stateName":"Banten","name":"South Tangerang","lat":-6.28862,"lon":106.71789,"geocoding":{},"distantMaxMiles":5},"Tangerang":{"countryName":"Indonesia","stateName":"Banten","name":"Tangerang","lat":-6.17806,"lon":106.63,"geocoding":{},"distantMaxMiles":5}}},"Bengkulu":{"countryName":"Indonesia","name":"Bengkulu","isoCode":"BE","lat":-3.7928451,"lon":102.2607641,"geocoding":{},"distantMaxMiles":5,"cities":{"Bengkulu":{"countryName":"Indonesia","stateName":"Bengkulu","name":"Bengkulu","lat":-3.80044,"lon":102.26554,"geocoding":{},"distantMaxMiles":5},"Curup":{"countryName":"Indonesia","stateName":"Bengkulu","name":"Curup","lat":-3.4703,"lon":102.5207,"geocoding":{},"distantMaxMiles":5},"Kabupaten Bengkulu Selatan":{"countryName":"Indonesia","stateName":"Bengkulu","name":"Kabupaten Bengkulu Selatan","lat":-4.35,"lon":103.03333,"geocoding":{},"distantMaxMiles":5},"Kabupaten Bengkulu Tengah":{"countryName":"Indonesia","stateName":"Bengkulu","name":"Kabupaten Bengkulu Tengah","lat":-3.20679,"lon":102.12616,"geocoding":{},"distantMaxMiles":5},"Kabupaten Bengkulu Utara":{"countryName":"Indonesia","stateName":"Bengkulu","name":"Kabupaten Bengkulu Utara","lat":-3.33333,"lon":102.05,"geocoding":{},"distantMaxMiles":5},"Kabupaten Kaur":{"countryName":"Indonesia","stateName":"Bengkulu","name":"Kabupaten Kaur","lat":-4.78179,"lon":103.36109,"geocoding":{},"distantMaxMiles":5},"Kabupaten Kepahiang":{"countryName":"Indonesia","stateName":"Bengkulu","name":"Kabupaten Kepahiang","lat":-3.60194,"lon":102.56424,"geocoding":{},"distantMaxMiles":5},"Kabupaten Lebong":{"countryName":"Indonesia","stateName":"Bengkulu","name":"Kabupaten Lebong","lat":-3.24278,"lon":102.3349,"geocoding":{},"distantMaxMiles":5},"Kabupaten Mukomuko":{"countryName":"Indonesia","stateName":"Bengkulu","name":"Kabupaten Mukomuko","lat":-3.07438,"lon":101.54766,"geocoding":{},"distantMaxMiles":5},"Kabupaten Rejang Lebong":{"countryName":"Indonesia","stateName":"Bengkulu","name":"Kabupaten Rejang Lebong","lat":-3.43333,"lon":102.71667,"geocoding":{},"distantMaxMiles":5},"Kabupaten Seluma":{"countryName":"Indonesia","stateName":"Bengkulu","name":"Kabupaten Seluma","lat":-3.96644,"lon":102.47429,"geocoding":{},"distantMaxMiles":5},"Kota Bengkulu":{"countryName":"Indonesia","stateName":"Bengkulu","name":"Kota Bengkulu","lat":-3.81667,"lon":102.31667,"geocoding":{},"distantMaxMiles":5}}},"DI Yogyakarta":{"countryName":"Indonesia","name":"DI Yogyakarta","isoCode":"YO","lat":-7.8753849,"lon":110.4262088,"geocoding":{},"distantMaxMiles":5,"cities":{"Bambanglipuro":{"countryName":"Indonesia","stateName":"DI Yogyakarta","name":"Bambanglipuro","lat":-7.95,"lon":110.28333,"geocoding":{},"distantMaxMiles":5},"Bantul":{"countryName":"Indonesia","stateName":"DI Yogyakarta","name":"Bantul","lat":-7.88806,"lon":110.32889,"geocoding":{},"distantMaxMiles":5},"Depok":{"countryName":"Indonesia","stateName":"DI Yogyakarta","name":"Depok","lat":-7.7625,"lon":110.43167,"geocoding":{},"distantMaxMiles":5},"Gamping Lor":{"countryName":"Indonesia","stateName":"DI Yogyakarta","name":"Gamping Lor","lat":-7.79556,"lon":110.32639,"geocoding":{},"distantMaxMiles":5},"Godean":{"countryName":"Indonesia","stateName":"DI Yogyakarta","name":"Godean","lat":-7.76972,"lon":110.29389,"geocoding":{},"distantMaxMiles":5},"Kabupaten Bantul":{"countryName":"Indonesia","stateName":"DI Yogyakarta","name":"Kabupaten Bantul","lat":-7.9,"lon":110.36667,"geocoding":{},"distantMaxMiles":5},"Kabupaten Gunung Kidul":{"countryName":"Indonesia","stateName":"DI Yogyakarta","name":"Kabupaten Gunung Kidul","lat":-7.98333,"lon":110.61667,"geocoding":{},"distantMaxMiles":5},"Kabupaten Kulon Progo":{"countryName":"Indonesia","stateName":"DI Yogyakarta","name":"Kabupaten Kulon Progo","lat":-7.645,"lon":110.02694,"geocoding":{},"distantMaxMiles":5},"Kabupaten Sleman":{"countryName":"Indonesia","stateName":"DI Yogyakarta","name":"Kabupaten Sleman","lat":-7.68167,"lon":110.32333,"geocoding":{},"distantMaxMiles":5},"Kasihan":{"countryName":"Indonesia","stateName":"DI Yogyakarta","name":"Kasihan","lat":-7.82694,"lon":110.32917,"geocoding":{},"distantMaxMiles":5},"Kota Yogyakarta":{"countryName":"Indonesia","stateName":"DI Yogyakarta","name":"Kota Yogyakarta","lat":-7.8,"lon":110.375,"geocoding":{},"distantMaxMiles":5},"Melati":{"countryName":"Indonesia","stateName":"DI Yogyakarta","name":"Melati","lat":-7.73333,"lon":110.36667,"geocoding":{},"distantMaxMiles":5},"Pandak":{"countryName":"Indonesia","stateName":"DI Yogyakarta","name":"Pandak","lat":-7.91306,"lon":110.29361,"geocoding":{},"distantMaxMiles":5},"Pundong":{"countryName":"Indonesia","stateName":"DI Yogyakarta","name":"Pundong","lat":-7.95222,"lon":110.34861,"geocoding":{},"distantMaxMiles":5},"Sewon":{"countryName":"Indonesia","stateName":"DI Yogyakarta","name":"Sewon","lat":-7.87639,"lon":110.35889,"geocoding":{},"distantMaxMiles":5},"Sleman":{"countryName":"Indonesia","stateName":"DI Yogyakarta","name":"Sleman","lat":-7.71556,"lon":110.35556,"geocoding":{},"distantMaxMiles":5},"Srandakan":{"countryName":"Indonesia","stateName":"DI Yogyakarta","name":"Srandakan","lat":-7.93861,"lon":110.25056,"geocoding":{},"distantMaxMiles":5},"Yogyakarta":{"countryName":"Indonesia","stateName":"DI Yogyakarta","name":"Yogyakarta","lat":-7.80139,"lon":110.36472,"geocoding":{},"distantMaxMiles":5}}},"DKI Jakarta":{"countryName":"Indonesia","name":"DKI Jakarta","isoCode":"JK","lat":-6.2087634,"lon":106.845599,"geocoding":{},"distantMaxMiles":5,"cities":{"Jakarta":{"countryName":"Indonesia","stateName":"DKI Jakarta","name":"Jakarta","lat":-6.21462,"lon":106.84513,"geocoding":{},"distantMaxMiles":5},"Kota Administrasi Jakarta Barat":{"countryName":"Indonesia","stateName":"DKI Jakarta","name":"Kota Administrasi Jakarta Barat","lat":-6.1676,"lon":106.7673,"geocoding":{},"distantMaxMiles":5},"Kota Administrasi Jakarta Pusat":{"countryName":"Indonesia","stateName":"DKI Jakarta","name":"Kota Administrasi Jakarta Pusat","lat":-6.1777,"lon":106.8403,"geocoding":{},"distantMaxMiles":5},"Kota Administrasi Jakarta Selatan":{"countryName":"Indonesia","stateName":"DKI Jakarta","name":"Kota Administrasi Jakarta Selatan","lat":-6.266,"lon":106.8135,"geocoding":{},"distantMaxMiles":5},"Kota Administrasi Jakarta Timur":{"countryName":"Indonesia","stateName":"DKI Jakarta","name":"Kota Administrasi Jakarta Timur","lat":-6.2521,"lon":106.884,"geocoding":{},"distantMaxMiles":5},"Kota Administrasi Jakarta Utara":{"countryName":"Indonesia","stateName":"DKI Jakarta","name":"Kota Administrasi Jakarta Utara","lat":-6.1339,"lon":106.8823,"geocoding":{},"distantMaxMiles":5}}},"Gorontalo":{"countryName":"Indonesia","name":"Gorontalo","isoCode":"GO","lat":0.5435442,"lon":123.0567693,"geocoding":{},"distantMaxMiles":5,"cities":{"Gorontalo":{"countryName":"Indonesia","stateName":"Gorontalo","name":"Gorontalo","lat":0.5375,"lon":123.0625,"geocoding":{},"distantMaxMiles":5},"Kabupaten Boalemo":{"countryName":"Indonesia","stateName":"Gorontalo","name":"Kabupaten Boalemo","lat":0.62689,"lon":122.3568,"geocoding":{},"distantMaxMiles":5},"Kabupaten Bone Bolango":{"countryName":"Indonesia","stateName":"Gorontalo","name":"Kabupaten Bone Bolango","lat":0.50296,"lon":123.27501,"geocoding":{},"distantMaxMiles":5},"Kabupaten Gorontalo":{"countryName":"Indonesia","stateName":"Gorontalo","name":"Kabupaten Gorontalo","lat":0.5728,"lon":122.2337,"geocoding":{},"distantMaxMiles":5},"Kabupaten Gorontalo Utara":{"countryName":"Indonesia","stateName":"Gorontalo","name":"Kabupaten Gorontalo Utara","lat":0.77,"lon":122.31667,"geocoding":{},"distantMaxMiles":5},"Kabupaten Pohuwato":{"countryName":"Indonesia","stateName":"Gorontalo","name":"Kabupaten Pohuwato","lat":0.7098,"lon":121.59582,"geocoding":{},"distantMaxMiles":5},"Kota Gorontalo":{"countryName":"Indonesia","stateName":"Gorontalo","name":"Kota Gorontalo","lat":0.53333,"lon":123.1,"geocoding":{},"distantMaxMiles":5}}},"Jambi":{"countryName":"Indonesia","name":"Jambi","isoCode":"JA","lat":-1.6101229,"lon":103.6131203,"geocoding":{},"distantMaxMiles":5,"cities":{"Bejubang Dua":{"countryName":"Indonesia","stateName":"Jambi","name":"Bejubang Dua","lat":-1.7923,"lon":103.3167,"geocoding":{},"distantMaxMiles":5},"Jambi City":{"countryName":"Indonesia","stateName":"Jambi","name":"Jambi City","lat":-1.6,"lon":103.61667,"geocoding":{},"distantMaxMiles":5},"Kabupaten Batang Hari":{"countryName":"Indonesia","stateName":"Jambi","name":"Kabupaten Batang Hari","lat":-1.75,"lon":103.11667,"geocoding":{},"distantMaxMiles":5},"Kabupaten Bungo":{"countryName":"Indonesia","stateName":"Jambi","name":"Kabupaten Bungo","lat":-1.50222,"lon":101.96,"geocoding":{},"distantMaxMiles":5},"Kabupaten Kerinci":{"countryName":"Indonesia","stateName":"Jambi","name":"Kabupaten Kerinci","lat":-2.03333,"lon":101.53333,"geocoding":{},"distantMaxMiles":5},"Kabupaten Merangin":{"countryName":"Indonesia","stateName":"Jambi","name":"Kabupaten Merangin","lat":-2.06933,"lon":102.13303,"geocoding":{},"distantMaxMiles":5},"Kabupaten Muaro Jambi":{"countryName":"Indonesia","stateName":"Jambi","name":"Kabupaten Muaro Jambi","lat":-1.55214,"lon":103.82163,"geocoding":{},"distantMaxMiles":5},"Kabupaten Sarolangun":{"countryName":"Indonesia","stateName":"Jambi","name":"Kabupaten Sarolangun","lat":-2.3,"lon":102.65,"geocoding":{},"distantMaxMiles":5},"Kabupaten Tanjung Jabung Barat":{"countryName":"Indonesia","stateName":"Jambi","name":"Kabupaten Tanjung Jabung Barat","lat":-1.1544,"lon":103.24402,"geocoding":{},"distantMaxMiles":5},"Kabupaten Tanjung Jabung Timur":{"countryName":"Indonesia","stateName":"Jambi","name":"Kabupaten Tanjung Jabung Timur","lat":-1.13198,"lon":103.61755,"geocoding":{},"distantMaxMiles":5},"Kabupaten Tebo":{"countryName":"Indonesia","stateName":"Jambi","name":"Kabupaten Tebo","lat":-1.45576,"lon":102.37473,"geocoding":{},"distantMaxMiles":5},"Kota Jambi":{"countryName":"Indonesia","stateName":"Jambi","name":"Kota Jambi","lat":-1.61667,"lon":103.65,"geocoding":{},"distantMaxMiles":5},"Kota Sungai Penuh":{"countryName":"Indonesia","stateName":"Jambi","name":"Kota Sungai Penuh","lat":-2.10896,"lon":101.32175,"geocoding":{},"distantMaxMiles":5},"Kuala Tungkal":{"countryName":"Indonesia","stateName":"Jambi","name":"Kuala Tungkal","lat":-0.81623,"lon":103.46111,"geocoding":{},"distantMaxMiles":5},"Mendaha":{"countryName":"Indonesia","stateName":"Jambi","name":"Mendaha","lat":-1.0163,"lon":103.59331,"geocoding":{},"distantMaxMiles":5},"Simpang":{"countryName":"Indonesia","stateName":"Jambi","name":"Simpang","lat":-1.26424,"lon":104.09701,"geocoding":{},"distantMaxMiles":5},"Sungai Penuh":{"countryName":"Indonesia","stateName":"Jambi","name":"Sungai Penuh","lat":-2.0561,"lon":101.3913,"geocoding":{},"distantMaxMiles":5}}},"Jawa Barat":{"countryName":"Indonesia","name":"Jawa Barat","isoCode":"JB","lat":-7.090911,"lon":107.668887,"geocoding":{},"distantMaxMiles":5,"cities":{"Arjawinangun":{"countryName":"Indonesia","stateName":"Jawa Barat","name":"Arjawinangun","lat":-6.64528,"lon":108.41028,"geocoding":{},"distantMaxMiles":5},"Astanajapura":{"countryName":"Indonesia","stateName":"Jawa Barat","name":"Astanajapura","lat":-6.8017,"lon":108.6311,"geocoding":{},"distantMaxMiles":5},"Bandung":{"countryName":"Indonesia","stateName":"Jawa Barat","name":"Bandung","lat":-6.92222,"lon":107.60694,"geocoding":{},"distantMaxMiles":5},"Banjar":{"countryName":"Indonesia","stateName":"Jawa Barat","name":"Banjar","lat":-7.1955,"lon":107.4313,"geocoding":{},"distantMaxMiles":5},"Banjaran":{"countryName":"Indonesia","stateName":"Jawa Barat","name":"Banjaran","lat":-7.04528,"lon":107.58778,"geocoding":{},"distantMaxMiles":5},"Bekasi":{"countryName":"Indonesia","stateName":"Jawa Barat","name":"Bekasi","lat":-6.2349,"lon":106.9896,"geocoding":{},"distantMaxMiles":5},"Bogor":{"countryName":"Indonesia","stateName":"Jawa Barat","name":"Bogor","lat":-6.59444,"lon":106.78917,"geocoding":{},"distantMaxMiles":5},"Caringin":{"countryName":"Indonesia","stateName":"Jawa Barat","name":"Caringin","lat":-6.70611,"lon":106.82139,"geocoding":{},"distantMaxMiles":5},"Ciamis":{"countryName":"Indonesia","stateName":"Jawa Barat","name":"Ciamis","lat":-7.3257,"lon":108.3534,"geocoding":{},"distantMaxMiles":5},"Ciampea":{"countryName":"Indonesia","stateName":"Jawa Barat","name":"Ciampea","lat":-6.55472,"lon":106.70083,"geocoding":{},"distantMaxMiles":5},"Cibinong":{"countryName":"Indonesia","stateName":"Jawa Barat","name":"Cibinong","lat":-6.48167,"lon":106.85417,"geocoding":{},"distantMaxMiles":5},"Cicurug":{"countryName":"Indonesia","stateName":"Jawa Barat","name":"Cicurug","lat":-6.78139,"lon":106.7825,"geocoding":{},"distantMaxMiles":5},"Cikampek":{"countryName":"Indonesia","stateName":"Jawa Barat","name":"Cikampek","lat":-6.41972,"lon":107.45583,"geocoding":{},"distantMaxMiles":5},"Cikarang":{"countryName":"Indonesia","stateName":"Jawa Barat","name":"Cikarang","lat":-6.26111,"lon":107.15278,"geocoding":{},"distantMaxMiles":5},"Cikupa":{"countryName":"Indonesia","stateName":"Jawa Barat","name":"Cikupa","lat":-6.23639,"lon":106.50833,"geocoding":{},"distantMaxMiles":5},"Cileungsir":{"countryName":"Indonesia","stateName":"Jawa Barat","name":"Cileungsir","lat":-6.39472,"lon":106.95917,"geocoding":{},"distantMaxMiles":5},"Cileunyi":{"countryName":"Indonesia","stateName":"Jawa Barat","name":"Cileunyi","lat":-6.93889,"lon":107.75278,"geocoding":{},"distantMaxMiles":5},"Cimahi":{"countryName":"Indonesia","stateName":"Jawa Barat","name":"Cimahi","lat":-6.87222,"lon":107.5425,"geocoding":{},"distantMaxMiles":5},"Ciputat":{"countryName":"Indonesia","stateName":"Jawa Barat","name":"Ciputat","lat":-6.2375,"lon":106.69556,"geocoding":{},"distantMaxMiles":5},"Ciranjang-hilir":{"countryName":"Indonesia","stateName":"Jawa Barat","name":"Ciranjang-hilir","lat":-6.82,"lon":107.25722,"geocoding":{},"distantMaxMiles":5},"Cirebon":{"countryName":"Indonesia","stateName":"Jawa Barat","name":"Cirebon","lat":-6.7063,"lon":108.557,"geocoding":{},"distantMaxMiles":5},"Citeureup":{"countryName":"Indonesia","stateName":"Jawa Barat","name":"Citeureup","lat":-6.48556,"lon":106.88194,"geocoding":{},"distantMaxMiles":5},"Depok":{"countryName":"Indonesia","stateName":"Jawa Barat","name":"Depok","lat":-6.4,"lon":106.81861,"geocoding":{},"distantMaxMiles":5},"Indramayu":{"countryName":"Indonesia","stateName":"Jawa Barat","name":"Indramayu","lat":-6.32639,"lon":108.32,"geocoding":{},"distantMaxMiles":5},"Jatibarang":{"countryName":"Indonesia","stateName":"Jawa Barat","name":"Jatibarang","lat":-6.47472,"lon":108.31528,"geocoding":{},"distantMaxMiles":5},"Jatiwangi":{"countryName":"Indonesia","stateName":"Jawa Barat","name":"Jatiwangi","lat":-6.73361,"lon":108.26278,"geocoding":{},"distantMaxMiles":5},"Kabupaten Bandung":{"countryName":"Indonesia","stateName":"Jawa Barat","name":"Kabupaten Bandung","lat":-7.1,"lon":107.6,"geocoding":{},"distantMaxMiles":5},"Kabupaten Bandung Barat":{"countryName":"Indonesia","stateName":"Jawa Barat","name":"Kabupaten Bandung Barat","lat":-6.83333,"lon":107.48333,"geocoding":{},"distantMaxMiles":5},"Kabupaten Bekasi":{"countryName":"Indonesia","stateName":"Jawa Barat","name":"Kabupaten Bekasi","lat":-6.24667,"lon":107.10833,"geocoding":{},"distantMaxMiles":5},"Kabupaten Bogor":{"countryName":"Indonesia","stateName":"Jawa Barat","name":"Kabupaten Bogor","lat":-6.58333,"lon":106.71667,"geocoding":{},"distantMaxMiles":5},"Kabupaten Ciamis":{"countryName":"Indonesia","stateName":"Jawa Barat","name":"Kabupaten Ciamis","lat":-7.28333,"lon":108.41667,"geocoding":{},"distantMaxMiles":5},"Kabupaten Cianjur":{"countryName":"Indonesia","stateName":"Jawa Barat","name":"Kabupaten Cianjur","lat":-6.7725,"lon":107.08306,"geocoding":{},"distantMaxMiles":5},"Kabupaten Cirebon":{"countryName":"Indonesia","stateName":"Jawa Barat","name":"Kabupaten Cirebon","lat":-6.8,"lon":108.56667,"geocoding":{},"distantMaxMiles":5},"Kabupaten Garut":{"countryName":"Indonesia","stateName":"Jawa Barat","name":"Kabupaten Garut","lat":-7.38333,"lon":107.76667,"geocoding":{},"distantMaxMiles":5},"Kabupaten Indramayu":{"countryName":"Indonesia","stateName":"Jawa Barat","name":"Kabupaten Indramayu","lat":-6.45,"lon":108.16667,"geocoding":{},"distantMaxMiles":5},"Kabupaten Karawang":{"countryName":"Indonesia","stateName":"Jawa Barat","name":"Kabupaten Karawang","lat":-6.26667,"lon":107.41667,"geocoding":{},"distantMaxMiles":5},"Kabupaten Kuningan":{"countryName":"Indonesia","stateName":"Jawa Barat","name":"Kabupaten Kuningan","lat":-7,"lon":108.55,"geocoding":{},"distantMaxMiles":5},"Kabupaten Majalengka":{"countryName":"Indonesia","stateName":"Jawa Barat","name":"Kabupaten Majalengka","lat":-6.81667,"lon":108.28333,"geocoding":{},"distantMaxMiles":5},"Kabupaten Pangandaran":{"countryName":"Indonesia","stateName":"Jawa Barat","name":"Kabupaten Pangandaran","lat":-7.6673,"lon":108.64037,"geocoding":{},"distantMaxMiles":5},"Kabupaten Purwakarta":{"countryName":"Indonesia","stateName":"Jawa Barat","name":"Kabupaten Purwakarta","lat":-6.58333,"lon":107.45,"geocoding":{},"distantMaxMiles":5},"Kabupaten Subang":{"countryName":"Indonesia","stateName":"Jawa Barat","name":"Kabupaten Subang","lat":-6.50833,"lon":107.7025,"geocoding":{},"distantMaxMiles":5},"Kabupaten Sukabumi":{"countryName":"Indonesia","stateName":"Jawa Barat","name":"Kabupaten Sukabumi","lat":-7.06667,"lon":106.7,"geocoding":{},"distantMaxMiles":5},"Kabupaten Sumedang":{"countryName":"Indonesia","stateName":"Jawa Barat","name":"Kabupaten Sumedang","lat":-6.81667,"lon":107.98333,"geocoding":{},"distantMaxMiles":5},"Kabupaten Tasikmalaya":{"countryName":"Indonesia","stateName":"Jawa Barat","name":"Kabupaten Tasikmalaya","lat":-7.5,"lon":108.13333,"geocoding":{},"distantMaxMiles":5},"Karangampel":{"countryName":"Indonesia","stateName":"Jawa Barat","name":"Karangampel","lat":-6.46222,"lon":108.45194,"geocoding":{},"distantMaxMiles":5},"Karangsembung":{"countryName":"Indonesia","stateName":"Jawa Barat","name":"Karangsembung","lat":-6.8487,"lon":108.6422,"geocoding":{},"distantMaxMiles":5},"Kawalu":{"countryName":"Indonesia","stateName":"Jawa Barat","name":"Kawalu","lat":-7.3817,"lon":108.2082,"geocoding":{},"distantMaxMiles":5},"Klangenan":{"countryName":"Indonesia","stateName":"Jawa Barat","name":"Klangenan","lat":-6.70944,"lon":108.44,"geocoding":{},"distantMaxMiles":5},"Kota Bandung":{"countryName":"Indonesia","stateName":"Jawa Barat","name":"Kota Bandung","lat":-6.9175,"lon":107.62444,"geocoding":{},"distantMaxMiles":5},"Kota Banjar":{"countryName":"Indonesia","stateName":"Jawa Barat","name":"Kota Banjar","lat":-7.36996,"lon":108.53209,"geocoding":{},"distantMaxMiles":5},"Kota Bekasi":{"countryName":"Indonesia","stateName":"Jawa Barat","name":"Kota Bekasi","lat":-6.28333,"lon":106.98333,"geocoding":{},"distantMaxMiles":5},"Kota Bogor":{"countryName":"Indonesia","stateName":"Jawa Barat","name":"Kota Bogor","lat":-6.59167,"lon":106.8,"geocoding":{},"distantMaxMiles":5},"Kota Cimahi":{"countryName":"Indonesia","stateName":"Jawa Barat","name":"Kota Cimahi","lat":-6.89167,"lon":107.55,"geocoding":{},"distantMaxMiles":5},"Kota Cirebon":{"countryName":"Indonesia","stateName":"Jawa Barat","name":"Kota Cirebon","lat":-6.75,"lon":108.55,"geocoding":{},"distantMaxMiles":5},"Kota Depok":{"countryName":"Indonesia","stateName":"Jawa Barat","name":"Kota Depok","lat":-6.4,"lon":106.81667,"geocoding":{},"distantMaxMiles":5},"Kota Sukabumi":{"countryName":"Indonesia","stateName":"Jawa Barat","name":"Kota Sukabumi","lat":-6.95,"lon":106.93333,"geocoding":{},"distantMaxMiles":5},"Kota Tasikmalaya":{"countryName":"Indonesia","stateName":"Jawa Barat","name":"Kota Tasikmalaya","lat":-7.35,"lon":108.21667,"geocoding":{},"distantMaxMiles":5},"Kresek":{"countryName":"Indonesia","stateName":"Jawa Barat","name":"Kresek","lat":-6.13139,"lon":106.37972,"geocoding":{},"distantMaxMiles":5},"Kuningan":{"countryName":"Indonesia","stateName":"Jawa Barat","name":"Kuningan","lat":-6.97583,"lon":108.48306,"geocoding":{},"distantMaxMiles":5},"Lembang":{"countryName":"Indonesia","stateName":"Jawa Barat","name":"Lembang","lat":-6.81167,"lon":107.6175,"geocoding":{},"distantMaxMiles":5},"Majalengka":{"countryName":"Indonesia","stateName":"Jawa Barat","name":"Majalengka","lat":-6.83611,"lon":108.22778,"geocoding":{},"distantMaxMiles":5},"Margahayukencana":{"countryName":"Indonesia","stateName":"Jawa Barat","name":"Margahayukencana","lat":-6.97083,"lon":107.5675,"geocoding":{},"distantMaxMiles":5},"Ngawi":{"countryName":"Indonesia","stateName":"Jawa Barat","name":"Ngawi","lat":-7.4038,"lon":111.4461,"geocoding":{},"distantMaxMiles":5},"Padalarang":{"countryName":"Indonesia","stateName":"Jawa Barat","name":"Padalarang","lat":-6.83778,"lon":107.47278,"geocoding":{},"distantMaxMiles":5},"Palimanan":{"countryName":"Indonesia","stateName":"Jawa Barat","name":"Palimanan","lat":-6.70694,"lon":108.42417,"geocoding":{},"distantMaxMiles":5},"Pamanukan":{"countryName":"Indonesia","stateName":"Jawa Barat","name":"Pamanukan","lat":-6.28417,"lon":107.81056,"geocoding":{},"distantMaxMiles":5},"Pameungpeuk":{"countryName":"Indonesia","stateName":"Jawa Barat","name":"Pameungpeuk","lat":-7.01833,"lon":107.60389,"geocoding":{},"distantMaxMiles":5},"Pamulang":{"countryName":"Indonesia","stateName":"Jawa Barat","name":"Pamulang","lat":-6.34278,"lon":106.73833,"geocoding":{},"distantMaxMiles":5},"Parung":{"countryName":"Indonesia","stateName":"Jawa Barat","name":"Parung","lat":-6.42139,"lon":106.73306,"geocoding":{},"distantMaxMiles":5},"Pasarkemis":{"countryName":"Indonesia","stateName":"Jawa Barat","name":"Pasarkemis","lat":-6.17028,"lon":106.53028,"geocoding":{},"distantMaxMiles":5},"Paseh":{"countryName":"Indonesia","stateName":"Jawa Barat","name":"Paseh","lat":-7.1026,"lon":107.7641,"geocoding":{},"distantMaxMiles":5},"Pelabuhanratu":{"countryName":"Indonesia","stateName":"Jawa Barat","name":"Pelabuhanratu","lat":-6.9875,"lon":106.55139,"geocoding":{},"distantMaxMiles":5},"Plumbon":{"countryName":"Indonesia","stateName":"Jawa Barat","name":"Plumbon","lat":-6.705,"lon":108.47278,"geocoding":{},"distantMaxMiles":5},"Purwakarta":{"countryName":"Indonesia","stateName":"Jawa Barat","name":"Purwakarta","lat":-6.55694,"lon":107.44333,"geocoding":{},"distantMaxMiles":5},"Rajapolah":{"countryName":"Indonesia","stateName":"Jawa Barat","name":"Rajapolah","lat":-7.221,"lon":108.1896,"geocoding":{},"distantMaxMiles":5},"Rengasdengklok":{"countryName":"Indonesia","stateName":"Jawa Barat","name":"Rengasdengklok","lat":-6.15917,"lon":107.29806,"geocoding":{},"distantMaxMiles":5},"Sawangan":{"countryName":"Indonesia","stateName":"Jawa Barat","name":"Sawangan","lat":-6.40278,"lon":106.77444,"geocoding":{},"distantMaxMiles":5},"Sepatan":{"countryName":"Indonesia","stateName":"Jawa Barat","name":"Sepatan","lat":-6.11889,"lon":106.575,"geocoding":{},"distantMaxMiles":5},"Serpong":{"countryName":"Indonesia","stateName":"Jawa Barat","name":"Serpong","lat":-6.31694,"lon":106.66417,"geocoding":{},"distantMaxMiles":5},"Singaparna":{"countryName":"Indonesia","stateName":"Jawa Barat","name":"Singaparna","lat":-7.3515,"lon":108.111,"geocoding":{},"distantMaxMiles":5},"Soreang":{"countryName":"Indonesia","stateName":"Jawa Barat","name":"Soreang","lat":-7.03306,"lon":107.51833,"geocoding":{},"distantMaxMiles":5},"Sukabumi":{"countryName":"Indonesia","stateName":"Jawa Barat","name":"Sukabumi","lat":-6.91806,"lon":106.92667,"geocoding":{},"distantMaxMiles":5},"Sumber":{"countryName":"Indonesia","stateName":"Jawa Barat","name":"Sumber","lat":-6.76028,"lon":108.48306,"geocoding":{},"distantMaxMiles":5},"Sumedang":{"countryName":"Indonesia","stateName":"Jawa Barat","name":"Sumedang","lat":-6.85861,"lon":107.91639,"geocoding":{},"distantMaxMiles":5},"Sumedang Utara":{"countryName":"Indonesia","stateName":"Jawa Barat","name":"Sumedang Utara","lat":-6.85,"lon":107.91667,"geocoding":{},"distantMaxMiles":5},"Tasikmalaya":{"countryName":"Indonesia","stateName":"Jawa Barat","name":"Tasikmalaya","lat":-7.3274,"lon":108.2207,"geocoding":{},"distantMaxMiles":5},"Teluknaga":{"countryName":"Indonesia","stateName":"Jawa Barat","name":"Teluknaga","lat":-6.09889,"lon":106.63806,"geocoding":{},"distantMaxMiles":5},"Wanaraja":{"countryName":"Indonesia","stateName":"Jawa Barat","name":"Wanaraja","lat":-7.1749,"lon":107.9808,"geocoding":{},"distantMaxMiles":5},"Weru":{"countryName":"Indonesia","stateName":"Jawa Barat","name":"Weru","lat":-6.711,"lon":108.5037,"geocoding":{},"distantMaxMiles":5}}},"Jawa Tengah":{"countryName":"Indonesia","name":"Jawa Tengah","isoCode":"JT","lat":-7.150975,"lon":110.1402594,"geocoding":{},"distantMaxMiles":5,"cities":{"Adiwerna":{"countryName":"Indonesia","stateName":"Jawa Tengah","name":"Adiwerna","lat":-6.9375,"lon":109.1325,"geocoding":{},"distantMaxMiles":5},"Ambarawa":{"countryName":"Indonesia","stateName":"Jawa Tengah","name":"Ambarawa","lat":-7.26333,"lon":110.3975,"geocoding":{},"distantMaxMiles":5},"Baekrajan":{"countryName":"Indonesia","stateName":"Jawa Tengah","name":"Baekrajan","lat":-6.7674,"lon":110.8541,"geocoding":{},"distantMaxMiles":5},"Baki":{"countryName":"Indonesia","stateName":"Jawa Tengah","name":"Baki","lat":-7.61278,"lon":110.78389,"geocoding":{},"distantMaxMiles":5},"Balapulang":{"countryName":"Indonesia","stateName":"Jawa Tengah","name":"Balapulang","lat":-7.04858,"lon":109.10056,"geocoding":{},"distantMaxMiles":5},"Banyumas":{"countryName":"Indonesia","stateName":"Jawa Tengah","name":"Banyumas","lat":-7.51417,"lon":109.29417,"geocoding":{},"distantMaxMiles":5},"Batang":{"countryName":"Indonesia","stateName":"Jawa Tengah","name":"Batang","lat":-6.4846,"lon":110.7083,"geocoding":{},"distantMaxMiles":5},"Baturaden":{"countryName":"Indonesia","stateName":"Jawa Tengah","name":"Baturaden","lat":-7.3,"lon":109.21667,"geocoding":{},"distantMaxMiles":5},"Blora":{"countryName":"Indonesia","stateName":"Jawa Tengah","name":"Blora","lat":-6.9698,"lon":111.4186,"geocoding":{},"distantMaxMiles":5},"Boyolali":{"countryName":"Indonesia","stateName":"Jawa Tengah","name":"Boyolali","lat":-7.53306,"lon":110.59583,"geocoding":{},"distantMaxMiles":5},"Buaran":{"countryName":"Indonesia","stateName":"Jawa Tengah","name":"Buaran","lat":-7.05,"lon":109.55,"geocoding":{},"distantMaxMiles":5},"Bulakamba":{"countryName":"Indonesia","stateName":"Jawa Tengah","name":"Bulakamba","lat":-6.8748,"lon":108.9559,"geocoding":{},"distantMaxMiles":5},"Candi Prambanan":{"countryName":"Indonesia","stateName":"Jawa Tengah","name":"Candi Prambanan","lat":-7.75,"lon":110.49417,"geocoding":{},"distantMaxMiles":5},"Ceper":{"countryName":"Indonesia","stateName":"Jawa Tengah","name":"Ceper","lat":-7.67417,"lon":110.67889,"geocoding":{},"distantMaxMiles":5},"Cepu":{"countryName":"Indonesia","stateName":"Jawa Tengah","name":"Cepu","lat":-7.1475,"lon":111.5906,"geocoding":{},"distantMaxMiles":5},"Colomadu":{"countryName":"Indonesia","stateName":"Jawa Tengah","name":"Colomadu","lat":-7.53333,"lon":110.75,"geocoding":{},"distantMaxMiles":5},"Comal":{"countryName":"Indonesia","stateName":"Jawa Tengah","name":"Comal","lat":-6.9053,"lon":109.5347,"geocoding":{},"distantMaxMiles":5},"Delanggu":{"countryName":"Indonesia","stateName":"Jawa Tengah","name":"Delanggu","lat":-7.61667,"lon":110.68333,"geocoding":{},"distantMaxMiles":5},"Demak":{"countryName":"Indonesia","stateName":"Jawa Tengah","name":"Demak","lat":-6.8909,"lon":110.6396,"geocoding":{},"distantMaxMiles":5},"Dukuhturi":{"countryName":"Indonesia","stateName":"Jawa Tengah","name":"Dukuhturi","lat":-6.9,"lon":109.08333,"geocoding":{},"distantMaxMiles":5},"Gatak":{"countryName":"Indonesia","stateName":"Jawa Tengah","name":"Gatak","lat":-7.59083,"lon":110.70444,"geocoding":{},"distantMaxMiles":5},"Gebog":{"countryName":"Indonesia","stateName":"Jawa Tengah","name":"Gebog","lat":-6.735,"lon":110.8444,"geocoding":{},"distantMaxMiles":5},"Gombong":{"countryName":"Indonesia","stateName":"Jawa Tengah","name":"Gombong","lat":-7.60722,"lon":109.51417,"geocoding":{},"distantMaxMiles":5},"Grogol":{"countryName":"Indonesia","stateName":"Jawa Tengah","name":"Grogol","lat":-7.60111,"lon":110.81861,"geocoding":{},"distantMaxMiles":5},"Gunung Kendil":{"countryName":"Indonesia","stateName":"Jawa Tengah","name":"Gunung Kendil","lat":-7.33167,"lon":110.40417,"geocoding":{},"distantMaxMiles":5},"Jaten":{"countryName":"Indonesia","stateName":"Jawa Tengah","name":"Jaten","lat":-7.57722,"lon":110.8975,"geocoding":{},"distantMaxMiles":5},"Jatiroto":{"countryName":"Indonesia","stateName":"Jawa Tengah","name":"Jatiroto","lat":-7.88333,"lon":111.11667,"geocoding":{},"distantMaxMiles":5},"Jekulo":{"countryName":"Indonesia","stateName":"Jawa Tengah","name":"Jekulo","lat":-6.8057,"lon":110.9262,"geocoding":{},"distantMaxMiles":5},"Jogonalan":{"countryName":"Indonesia","stateName":"Jawa Tengah","name":"Jogonalan","lat":-7.70361,"lon":110.53611,"geocoding":{},"distantMaxMiles":5},"Juwana":{"countryName":"Indonesia","stateName":"Jawa Tengah","name":"Juwana","lat":-6.715,"lon":111.1514,"geocoding":{},"distantMaxMiles":5},"Kabupaten Banjarnegara":{"countryName":"Indonesia","stateName":"Jawa Tengah","name":"Kabupaten Banjarnegara","lat":-7.35111,"lon":109.5875,"geocoding":{},"distantMaxMiles":5},"Kabupaten Banyumas":{"countryName":"Indonesia","stateName":"Jawa Tengah","name":"Kabupaten Banyumas","lat":-7.45,"lon":109.16667,"geocoding":{},"distantMaxMiles":5},"Kabupaten Batang":{"countryName":"Indonesia","stateName":"Jawa Tengah","name":"Kabupaten Batang","lat":-7.03333,"lon":109.88333,"geocoding":{},"distantMaxMiles":5},"Kabupaten Blora":{"countryName":"Indonesia","stateName":"Jawa Tengah","name":"Kabupaten Blora","lat":-7.06667,"lon":111.38333,"geocoding":{},"distantMaxMiles":5},"Kabupaten Boyolali":{"countryName":"Indonesia","stateName":"Jawa Tengah","name":"Kabupaten Boyolali","lat":-7.5,"lon":110.7,"geocoding":{},"distantMaxMiles":5},"Kabupaten Brebes":{"countryName":"Indonesia","stateName":"Jawa Tengah","name":"Kabupaten Brebes","lat":-7.05,"lon":108.9,"geocoding":{},"distantMaxMiles":5},"Kabupaten Cilacap":{"countryName":"Indonesia","stateName":"Jawa Tengah","name":"Kabupaten Cilacap","lat":-7.57417,"lon":108.98861,"geocoding":{},"distantMaxMiles":5},"Kabupaten Demak":{"countryName":"Indonesia","stateName":"Jawa Tengah","name":"Kabupaten Demak","lat":-6.8993,"lon":110.6122,"geocoding":{},"distantMaxMiles":5},"Kabupaten Grobogan":{"countryName":"Indonesia","stateName":"Jawa Tengah","name":"Kabupaten Grobogan","lat":-7.11667,"lon":110.91667,"geocoding":{},"distantMaxMiles":5},"Kabupaten Jepara":{"countryName":"Indonesia","stateName":"Jawa Tengah","name":"Kabupaten Jepara","lat":-6.58333,"lon":110.76667,"geocoding":{},"distantMaxMiles":5},"Kabupaten Karanganyar":{"countryName":"Indonesia","stateName":"Jawa Tengah","name":"Kabupaten Karanganyar","lat":-7.62806,"lon":111.0625,"geocoding":{},"distantMaxMiles":5},"Kabupaten Kebumen":{"countryName":"Indonesia","stateName":"Jawa Tengah","name":"Kabupaten Kebumen","lat":-7.63917,"lon":109.66056,"geocoding":{},"distantMaxMiles":5},"Kabupaten Kendal":{"countryName":"Indonesia","stateName":"Jawa Tengah","name":"Kabupaten Kendal","lat":-7.0256,"lon":110.1685,"geocoding":{},"distantMaxMiles":5},"Kabupaten Klaten":{"countryName":"Indonesia","stateName":"Jawa Tengah","name":"Kabupaten Klaten","lat":-7.68333,"lon":110.61667,"geocoding":{},"distantMaxMiles":5},"Kabupaten Kudus":{"countryName":"Indonesia","stateName":"Jawa Tengah","name":"Kabupaten Kudus","lat":-6.8,"lon":110.86667,"geocoding":{},"distantMaxMiles":5},"Kabupaten Magelang":{"countryName":"Indonesia","stateName":"Jawa Tengah","name":"Kabupaten Magelang","lat":-7.4275,"lon":110.16194,"geocoding":{},"distantMaxMiles":5},"Kabupaten Pati":{"countryName":"Indonesia","stateName":"Jawa Tengah","name":"Kabupaten Pati","lat":-6.76667,"lon":111.1,"geocoding":{},"distantMaxMiles":5},"Kabupaten Pekalongan":{"countryName":"Indonesia","stateName":"Jawa Tengah","name":"Kabupaten Pekalongan","lat":-7.0319,"lon":109.624,"geocoding":{},"distantMaxMiles":5},"Kabupaten Pemalang":{"countryName":"Indonesia","stateName":"Jawa Tengah","name":"Kabupaten Pemalang","lat":-7.03333,"lon":109.4,"geocoding":{},"distantMaxMiles":5},"Kabupaten Purbalingga":{"countryName":"Indonesia","stateName":"Jawa Tengah","name":"Kabupaten Purbalingga","lat":-7.28417,"lon":109.35028,"geocoding":{},"distantMaxMiles":5},"Kabupaten Purworejo":{"countryName":"Indonesia","stateName":"Jawa Tengah","name":"Kabupaten Purworejo","lat":-7.7,"lon":109.96667,"geocoding":{},"distantMaxMiles":5},"Kabupaten Rembang":{"countryName":"Indonesia","stateName":"Jawa Tengah","name":"Kabupaten Rembang","lat":-6.78333,"lon":111.46667,"geocoding":{},"distantMaxMiles":5},"Kabupaten Semarang":{"countryName":"Indonesia","stateName":"Jawa Tengah","name":"Kabupaten Semarang","lat":-7.20667,"lon":110.44139,"geocoding":{},"distantMaxMiles":5},"Kabupaten Sragen":{"countryName":"Indonesia","stateName":"Jawa Tengah","name":"Kabupaten Sragen","lat":-7.41278,"lon":110.935,"geocoding":{},"distantMaxMiles":5},"Kabupaten Sukoharjo":{"countryName":"Indonesia","stateName":"Jawa Tengah","name":"Kabupaten Sukoharjo","lat":-7.68333,"lon":110.83333,"geocoding":{},"distantMaxMiles":5},"Kabupaten Tegal":{"countryName":"Indonesia","stateName":"Jawa Tengah","name":"Kabupaten Tegal","lat":-7.03333,"lon":109.16667,"geocoding":{},"distantMaxMiles":5},"Kabupaten Temanggung":{"countryName":"Indonesia","stateName":"Jawa Tengah","name":"Kabupaten Temanggung","lat":-7.25,"lon":110.11667,"geocoding":{},"distantMaxMiles":5},"Kabupaten Wonogiri":{"countryName":"Indonesia","stateName":"Jawa Tengah","name":"Kabupaten Wonogiri","lat":-7.91667,"lon":111,"geocoding":{},"distantMaxMiles":5},"Kabupaten Wonosobo":{"countryName":"Indonesia","stateName":"Jawa Tengah","name":"Kabupaten Wonosobo","lat":-7.36139,"lon":109.92667,"geocoding":{},"distantMaxMiles":5},"Karanganom":{"countryName":"Indonesia","stateName":"Jawa Tengah","name":"Karanganom","lat":-7.64889,"lon":110.625,"geocoding":{},"distantMaxMiles":5},"Kartasura":{"countryName":"Indonesia","stateName":"Jawa Tengah","name":"Kartasura","lat":-7.55194,"lon":110.73778,"geocoding":{},"distantMaxMiles":5},"Kebonarun":{"countryName":"Indonesia","stateName":"Jawa Tengah","name":"Kebonarun","lat":-7.70028,"lon":110.56306,"geocoding":{},"distantMaxMiles":5},"Kedungwuni":{"countryName":"Indonesia","stateName":"Jawa Tengah","name":"Kedungwuni","lat":-6.97038,"lon":109.64794,"geocoding":{},"distantMaxMiles":5},"Ketanggungan":{"countryName":"Indonesia","stateName":"Jawa Tengah","name":"Ketanggungan","lat":-6.9383,"lon":108.891,"geocoding":{},"distantMaxMiles":5},"Klaten":{"countryName":"Indonesia","stateName":"Jawa Tengah","name":"Klaten","lat":-7.70583,"lon":110.60639,"geocoding":{},"distantMaxMiles":5},"Kota Magelang":{"countryName":"Indonesia","stateName":"Jawa Tengah","name":"Kota Magelang","lat":-7.5,"lon":110.225,"geocoding":{},"distantMaxMiles":5},"Kota Pekalongan":{"countryName":"Indonesia","stateName":"Jawa Tengah","name":"Kota Pekalongan","lat":-6.9,"lon":109.68333,"geocoding":{},"distantMaxMiles":5},"Kota Salatiga":{"countryName":"Indonesia","stateName":"Jawa Tengah","name":"Kota Salatiga","lat":-7.33278,"lon":110.48333,"geocoding":{},"distantMaxMiles":5},"Kota Semarang":{"countryName":"Indonesia","stateName":"Jawa Tengah","name":"Kota Semarang","lat":-7.03333,"lon":110.38333,"geocoding":{},"distantMaxMiles":5},"Kota Surakarta":{"countryName":"Indonesia","stateName":"Jawa Tengah","name":"Kota Surakarta","lat":-7.55,"lon":110.81667,"geocoding":{},"distantMaxMiles":5},"Kota Tegal":{"countryName":"Indonesia","stateName":"Jawa Tengah","name":"Kota Tegal","lat":-6.8686,"lon":109.1129,"geocoding":{},"distantMaxMiles":5},"Kroya":{"countryName":"Indonesia","stateName":"Jawa Tengah","name":"Kroya","lat":-7.63306,"lon":109.24611,"geocoding":{},"distantMaxMiles":5},"Kudus":{"countryName":"Indonesia","stateName":"Jawa Tengah","name":"Kudus","lat":-6.8048,"lon":110.8405,"geocoding":{},"distantMaxMiles":5},"Kutoarjo":{"countryName":"Indonesia","stateName":"Jawa Tengah","name":"Kutoarjo","lat":-7.71694,"lon":109.91278,"geocoding":{},"distantMaxMiles":5},"Lasem":{"countryName":"Indonesia","stateName":"Jawa Tengah","name":"Lasem","lat":-6.6922,"lon":111.4527,"geocoding":{},"distantMaxMiles":5},"Lebaksiu":{"countryName":"Indonesia","stateName":"Jawa Tengah","name":"Lebaksiu","lat":-7.0496,"lon":109.1441,"geocoding":{},"distantMaxMiles":5},"Magelang":{"countryName":"Indonesia","stateName":"Jawa Tengah","name":"Magelang","lat":-7.47056,"lon":110.21778,"geocoding":{},"distantMaxMiles":5},"Majenang":{"countryName":"Indonesia","stateName":"Jawa Tengah","name":"Majenang","lat":-7.2975,"lon":108.7642,"geocoding":{},"distantMaxMiles":5},"Margasari":{"countryName":"Indonesia","stateName":"Jawa Tengah","name":"Margasari","lat":-7.1,"lon":109.01667,"geocoding":{},"distantMaxMiles":5},"Mertoyudan":{"countryName":"Indonesia","stateName":"Jawa Tengah","name":"Mertoyudan","lat":-7.52,"lon":110.22639,"geocoding":{},"distantMaxMiles":5},"Mlonggo":{"countryName":"Indonesia","stateName":"Jawa Tengah","name":"Mlonggo","lat":-6.53333,"lon":110.7,"geocoding":{},"distantMaxMiles":5},"Mranggen":{"countryName":"Indonesia","stateName":"Jawa Tengah","name":"Mranggen","lat":-7.0268,"lon":110.5158,"geocoding":{},"distantMaxMiles":5},"Muntilan":{"countryName":"Indonesia","stateName":"Jawa Tengah","name":"Muntilan","lat":-7.58111,"lon":110.29278,"geocoding":{},"distantMaxMiles":5},"Ngemplak":{"countryName":"Indonesia","stateName":"Jawa Tengah","name":"Ngemplak","lat":-7.54972,"lon":110.71639,"geocoding":{},"distantMaxMiles":5},"Pati":{"countryName":"Indonesia","stateName":"Jawa Tengah","name":"Pati","lat":-6.7559,"lon":111.038,"geocoding":{},"distantMaxMiles":5},"Pecangaan":{"countryName":"Indonesia","stateName":"Jawa Tengah","name":"Pecangaan","lat":-6.6978,"lon":110.7107,"geocoding":{},"distantMaxMiles":5},"Pekalongan":{"countryName":"Indonesia","stateName":"Jawa Tengah","name":"Pekalongan","lat":-6.8886,"lon":109.6753,"geocoding":{},"distantMaxMiles":5},"Pemalang":{"countryName":"Indonesia","stateName":"Jawa Tengah","name":"Pemalang","lat":-6.89193,"lon":109.38263,"geocoding":{},"distantMaxMiles":5},"Purbalingga":{"countryName":"Indonesia","stateName":"Jawa Tengah","name":"Purbalingga","lat":-7.38806,"lon":109.36389,"geocoding":{},"distantMaxMiles":5},"Purwodadi":{"countryName":"Indonesia","stateName":"Jawa Tengah","name":"Purwodadi","lat":-7.0868,"lon":110.9158,"geocoding":{},"distantMaxMiles":5},"Purwokerto":{"countryName":"Indonesia","stateName":"Jawa Tengah","name":"Purwokerto","lat":-7.42139,"lon":109.23444,"geocoding":{},"distantMaxMiles":5},"Randudongkal":{"countryName":"Indonesia","stateName":"Jawa Tengah","name":"Randudongkal","lat":-7.0981,"lon":109.3243,"geocoding":{},"distantMaxMiles":5},"Rembangan":{"countryName":"Indonesia","stateName":"Jawa Tengah","name":"Rembangan","lat":-6.7036,"lon":111.3416,"geocoding":{},"distantMaxMiles":5},"Salatiga":{"countryName":"Indonesia","stateName":"Jawa Tengah","name":"Salatiga","lat":-7.33194,"lon":110.49278,"geocoding":{},"distantMaxMiles":5},"Selogiri":{"countryName":"Indonesia","stateName":"Jawa Tengah","name":"Selogiri","lat":-7.78333,"lon":110.86667,"geocoding":{},"distantMaxMiles":5},"Semarang":{"countryName":"Indonesia","stateName":"Jawa Tengah","name":"Semarang","lat":-6.99306,"lon":110.42083,"geocoding":{},"distantMaxMiles":5},"Sidareja":{"countryName":"Indonesia","stateName":"Jawa Tengah","name":"Sidareja","lat":-7.4846,"lon":108.7923,"geocoding":{},"distantMaxMiles":5},"Slawi":{"countryName":"Indonesia","stateName":"Jawa Tengah","name":"Slawi","lat":-6.9816,"lon":109.1407,"geocoding":{},"distantMaxMiles":5},"Sokaraja":{"countryName":"Indonesia","stateName":"Jawa Tengah","name":"Sokaraja","lat":-7.45806,"lon":109.28806,"geocoding":{},"distantMaxMiles":5},"Sragen":{"countryName":"Indonesia","stateName":"Jawa Tengah","name":"Sragen","lat":-7.42639,"lon":111.02222,"geocoding":{},"distantMaxMiles":5},"Surakarta":{"countryName":"Indonesia","stateName":"Jawa Tengah","name":"Surakarta","lat":-7.55611,"lon":110.83167,"geocoding":{},"distantMaxMiles":5},"Tarub":{"countryName":"Indonesia","stateName":"Jawa Tengah","name":"Tarub","lat":-6.93333,"lon":109.16667,"geocoding":{},"distantMaxMiles":5},"Tayu":{"countryName":"Indonesia","stateName":"Jawa Tengah","name":"Tayu","lat":-6.5397,"lon":111.0518,"geocoding":{},"distantMaxMiles":5},"Tegal":{"countryName":"Indonesia","stateName":"Jawa Tengah","name":"Tegal","lat":-6.8694,"lon":109.1402,"geocoding":{},"distantMaxMiles":5},"Trucuk":{"countryName":"Indonesia","stateName":"Jawa Tengah","name":"Trucuk","lat":-7.71833,"lon":110.65889,"geocoding":{},"distantMaxMiles":5},"Ungaran":{"countryName":"Indonesia","stateName":"Jawa Tengah","name":"Ungaran","lat":-7.13972,"lon":110.405,"geocoding":{},"distantMaxMiles":5},"Wangon":{"countryName":"Indonesia","stateName":"Jawa Tengah","name":"Wangon","lat":-7.51611,"lon":109.05389,"geocoding":{},"distantMaxMiles":5},"Wedi":{"countryName":"Indonesia","stateName":"Jawa Tengah","name":"Wedi","lat":-7.74306,"lon":110.57944,"geocoding":{},"distantMaxMiles":5},"Welahan":{"countryName":"Indonesia","stateName":"Jawa Tengah","name":"Welahan","lat":-6.8,"lon":110.71667,"geocoding":{},"distantMaxMiles":5},"Weleri":{"countryName":"Indonesia","stateName":"Jawa Tengah","name":"Weleri","lat":-6.9713,"lon":110.0666,"geocoding":{},"distantMaxMiles":5},"Wiradesa":{"countryName":"Indonesia","stateName":"Jawa Tengah","name":"Wiradesa","lat":-6.8922,"lon":109.619,"geocoding":{},"distantMaxMiles":5},"Wonopringgo":{"countryName":"Indonesia","stateName":"Jawa Tengah","name":"Wonopringgo","lat":-6.98333,"lon":109.61667,"geocoding":{},"distantMaxMiles":5},"Wonosobo":{"countryName":"Indonesia","stateName":"Jawa Tengah","name":"Wonosobo","lat":-7.35889,"lon":109.90306,"geocoding":{},"distantMaxMiles":5}}},"Jawa Timur":{"countryName":"Indonesia","name":"Jawa Timur","isoCode":"JI","lat":-7.5360639,"lon":112.2384017,"geocoding":{},"distantMaxMiles":5,"cities":{"Babat":{"countryName":"Indonesia","stateName":"Jawa Timur","name":"Babat","lat":-7.11282,"lon":112.16354,"geocoding":{},"distantMaxMiles":5},"Balung":{"countryName":"Indonesia","stateName":"Jawa Timur","name":"Balung","lat":-7.73333,"lon":113.91667,"geocoding":{},"distantMaxMiles":5},"Bangil":{"countryName":"Indonesia","stateName":"Jawa Timur","name":"Bangil","lat":-7.59939,"lon":112.8186,"geocoding":{},"distantMaxMiles":5},"Bangkalan":{"countryName":"Indonesia","stateName":"Jawa Timur","name":"Bangkalan","lat":-7.0455,"lon":112.7351,"geocoding":{},"distantMaxMiles":5},"Banyuwangi":{"countryName":"Indonesia","stateName":"Jawa Timur","name":"Banyuwangi","lat":-8.2325,"lon":114.35755,"geocoding":{},"distantMaxMiles":5},"Batu":{"countryName":"Indonesia","stateName":"Jawa Timur","name":"Batu","lat":-7.87,"lon":112.52833,"geocoding":{},"distantMaxMiles":5},"Besuki":{"countryName":"Indonesia","stateName":"Jawa Timur","name":"Besuki","lat":-7.73379,"lon":113.69785,"geocoding":{},"distantMaxMiles":5},"Blitar":{"countryName":"Indonesia","stateName":"Jawa Timur","name":"Blitar","lat":-8.0983,"lon":112.1681,"geocoding":{},"distantMaxMiles":5},"Bojonegoro":{"countryName":"Indonesia","stateName":"Jawa Timur","name":"Bojonegoro","lat":-7.1502,"lon":111.8817,"geocoding":{},"distantMaxMiles":5},"Bondowoso":{"countryName":"Indonesia","stateName":"Jawa Timur","name":"Bondowoso","lat":-7.91346,"lon":113.82145,"geocoding":{},"distantMaxMiles":5},"Boyolangu":{"countryName":"Indonesia","stateName":"Jawa Timur","name":"Boyolangu","lat":-8.1181,"lon":111.8935,"geocoding":{},"distantMaxMiles":5},"Buduran":{"countryName":"Indonesia","stateName":"Jawa Timur","name":"Buduran","lat":-7.4281,"lon":112.7234,"geocoding":{},"distantMaxMiles":5},"Dampit":{"countryName":"Indonesia","stateName":"Jawa Timur","name":"Dampit","lat":-8.21162,"lon":112.74934,"geocoding":{},"distantMaxMiles":5},"Diwek":{"countryName":"Indonesia","stateName":"Jawa Timur","name":"Diwek","lat":-7.57897,"lon":112.23109,"geocoding":{},"distantMaxMiles":5},"Driyorejo":{"countryName":"Indonesia","stateName":"Jawa Timur","name":"Driyorejo","lat":-7.3659,"lon":112.6219,"geocoding":{},"distantMaxMiles":5},"Gambiran Satu":{"countryName":"Indonesia","stateName":"Jawa Timur","name":"Gambiran Satu","lat":-8.3939,"lon":114.1464,"geocoding":{},"distantMaxMiles":5},"Gampengrejo":{"countryName":"Indonesia","stateName":"Jawa Timur","name":"Gampengrejo","lat":-7.76667,"lon":112.01667,"geocoding":{},"distantMaxMiles":5},"Gedangan":{"countryName":"Indonesia","stateName":"Jawa Timur","name":"Gedangan","lat":-7.39083,"lon":112.72667,"geocoding":{},"distantMaxMiles":5},"Genteng":{"countryName":"Indonesia","stateName":"Jawa Timur","name":"Genteng","lat":-8.36667,"lon":114.15,"geocoding":{},"distantMaxMiles":5},"Gongdanglegi Kulon":{"countryName":"Indonesia","stateName":"Jawa Timur","name":"Gongdanglegi Kulon","lat":-8.17529,"lon":112.63594,"geocoding":{},"distantMaxMiles":5},"Gresik":{"countryName":"Indonesia","stateName":"Jawa Timur","name":"Gresik","lat":-7.15389,"lon":112.65611,"geocoding":{},"distantMaxMiles":5},"Gresik Regency":{"countryName":"Indonesia","stateName":"Jawa Timur","name":"Gresik Regency","lat":-7.1933,"lon":112.553,"geocoding":{},"distantMaxMiles":5},"Jember":{"countryName":"Indonesia","stateName":"Jawa Timur","name":"Jember","lat":-8.17211,"lon":113.69953,"geocoding":{},"distantMaxMiles":5},"Jombang":{"countryName":"Indonesia","stateName":"Jawa Timur","name":"Jombang","lat":-7.54595,"lon":112.23307,"geocoding":{},"distantMaxMiles":5},"Kabupaten Bangkalan":{"countryName":"Indonesia","stateName":"Jawa Timur","name":"Kabupaten Bangkalan","lat":-7.05,"lon":112.93333,"geocoding":{},"distantMaxMiles":5},"Kabupaten Banyuwangi":{"countryName":"Indonesia","stateName":"Jawa Timur","name":"Kabupaten Banyuwangi","lat":-8.33333,"lon":114.2,"geocoding":{},"distantMaxMiles":5},"Kabupaten Blitar":{"countryName":"Indonesia","stateName":"Jawa Timur","name":"Kabupaten Blitar","lat":-8.13333,"lon":112.25,"geocoding":{},"distantMaxMiles":5},"Kabupaten Bojonegoro":{"countryName":"Indonesia","stateName":"Jawa Timur","name":"Kabupaten Bojonegoro","lat":-7.25,"lon":111.8,"geocoding":{},"distantMaxMiles":5},"Kabupaten Bondowoso":{"countryName":"Indonesia","stateName":"Jawa Timur","name":"Kabupaten Bondowoso","lat":-7.9404,"lon":113.9834,"geocoding":{},"distantMaxMiles":5},"Kabupaten Jember":{"countryName":"Indonesia","stateName":"Jawa Timur","name":"Kabupaten Jember","lat":-8.25,"lon":113.65,"geocoding":{},"distantMaxMiles":5},"Kabupaten Jombang":{"countryName":"Indonesia","stateName":"Jawa Timur","name":"Kabupaten Jombang","lat":-7.55,"lon":112.25,"geocoding":{},"distantMaxMiles":5},"Kabupaten Kediri":{"countryName":"Indonesia","stateName":"Jawa Timur","name":"Kabupaten Kediri","lat":-7.83333,"lon":112.16667,"geocoding":{},"distantMaxMiles":5},"Kabupaten Lamongan":{"countryName":"Indonesia","stateName":"Jawa Timur","name":"Kabupaten Lamongan","lat":-7.13333,"lon":112.31667,"geocoding":{},"distantMaxMiles":5},"Kabupaten Lumajang":{"countryName":"Indonesia","stateName":"Jawa Timur","name":"Kabupaten Lumajang","lat":-8.11667,"lon":113.15,"geocoding":{},"distantMaxMiles":5},"Kabupaten Madiun":{"countryName":"Indonesia","stateName":"Jawa Timur","name":"Kabupaten Madiun","lat":-7.61667,"lon":111.65,"geocoding":{},"distantMaxMiles":5},"Kabupaten Magetan":{"countryName":"Indonesia","stateName":"Jawa Timur","name":"Kabupaten Magetan","lat":-7.64472,"lon":111.35917,"geocoding":{},"distantMaxMiles":5},"Kabupaten Malang":{"countryName":"Indonesia","stateName":"Jawa Timur","name":"Kabupaten Malang","lat":-8.16667,"lon":112.66667,"geocoding":{},"distantMaxMiles":5},"Kabupaten Mojokerto":{"countryName":"Indonesia","stateName":"Jawa Timur","name":"Kabupaten Mojokerto","lat":-7.55,"lon":112.5,"geocoding":{},"distantMaxMiles":5},"Kabupaten Nganjuk":{"countryName":"Indonesia","stateName":"Jawa Timur","name":"Kabupaten Nganjuk","lat":-7.6,"lon":111.93333,"geocoding":{},"distantMaxMiles":5},"Kabupaten Ngawi":{"countryName":"Indonesia","stateName":"Jawa Timur","name":"Kabupaten Ngawi","lat":-7.47444,"lon":111.33444,"geocoding":{},"distantMaxMiles":5},"Kabupaten Pacitan":{"countryName":"Indonesia","stateName":"Jawa Timur","name":"Kabupaten Pacitan","lat":-8.13333,"lon":111.16667,"geocoding":{},"distantMaxMiles":5},"Kabupaten Pamekasan":{"countryName":"Indonesia","stateName":"Jawa Timur","name":"Kabupaten Pamekasan","lat":-7.06667,"lon":113.5,"geocoding":{},"distantMaxMiles":5},"Kabupaten Pasuruan":{"countryName":"Indonesia","stateName":"Jawa Timur","name":"Kabupaten Pasuruan","lat":-7.73333,"lon":112.83333,"geocoding":{},"distantMaxMiles":5},"Kabupaten Ponorogo":{"countryName":"Indonesia","stateName":"Jawa Timur","name":"Kabupaten Ponorogo","lat":-7.93333,"lon":111.5,"geocoding":{},"distantMaxMiles":5},"Kabupaten Probolinggo":{"countryName":"Indonesia","stateName":"Jawa Timur","name":"Kabupaten Probolinggo","lat":-7.86667,"lon":113.31667,"geocoding":{},"distantMaxMiles":5},"Kabupaten Sampang":{"countryName":"Indonesia","stateName":"Jawa Timur","name":"Kabupaten Sampang","lat":-7.05,"lon":113.25,"geocoding":{},"distantMaxMiles":5},"Kabupaten Sidoarjo":{"countryName":"Indonesia","stateName":"Jawa Timur","name":"Kabupaten Sidoarjo","lat":-7.45,"lon":112.7,"geocoding":{},"distantMaxMiles":5},"Kabupaten Situbondo":{"countryName":"Indonesia","stateName":"Jawa Timur","name":"Kabupaten Situbondo","lat":-7.71667,"lon":114.05,"geocoding":{},"distantMaxMiles":5},"Kabupaten Sumenep":{"countryName":"Indonesia","stateName":"Jawa Timur","name":"Kabupaten Sumenep","lat":-7.11667,"lon":114.33333,"geocoding":{},"distantMaxMiles":5},"Kabupaten Trenggalek":{"countryName":"Indonesia","stateName":"Jawa Timur","name":"Kabupaten Trenggalek","lat":-8.16667,"lon":111.61667,"geocoding":{},"distantMaxMiles":5},"Kabupaten Tuban":{"countryName":"Indonesia","stateName":"Jawa Timur","name":"Kabupaten Tuban","lat":-6.96667,"lon":111.9,"geocoding":{},"distantMaxMiles":5},"Kabupaten Tulungagung":{"countryName":"Indonesia","stateName":"Jawa Timur","name":"Kabupaten Tulungagung","lat":-8.11667,"lon":111.91667,"geocoding":{},"distantMaxMiles":5},"Kalianget":{"countryName":"Indonesia","stateName":"Jawa Timur","name":"Kalianget","lat":-7.0537,"lon":113.94244,"geocoding":{},"distantMaxMiles":5},"Kamal":{"countryName":"Indonesia","stateName":"Jawa Timur","name":"Kamal","lat":-7.16778,"lon":112.71917,"geocoding":{},"distantMaxMiles":5},"Kebomas":{"countryName":"Indonesia","stateName":"Jawa Timur","name":"Kebomas","lat":-7.16667,"lon":112.6333,"geocoding":{},"distantMaxMiles":5},"Kediri":{"countryName":"Indonesia","stateName":"Jawa Timur","name":"Kediri","lat":-7.81667,"lon":112.01667,"geocoding":{},"distantMaxMiles":5},"Kedungwaru":{"countryName":"Indonesia","stateName":"Jawa Timur","name":"Kedungwaru","lat":-8.06667,"lon":111.91667,"geocoding":{},"distantMaxMiles":5},"Kencong":{"countryName":"Indonesia","stateName":"Jawa Timur","name":"Kencong","lat":-8.28333,"lon":113.36667,"geocoding":{},"distantMaxMiles":5},"Kepanjen":{"countryName":"Indonesia","stateName":"Jawa Timur","name":"Kepanjen","lat":-8.1303,"lon":112.5727,"geocoding":{},"distantMaxMiles":5},"Kertosono":{"countryName":"Indonesia","stateName":"Jawa Timur","name":"Kertosono","lat":-7.58333,"lon":112.1,"geocoding":{},"distantMaxMiles":5},"Kota Batu":{"countryName":"Indonesia","stateName":"Jawa Timur","name":"Kota Batu","lat":-7.83272,"lon":112.53751,"geocoding":{},"distantMaxMiles":5},"Kota Blitar":{"countryName":"Indonesia","stateName":"Jawa Timur","name":"Kota Blitar","lat":-8.1,"lon":112.16667,"geocoding":{},"distantMaxMiles":5},"Kota Kediri":{"countryName":"Indonesia","stateName":"Jawa Timur","name":"Kota Kediri","lat":-7.83333,"lon":112.01667,"geocoding":{},"distantMaxMiles":5},"Kota Madiun":{"countryName":"Indonesia","stateName":"Jawa Timur","name":"Kota Madiun","lat":-7.63333,"lon":111.53333,"geocoding":{},"distantMaxMiles":5},"Kota Malang":{"countryName":"Indonesia","stateName":"Jawa Timur","name":"Kota Malang","lat":-7.975,"lon":112.63333,"geocoding":{},"distantMaxMiles":5},"Kota Mojokerto":{"countryName":"Indonesia","stateName":"Jawa Timur","name":"Kota Mojokerto","lat":-7.46667,"lon":112.43333,"geocoding":{},"distantMaxMiles":5},"Kota Pasuruan":{"countryName":"Indonesia","stateName":"Jawa Timur","name":"Kota Pasuruan","lat":-7.65,"lon":112.9,"geocoding":{},"distantMaxMiles":5},"Kota Probolinggo":{"countryName":"Indonesia","stateName":"Jawa Timur","name":"Kota Probolinggo","lat":-7.78333,"lon":113.21667,"geocoding":{},"distantMaxMiles":5},"Kota Surabaya":{"countryName":"Indonesia","stateName":"Jawa Timur","name":"Kota Surabaya","lat":-7.26667,"lon":112.71667,"geocoding":{},"distantMaxMiles":5},"Kraksaan":{"countryName":"Indonesia","stateName":"Jawa Timur","name":"Kraksaan","lat":-7.75845,"lon":113.39624,"geocoding":{},"distantMaxMiles":5},"Krian":{"countryName":"Indonesia","stateName":"Jawa Timur","name":"Krian","lat":-7.4104,"lon":112.5792,"geocoding":{},"distantMaxMiles":5},"Lamongan":{"countryName":"Indonesia","stateName":"Jawa Timur","name":"Lamongan","lat":-7.11667,"lon":112.41667,"geocoding":{},"distantMaxMiles":5},"Lawang":{"countryName":"Indonesia","stateName":"Jawa Timur","name":"Lawang","lat":-7.8353,"lon":112.6947,"geocoding":{},"distantMaxMiles":5},"Lumajang":{"countryName":"Indonesia","stateName":"Jawa Timur","name":"Lumajang","lat":-8.1335,"lon":113.2248,"geocoding":{},"distantMaxMiles":5},"Madiun":{"countryName":"Indonesia","stateName":"Jawa Timur","name":"Madiun","lat":-7.6298,"lon":111.5239,"geocoding":{},"distantMaxMiles":5},"Malang":{"countryName":"Indonesia","stateName":"Jawa Timur","name":"Malang","lat":-7.9797,"lon":112.6304,"geocoding":{},"distantMaxMiles":5},"Mojoagung":{"countryName":"Indonesia","stateName":"Jawa Timur","name":"Mojoagung","lat":-7.56667,"lon":112.35,"geocoding":{},"distantMaxMiles":5},"Mojokerto":{"countryName":"Indonesia","stateName":"Jawa Timur","name":"Mojokerto","lat":-7.4664,"lon":112.4338,"geocoding":{},"distantMaxMiles":5},"Muncar":{"countryName":"Indonesia","stateName":"Jawa Timur","name":"Muncar","lat":-8.43333,"lon":114.33333,"geocoding":{},"distantMaxMiles":5},"Nganjuk":{"countryName":"Indonesia","stateName":"Jawa Timur","name":"Nganjuk","lat":-7.6051,"lon":111.9035,"geocoding":{},"distantMaxMiles":5},"Ngoro":{"countryName":"Indonesia","stateName":"Jawa Timur","name":"Ngoro","lat":-7.68386,"lon":112.25804,"geocoding":{},"distantMaxMiles":5},"Ngunut":{"countryName":"Indonesia","stateName":"Jawa Timur","name":"Ngunut","lat":-8.1058,"lon":112.01591,"geocoding":{},"distantMaxMiles":5},"Paciran":{"countryName":"Indonesia","stateName":"Jawa Timur","name":"Paciran","lat":-6.87666,"lon":112.37606,"geocoding":{},"distantMaxMiles":5},"Pakisaji":{"countryName":"Indonesia","stateName":"Jawa Timur","name":"Pakisaji","lat":-8.0665,"lon":112.5981,"geocoding":{},"distantMaxMiles":5},"Pamekasan":{"countryName":"Indonesia","stateName":"Jawa Timur","name":"Pamekasan","lat":-7.1568,"lon":113.4746,"geocoding":{},"distantMaxMiles":5},"Panarukan":{"countryName":"Indonesia","stateName":"Jawa Timur","name":"Panarukan","lat":-7.70181,"lon":113.91844,"geocoding":{},"distantMaxMiles":5},"Pandaan":{"countryName":"Indonesia","stateName":"Jawa Timur","name":"Pandaan","lat":-7.65268,"lon":112.6875,"geocoding":{},"distantMaxMiles":5},"Panji":{"countryName":"Indonesia","stateName":"Jawa Timur","name":"Panji","lat":-7.72528,"lon":114.09954,"geocoding":{},"distantMaxMiles":5},"Pare":{"countryName":"Indonesia","stateName":"Jawa Timur","name":"Pare","lat":-7.7679,"lon":112.198,"geocoding":{},"distantMaxMiles":5},"Pasuruan":{"countryName":"Indonesia","stateName":"Jawa Timur","name":"Pasuruan","lat":-7.6453,"lon":112.9075,"geocoding":{},"distantMaxMiles":5},"Ponorogo":{"countryName":"Indonesia","stateName":"Jawa Timur","name":"Ponorogo","lat":-7.8685,"lon":111.462,"geocoding":{},"distantMaxMiles":5},"Prigen":{"countryName":"Indonesia","stateName":"Jawa Timur","name":"Prigen","lat":-7.68333,"lon":112.61667,"geocoding":{},"distantMaxMiles":5},"Probolinggo":{"countryName":"Indonesia","stateName":"Jawa Timur","name":"Probolinggo","lat":-7.7543,"lon":113.2159,"geocoding":{},"distantMaxMiles":5},"Sampang":{"countryName":"Indonesia","stateName":"Jawa Timur","name":"Sampang","lat":-7.1872,"lon":113.2394,"geocoding":{},"distantMaxMiles":5},"Sidoarjo":{"countryName":"Indonesia","stateName":"Jawa Timur","name":"Sidoarjo","lat":-7.4478,"lon":112.7183,"geocoding":{},"distantMaxMiles":5},"Singojuruh":{"countryName":"Indonesia","stateName":"Jawa Timur","name":"Singojuruh","lat":-8.31667,"lon":114.23333,"geocoding":{},"distantMaxMiles":5},"Singosari":{"countryName":"Indonesia","stateName":"Jawa Timur","name":"Singosari","lat":-7.8924,"lon":112.6658,"geocoding":{},"distantMaxMiles":5},"Situbondo":{"countryName":"Indonesia","stateName":"Jawa Timur","name":"Situbondo","lat":-7.70623,"lon":114.00976,"geocoding":{},"distantMaxMiles":5},"Soko":{"countryName":"Indonesia","stateName":"Jawa Timur","name":"Soko","lat":-7.48315,"lon":112.42704,"geocoding":{},"distantMaxMiles":5},"Srono":{"countryName":"Indonesia","stateName":"Jawa Timur","name":"Srono","lat":-8.40003,"lon":114.26661,"geocoding":{},"distantMaxMiles":5},"Sumberpucung":{"countryName":"Indonesia","stateName":"Jawa Timur","name":"Sumberpucung","lat":-8.15856,"lon":112.48292,"geocoding":{},"distantMaxMiles":5},"Sumenep":{"countryName":"Indonesia","stateName":"Jawa Timur","name":"Sumenep","lat":-7.01667,"lon":113.86667,"geocoding":{},"distantMaxMiles":5},"Surabaya":{"countryName":"Indonesia","stateName":"Jawa Timur","name":"Surabaya","lat":-7.24917,"lon":112.75083,"geocoding":{},"distantMaxMiles":5},"Tanggul":{"countryName":"Indonesia","stateName":"Jawa Timur","name":"Tanggul","lat":-8.1645,"lon":113.4525,"geocoding":{},"distantMaxMiles":5},"Tanggulangin":{"countryName":"Indonesia","stateName":"Jawa Timur","name":"Tanggulangin","lat":-7.49958,"lon":112.69992,"geocoding":{},"distantMaxMiles":5},"Trenggalek":{"countryName":"Indonesia","stateName":"Jawa Timur","name":"Trenggalek","lat":-8.0764,"lon":111.70641,"geocoding":{},"distantMaxMiles":5},"Tuban":{"countryName":"Indonesia","stateName":"Jawa Timur","name":"Tuban","lat":-6.8976,"lon":112.0649,"geocoding":{},"distantMaxMiles":5},"Tulangan Utara":{"countryName":"Indonesia","stateName":"Jawa Timur","name":"Tulangan Utara","lat":-7.4737,"lon":112.6505,"geocoding":{},"distantMaxMiles":5},"Tulungagung":{"countryName":"Indonesia","stateName":"Jawa Timur","name":"Tulungagung","lat":-8.0657,"lon":111.9025,"geocoding":{},"distantMaxMiles":5},"Wongsorejo":{"countryName":"Indonesia","stateName":"Jawa Timur","name":"Wongsorejo","lat":-7.9908,"lon":114.4009,"geocoding":{},"distantMaxMiles":5}}},"Kalimantan Barat":{"countryName":"Indonesia","name":"Kalimantan Barat","isoCode":"KA","lat":0.9618834,"lon":114.5548495,"geocoding":{},"distantMaxMiles":5,"cities":{}},"Kalimantan Selatan":{"countryName":"Indonesia","name":"Kalimantan Selatan","isoCode":"KS","lat":-3.0926415,"lon":115.2837585,"geocoding":{},"distantMaxMiles":5,"cities":{"Amuntai":{"countryName":"Indonesia","stateName":"Kalimantan Selatan","name":"Amuntai","lat":-2.41773,"lon":115.24941,"geocoding":{},"distantMaxMiles":5},"Banjarmasin":{"countryName":"Indonesia","stateName":"Kalimantan Selatan","name":"Banjarmasin","lat":-3.31987,"lon":114.59075,"geocoding":{},"distantMaxMiles":5},"Barabai":{"countryName":"Indonesia","stateName":"Kalimantan Selatan","name":"Barabai","lat":-2.58333,"lon":115.38333,"geocoding":{},"distantMaxMiles":5},"Kabupaten Balangan":{"countryName":"Indonesia","stateName":"Kalimantan Selatan","name":"Kabupaten Balangan","lat":-2.32314,"lon":115.62922,"geocoding":{},"distantMaxMiles":5},"Kabupaten Banjar":{"countryName":"Indonesia","stateName":"Kalimantan Selatan","name":"Kabupaten Banjar","lat":-3.31667,"lon":115.08333,"geocoding":{},"distantMaxMiles":5},"Kabupaten Barito Kuala":{"countryName":"Indonesia","stateName":"Kalimantan Selatan","name":"Kabupaten Barito Kuala","lat":-3.08333,"lon":114.61667,"geocoding":{},"distantMaxMiles":5},"Kabupaten Hulu Sungai Selatan":{"countryName":"Indonesia","stateName":"Kalimantan Selatan","name":"Kabupaten Hulu Sungai Selatan","lat":-2.75,"lon":115.2,"geocoding":{},"distantMaxMiles":5},"Kabupaten Hulu Sungai Tengah":{"countryName":"Indonesia","stateName":"Kalimantan Selatan","name":"Kabupaten Hulu Sungai Tengah","lat":-2.61667,"lon":115.41667,"geocoding":{},"distantMaxMiles":5},"Kabupaten Hulu Sungai Utara":{"countryName":"Indonesia","stateName":"Kalimantan Selatan","name":"Kabupaten Hulu Sungai Utara","lat":-2.45,"lon":115.13333,"geocoding":{},"distantMaxMiles":5},"Kabupaten Kota Baru":{"countryName":"Indonesia","stateName":"Kalimantan Selatan","name":"Kabupaten Kota Baru","lat":-3,"lon":116,"geocoding":{},"distantMaxMiles":5},"Kabupaten Tabalong":{"countryName":"Indonesia","stateName":"Kalimantan Selatan","name":"Kabupaten Tabalong","lat":-1.88333,"lon":115.5,"geocoding":{},"distantMaxMiles":5},"Kabupaten Tanah Bumbu":{"countryName":"Indonesia","stateName":"Kalimantan Selatan","name":"Kabupaten Tanah Bumbu","lat":-3.45413,"lon":115.70372,"geocoding":{},"distantMaxMiles":5},"Kabupaten Tanah Laut":{"countryName":"Indonesia","stateName":"Kalimantan Selatan","name":"Kabupaten Tanah Laut","lat":-3.88333,"lon":114.86667,"geocoding":{},"distantMaxMiles":5},"Kabupaten Tapin":{"countryName":"Indonesia","stateName":"Kalimantan Selatan","name":"Kabupaten Tapin","lat":-2.91667,"lon":115.03333,"geocoding":{},"distantMaxMiles":5},"Kota Banjar Baru":{"countryName":"Indonesia","stateName":"Kalimantan Selatan","name":"Kota Banjar Baru","lat":-3.41667,"lon":114.83333,"geocoding":{},"distantMaxMiles":5},"Kota Banjarmasin":{"countryName":"Indonesia","stateName":"Kalimantan Selatan","name":"Kota Banjarmasin","lat":-3.32444,"lon":114.59102,"geocoding":{},"distantMaxMiles":5},"Martapura":{"countryName":"Indonesia","stateName":"Kalimantan Selatan","name":"Martapura","lat":-3.4109,"lon":114.8642,"geocoding":{},"distantMaxMiles":5}}},"Kalimantan Tengah":{"countryName":"Indonesia","name":"Kalimantan Tengah","isoCode":"KT","lat":-1.6814878,"lon":113.3823545,"geocoding":{},"distantMaxMiles":5,"cities":{"Kabupaten Barito Selatan":{"countryName":"Indonesia","stateName":"Kalimantan Tengah","name":"Kabupaten Barito Selatan","lat":-1.86667,"lon":114.73333,"geocoding":{},"distantMaxMiles":5},"Kabupaten Barito Timur":{"countryName":"Indonesia","stateName":"Kalimantan Tengah","name":"Kabupaten Barito Timur","lat":-1.93333,"lon":115.1,"geocoding":{},"distantMaxMiles":5},"Kabupaten Barito Utara":{"countryName":"Indonesia","stateName":"Kalimantan Tengah","name":"Kabupaten Barito Utara","lat":-0.98333,"lon":115.1,"geocoding":{},"distantMaxMiles":5},"Kabupaten Gunung Mas":{"countryName":"Indonesia","stateName":"Kalimantan Tengah","name":"Kabupaten Gunung Mas","lat":-0.95,"lon":113.5,"geocoding":{},"distantMaxMiles":5},"Kabupaten Kapuas":{"countryName":"Indonesia","stateName":"Kalimantan Tengah","name":"Kabupaten Kapuas","lat":-2.01667,"lon":114.38333,"geocoding":{},"distantMaxMiles":5},"Kabupaten Katingan":{"countryName":"Indonesia","stateName":"Kalimantan Tengah","name":"Kabupaten Katingan","lat":-2.06667,"lon":113.4,"geocoding":{},"distantMaxMiles":5},"Kabupaten Kotawaringin Barat":{"countryName":"Indonesia","stateName":"Kalimantan Tengah","name":"Kabupaten Kotawaringin Barat","lat":-2.4,"lon":111.73333,"geocoding":{},"distantMaxMiles":5},"Kabupaten Kotawaringin Timur":{"countryName":"Indonesia","stateName":"Kalimantan Tengah","name":"Kabupaten Kotawaringin Timur","lat":-2.08333,"lon":112.75,"geocoding":{},"distantMaxMiles":5},"Kabupaten Lamandau":{"countryName":"Indonesia","stateName":"Kalimantan Tengah","name":"Kabupaten Lamandau","lat":-1.83828,"lon":111.2869,"geocoding":{},"distantMaxMiles":5},"Kabupaten Murung Raya":{"countryName":"Indonesia","stateName":"Kalimantan Tengah","name":"Kabupaten Murung Raya","lat":-0.01667,"lon":114.26667,"geocoding":{},"distantMaxMiles":5},"Kabupaten Pulang Pisau":{"countryName":"Indonesia","stateName":"Kalimantan Tengah","name":"Kabupaten Pulang Pisau","lat":-3.11858,"lon":113.8623,"geocoding":{},"distantMaxMiles":5},"Kabupaten Seruyan":{"countryName":"Indonesia","stateName":"Kalimantan Tengah","name":"Kabupaten Seruyan","lat":-2.33333,"lon":112.25,"geocoding":{},"distantMaxMiles":5},"Kabupaten Sukamara":{"countryName":"Indonesia","stateName":"Kalimantan Tengah","name":"Kabupaten Sukamara","lat":-2.62675,"lon":111.23681,"geocoding":{},"distantMaxMiles":5},"Kota Palangka Raya":{"countryName":"Indonesia","stateName":"Kalimantan Tengah","name":"Kota Palangka Raya","lat":-1.76979,"lon":113.73126,"geocoding":{},"distantMaxMiles":5},"Kualakapuas":{"countryName":"Indonesia","stateName":"Kalimantan Tengah","name":"Kualakapuas","lat":-3.00913,"lon":114.38759,"geocoding":{},"distantMaxMiles":5},"Palangkaraya":{"countryName":"Indonesia","stateName":"Kalimantan Tengah","name":"Palangkaraya","lat":-2.20833,"lon":113.91667,"geocoding":{},"distantMaxMiles":5},"Pangkalanbuun":{"countryName":"Indonesia","stateName":"Kalimantan Tengah","name":"Pangkalanbuun","lat":-2.6832,"lon":111.6259,"geocoding":{},"distantMaxMiles":5},"Sampit":{"countryName":"Indonesia","stateName":"Kalimantan Tengah","name":"Sampit","lat":-2.5315,"lon":112.9496,"geocoding":{},"distantMaxMiles":5}}},"Kalimantan Timur":{"countryName":"Indonesia","name":"Kalimantan Timur","isoCode":"KI","lat":0.5386586,"lon":116.419389,"geocoding":{},"distantMaxMiles":5,"cities":{"Balikpapan":{"countryName":"Indonesia","stateName":"Kalimantan Timur","name":"Balikpapan","lat":-1.26753,"lon":116.82887,"geocoding":{},"distantMaxMiles":5},"Bontang":{"countryName":"Indonesia","stateName":"Kalimantan Timur","name":"Bontang","lat":0.1324,"lon":117.4854,"geocoding":{},"distantMaxMiles":5},"City of Balikpapan":{"countryName":"Indonesia","stateName":"Kalimantan Timur","name":"City of Balikpapan","lat":-1.24204,"lon":116.89419,"geocoding":{},"distantMaxMiles":5},"Kabupaten Berau":{"countryName":"Indonesia","stateName":"Kalimantan Timur","name":"Kabupaten Berau","lat":2,"lon":117.3,"geocoding":{},"distantMaxMiles":5},"Kabupaten Kutai Barat":{"countryName":"Indonesia","stateName":"Kalimantan Timur","name":"Kabupaten Kutai Barat","lat":-0.59417,"lon":115.51575,"geocoding":{},"distantMaxMiles":5},"Kabupaten Kutai Kartanegara":{"countryName":"Indonesia","stateName":"Kalimantan Timur","name":"Kabupaten Kutai Kartanegara","lat":-0.44019,"lon":116.98139,"geocoding":{},"distantMaxMiles":5},"Kabupaten Kutai Timur":{"countryName":"Indonesia","stateName":"Kalimantan Timur","name":"Kabupaten Kutai Timur","lat":1.03769,"lon":117.83112,"geocoding":{},"distantMaxMiles":5},"Kabupaten Mahakam Hulu":{"countryName":"Indonesia","stateName":"Kalimantan Timur","name":"Kabupaten Mahakam Hulu","lat":0.37822,"lon":115.38048,"geocoding":{},"distantMaxMiles":5},"Kabupaten Paser":{"countryName":"Indonesia","stateName":"Kalimantan Timur","name":"Kabupaten Paser","lat":-1.43517,"lon":116.23535,"geocoding":{},"distantMaxMiles":5},"Kabupaten Penajam Paser Utara":{"countryName":"Indonesia","stateName":"Kalimantan Timur","name":"Kabupaten Penajam Paser Utara","lat":-1.25,"lon":116.83333,"geocoding":{},"distantMaxMiles":5},"Kota Balikpapan":{"countryName":"Indonesia","stateName":"Kalimantan Timur","name":"Kota Balikpapan","lat":-1.16667,"lon":116.88333,"geocoding":{},"distantMaxMiles":5},"Kota Bontang":{"countryName":"Indonesia","stateName":"Kalimantan Timur","name":"Kota Bontang","lat":0.12526,"lon":117.49603,"geocoding":{},"distantMaxMiles":5},"Kota Samarinda":{"countryName":"Indonesia","stateName":"Kalimantan Timur","name":"Kota Samarinda","lat":-0.43333,"lon":117.18333,"geocoding":{},"distantMaxMiles":5},"Loa Janan":{"countryName":"Indonesia","stateName":"Kalimantan Timur","name":"Loa Janan","lat":-0.58295,"lon":117.09503,"geocoding":{},"distantMaxMiles":5},"Samarinda":{"countryName":"Indonesia","stateName":"Kalimantan Timur","name":"Samarinda","lat":-0.49167,"lon":117.14583,"geocoding":{},"distantMaxMiles":5}}},"Kalimantan Utara":{"countryName":"Indonesia","name":"Kalimantan Utara","isoCode":"KU","lat":3.0730929,"lon":116.0413889,"geocoding":{},"distantMaxMiles":5,"cities":{"Kabupaten Bulungan":{"countryName":"Indonesia","stateName":"Kalimantan Utara","name":"Kabupaten Bulungan","lat":3,"lon":117.16667,"geocoding":{},"distantMaxMiles":5},"Kabupaten Malinau":{"countryName":"Indonesia","stateName":"Kalimantan Utara","name":"Kabupaten Malinau","lat":2.45,"lon":115.68333,"geocoding":{},"distantMaxMiles":5},"Kabupaten Nunukan":{"countryName":"Indonesia","stateName":"Kalimantan Utara","name":"Kabupaten Nunukan","lat":4.13333,"lon":116.7,"geocoding":{},"distantMaxMiles":5},"Kabupaten Tana Tidung":{"countryName":"Indonesia","stateName":"Kalimantan Utara","name":"Kabupaten Tana Tidung","lat":3.55,"lon":117.25,"geocoding":{},"distantMaxMiles":5},"Tanjung Selor":{"countryName":"Indonesia","stateName":"Kalimantan Utara","name":"Tanjung Selor","lat":2.8375,"lon":117.36528,"geocoding":{},"distantMaxMiles":5},"Tarakan":{"countryName":"Indonesia","stateName":"Kalimantan Utara","name":"Tarakan","lat":3.31332,"lon":117.59152,"geocoding":{},"distantMaxMiles":5}}},"Kepulauan Bangka Belitung":{"countryName":"Indonesia","name":"Kepulauan Bangka Belitung","isoCode":"BB","lat":-2.7410513,"lon":106.4405872,"geocoding":{},"distantMaxMiles":5,"cities":{"Kabupaten Bangka":{"countryName":"Indonesia","stateName":"Kepulauan Bangka Belitung","name":"Kabupaten Bangka","lat":-1.91667,"lon":105.93333,"geocoding":{},"distantMaxMiles":5},"Kabupaten Bangka Barat":{"countryName":"Indonesia","stateName":"Kepulauan Bangka Belitung","name":"Kabupaten Bangka Barat","lat":-1.95839,"lon":105.53741,"geocoding":{},"distantMaxMiles":5},"Kabupaten Bangka Selatan":{"countryName":"Indonesia","stateName":"Kepulauan Bangka Belitung","name":"Kabupaten Bangka Selatan","lat":-2.66803,"lon":106.01257,"geocoding":{},"distantMaxMiles":5},"Kabupaten Bangka Tengah":{"countryName":"Indonesia","stateName":"Kepulauan Bangka Belitung","name":"Kabupaten Bangka Tengah","lat":-2.33989,"lon":106.1142,"geocoding":{},"distantMaxMiles":5},"Kabupaten Belitung":{"countryName":"Indonesia","stateName":"Kepulauan Bangka Belitung","name":"Kabupaten Belitung","lat":-2.86667,"lon":107.7,"geocoding":{},"distantMaxMiles":5},"Kabupaten Belitung Timur":{"countryName":"Indonesia","stateName":"Kepulauan Bangka Belitung","name":"Kabupaten Belitung Timur","lat":-2.9627,"lon":108.15216,"geocoding":{},"distantMaxMiles":5},"Kota Pangkal Pinang":{"countryName":"Indonesia","stateName":"Kepulauan Bangka Belitung","name":"Kota Pangkal Pinang","lat":-2.13333,"lon":106.13333,"geocoding":{},"distantMaxMiles":5},"Manggar":{"countryName":"Indonesia","stateName":"Kepulauan Bangka Belitung","name":"Manggar","lat":-2.88333,"lon":108.26667,"geocoding":{},"distantMaxMiles":5},"Muntok":{"countryName":"Indonesia","stateName":"Kepulauan Bangka Belitung","name":"Muntok","lat":-2.06719,"lon":105.16228,"geocoding":{},"distantMaxMiles":5},"Pangkalpinang":{"countryName":"Indonesia","stateName":"Kepulauan Bangka Belitung","name":"Pangkalpinang","lat":-2.12914,"lon":106.11377,"geocoding":{},"distantMaxMiles":5},"Sungailiat":{"countryName":"Indonesia","stateName":"Kepulauan Bangka Belitung","name":"Sungailiat","lat":-1.85442,"lon":106.12215,"geocoding":{},"distantMaxMiles":5},"Tanjung Pandan":{"countryName":"Indonesia","stateName":"Kepulauan Bangka Belitung","name":"Tanjung Pandan","lat":-2.73353,"lon":107.63477,"geocoding":{},"distantMaxMiles":5}}},"Kepulauan Riau":{"countryName":"Indonesia","name":"Kepulauan Riau","isoCode":"KR","lat":3.9456514,"lon":108.1428669,"geocoding":{},"distantMaxMiles":5,"cities":{"Kabupaten Bintan":{"countryName":"Indonesia","stateName":"Kepulauan Riau","name":"Kabupaten Bintan","lat":0.95,"lon":104.61944,"geocoding":{},"distantMaxMiles":5},"Kabupaten Karimun":{"countryName":"Indonesia","stateName":"Kepulauan Riau","name":"Kabupaten Karimun","lat":0.80764,"lon":103.41911,"geocoding":{},"distantMaxMiles":5},"Kabupaten Kepulauan Anambas":{"countryName":"Indonesia","stateName":"Kepulauan Riau","name":"Kabupaten Kepulauan Anambas","lat":3,"lon":106,"geocoding":{},"distantMaxMiles":5},"Kabupaten Lingga":{"countryName":"Indonesia","stateName":"Kepulauan Riau","name":"Kabupaten Lingga","lat":0.2,"lon":104.61667,"geocoding":{},"distantMaxMiles":5},"Kabupaten Natuna":{"countryName":"Indonesia","stateName":"Kepulauan Riau","name":"Kabupaten Natuna","lat":4.71417,"lon":107.97639,"geocoding":{},"distantMaxMiles":5},"Kijang":{"countryName":"Indonesia","stateName":"Kepulauan Riau","name":"Kijang","lat":0.9,"lon":104.63333,"geocoding":{},"distantMaxMiles":5},"Kota Batam":{"countryName":"Indonesia","stateName":"Kepulauan Riau","name":"Kota Batam","lat":1.05211,"lon":104.02851,"geocoding":{},"distantMaxMiles":5},"Kota Tanjung Pinang":{"countryName":"Indonesia","stateName":"Kepulauan Riau","name":"Kota Tanjung Pinang","lat":0.91683,"lon":104.44329,"geocoding":{},"distantMaxMiles":5},"Tanjung Pinang":{"countryName":"Indonesia","stateName":"Kepulauan Riau","name":"Tanjung Pinang","lat":0.91667,"lon":104.45833,"geocoding":{},"distantMaxMiles":5}}},"Lampung":{"countryName":"Indonesia","name":"Lampung","isoCode":"LA","lat":-4.5585849,"lon":105.4068079,"geocoding":{},"distantMaxMiles":5,"cities":{"Bandar Lampung":{"countryName":"Indonesia","stateName":"Lampung","name":"Bandar Lampung","lat":-5.42917,"lon":105.26111,"geocoding":{},"distantMaxMiles":5},"Kabupaten Lampung Barat":{"countryName":"Indonesia","stateName":"Lampung","name":"Kabupaten Lampung Barat","lat":-5.14904,"lon":104.19309,"geocoding":{},"distantMaxMiles":5},"Kabupaten Lampung Selatan":{"countryName":"Indonesia","stateName":"Lampung","name":"Kabupaten Lampung Selatan","lat":-5.4531,"lon":104.9877,"geocoding":{},"distantMaxMiles":5},"Kabupaten Lampung Tengah":{"countryName":"Indonesia","stateName":"Lampung","name":"Kabupaten Lampung Tengah","lat":-4.86667,"lon":105.26667,"geocoding":{},"distantMaxMiles":5},"Kabupaten Lampung Timur":{"countryName":"Indonesia","stateName":"Lampung","name":"Kabupaten Lampung Timur","lat":-5.10273,"lon":105.68003,"geocoding":{},"distantMaxMiles":5},"Kabupaten Lampung Utara":{"countryName":"Indonesia","stateName":"Lampung","name":"Kabupaten Lampung Utara","lat":-4.81667,"lon":104.8,"geocoding":{},"distantMaxMiles":5},"Kabupaten Mesuji":{"countryName":"Indonesia","stateName":"Lampung","name":"Kabupaten Mesuji","lat":-4.0439,"lon":105.4013,"geocoding":{},"distantMaxMiles":5},"Kabupaten Pesawaran":{"countryName":"Indonesia","stateName":"Lampung","name":"Kabupaten Pesawaran","lat":-5.4298,"lon":105.17899,"geocoding":{},"distantMaxMiles":5},"Kabupaten Pesisir Barat":{"countryName":"Indonesia","stateName":"Lampung","name":"Kabupaten Pesisir Barat","lat":-5.19323,"lon":103.93976,"geocoding":{},"distantMaxMiles":5},"Kabupaten Pringsewu":{"countryName":"Indonesia","stateName":"Lampung","name":"Kabupaten Pringsewu","lat":-5.42211,"lon":104.93454,"geocoding":{},"distantMaxMiles":5},"Kabupaten Tanggamus":{"countryName":"Indonesia","stateName":"Lampung","name":"Kabupaten Tanggamus","lat":-5.38508,"lon":104.62349,"geocoding":{},"distantMaxMiles":5},"Kabupaten Tulangbawang":{"countryName":"Indonesia","stateName":"Lampung","name":"Kabupaten Tulangbawang","lat":-4.20604,"lon":105.57999,"geocoding":{},"distantMaxMiles":5},"Kabupaten Way Kanan":{"countryName":"Indonesia","stateName":"Lampung","name":"Kabupaten Way Kanan","lat":-4.44705,"lon":104.52753,"geocoding":{},"distantMaxMiles":5},"Kota Bandar Lampung":{"countryName":"Indonesia","stateName":"Lampung","name":"Kota Bandar Lampung","lat":-5.41667,"lon":105.25,"geocoding":{},"distantMaxMiles":5},"Kota Metro":{"countryName":"Indonesia","stateName":"Lampung","name":"Kota Metro","lat":-5.11856,"lon":105.29949,"geocoding":{},"distantMaxMiles":5},"Kotabumi":{"countryName":"Indonesia","stateName":"Lampung","name":"Kotabumi","lat":-4.82505,"lon":104.8817,"geocoding":{},"distantMaxMiles":5},"Metro":{"countryName":"Indonesia","stateName":"Lampung","name":"Metro","lat":-5.11306,"lon":105.30667,"geocoding":{},"distantMaxMiles":5},"Terbanggi Besar":{"countryName":"Indonesia","stateName":"Lampung","name":"Terbanggi Besar","lat":-4.87898,"lon":105.21818,"geocoding":{},"distantMaxMiles":5}}},"Maluku":{"countryName":"Indonesia","name":"Maluku","isoCode":"MA","lat":-3.2384616,"lon":130.1452734,"geocoding":{},"distantMaxMiles":5,"cities":{"Amahai":{"countryName":"Indonesia","stateName":"Maluku","name":"Amahai","lat":-3.33984,"lon":128.91975,"geocoding":{},"distantMaxMiles":5},"Ambon":{"countryName":"Indonesia","stateName":"Maluku","name":"Ambon","lat":-3.69583,"lon":128.18333,"geocoding":{},"distantMaxMiles":5},"Kabupaten Buru":{"countryName":"Indonesia","stateName":"Maluku","name":"Kabupaten Buru","lat":-3.32767,"lon":126.68413,"geocoding":{},"distantMaxMiles":5},"Kabupaten Buru Selatan":{"countryName":"Indonesia","stateName":"Maluku","name":"Kabupaten Buru Selatan","lat":-3.52187,"lon":126.59271,"geocoding":{},"distantMaxMiles":5},"Kabupaten Kepulauan Aru":{"countryName":"Indonesia","stateName":"Maluku","name":"Kabupaten Kepulauan Aru","lat":-6.17059,"lon":134.46991,"geocoding":{},"distantMaxMiles":5},"Kabupaten Maluku Barat Daya":{"countryName":"Indonesia","stateName":"Maluku","name":"Kabupaten Maluku Barat Daya","lat":-7.8296,"lon":126.17386,"geocoding":{},"distantMaxMiles":5},"Kabupaten Maluku Tengah":{"countryName":"Indonesia","stateName":"Maluku","name":"Kabupaten Maluku Tengah","lat":-3.29167,"lon":128.9675,"geocoding":{},"distantMaxMiles":5},"Kabupaten Maluku Tenggara":{"countryName":"Indonesia","stateName":"Maluku","name":"Kabupaten Maluku Tenggara","lat":-5.75,"lon":132.73333,"geocoding":{},"distantMaxMiles":5},"Kabupaten Maluku Tenggara Barat":{"countryName":"Indonesia","stateName":"Maluku","name":"Kabupaten Maluku Tenggara Barat","lat":-7.61186,"lon":131.38,"geocoding":{},"distantMaxMiles":5},"Kabupaten Seram Bagian Barat":{"countryName":"Indonesia","stateName":"Maluku","name":"Kabupaten Seram Bagian Barat","lat":-3.1027,"lon":128.42996,"geocoding":{},"distantMaxMiles":5},"Kabupaten Seram Bagian Timur":{"countryName":"Indonesia","stateName":"Maluku","name":"Kabupaten Seram Bagian Timur","lat":-3.39851,"lon":130.39167,"geocoding":{},"distantMaxMiles":5},"Kota Ambon":{"countryName":"Indonesia","stateName":"Maluku","name":"Kota Ambon","lat":-3.7,"lon":128.18333,"geocoding":{},"distantMaxMiles":5},"Kota Tual":{"countryName":"Indonesia","stateName":"Maluku","name":"Kota Tual","lat":-5.64301,"lon":132.74935,"geocoding":{},"distantMaxMiles":5},"Tual":{"countryName":"Indonesia","stateName":"Maluku","name":"Tual","lat":-5.62878,"lon":132.75229,"geocoding":{},"distantMaxMiles":5}}},"Maluku Utara":{"countryName":"Indonesia","name":"Maluku Utara","isoCode":"MU","lat":1.5709993,"lon":127.8087693,"geocoding":{},"distantMaxMiles":5,"cities":{"East Halmahera Regency":{"countryName":"Indonesia","stateName":"Maluku Utara","name":"East Halmahera Regency","lat":1.33517,"lon":128.48627,"geocoding":{},"distantMaxMiles":5},"Kabupaten Halmahera Barat":{"countryName":"Indonesia","stateName":"Maluku Utara","name":"Kabupaten Halmahera Barat","lat":1.41709,"lon":127.55264,"geocoding":{},"distantMaxMiles":5},"Kabupaten Halmahera Selatan":{"countryName":"Indonesia","stateName":"Maluku Utara","name":"Kabupaten Halmahera Selatan","lat":-0.3955,"lon":127.90833,"geocoding":{},"distantMaxMiles":5},"Kabupaten Halmahera Tengah":{"countryName":"Indonesia","stateName":"Maluku Utara","name":"Kabupaten Halmahera Tengah","lat":0.48056,"lon":128.25,"geocoding":{},"distantMaxMiles":5},"Kabupaten Halmahera Utara":{"countryName":"Indonesia","stateName":"Maluku Utara","name":"Kabupaten Halmahera Utara","lat":1.73194,"lon":128.00778,"geocoding":{},"distantMaxMiles":5},"Kabupaten Kepulauan Sula":{"countryName":"Indonesia","stateName":"Maluku Utara","name":"Kabupaten Kepulauan Sula","lat":-1.8646,"lon":125.69046,"geocoding":{},"distantMaxMiles":5},"Kabupaten Pulau Morotai":{"countryName":"Indonesia","stateName":"Maluku Utara","name":"Kabupaten Pulau Morotai","lat":2.19924,"lon":128.40546,"geocoding":{},"distantMaxMiles":5},"Kabupaten Pulau Taliabu":{"countryName":"Indonesia","stateName":"Maluku Utara","name":"Kabupaten Pulau Taliabu","lat":-1.84578,"lon":124.78992,"geocoding":{},"distantMaxMiles":5},"Kota Ternate":{"countryName":"Indonesia","stateName":"Maluku Utara","name":"Kota Ternate","lat":0.89618,"lon":127.31016,"geocoding":{},"distantMaxMiles":5},"Kota Tidore Kepulauan":{"countryName":"Indonesia","stateName":"Maluku Utara","name":"Kota Tidore Kepulauan","lat":0.60962,"lon":127.56981,"geocoding":{},"distantMaxMiles":5},"Sofifi":{"countryName":"Indonesia","stateName":"Maluku Utara","name":"Sofifi","lat":0.73729,"lon":127.5588,"geocoding":{},"distantMaxMiles":5},"Ternate":{"countryName":"Indonesia","stateName":"Maluku Utara","name":"Ternate","lat":0.79065,"lon":127.38424,"geocoding":{},"distantMaxMiles":5},"Tobelo":{"countryName":"Indonesia","stateName":"Maluku Utara","name":"Tobelo","lat":1.72837,"lon":128.00948,"geocoding":{},"distantMaxMiles":5}}},"Nusa Tenggara Barat":{"countryName":"Indonesia","name":"Nusa Tenggara Barat","isoCode":"NB","lat":-8.6529334,"lon":117.3616476,"geocoding":{},"distantMaxMiles":5,"cities":{"Bima":{"countryName":"Indonesia","stateName":"Nusa Tenggara Barat","name":"Bima","lat":-8.46006,"lon":118.72667,"geocoding":{},"distantMaxMiles":5},"Dompu":{"countryName":"Indonesia","stateName":"Nusa Tenggara Barat","name":"Dompu","lat":-8.5365,"lon":118.4634,"geocoding":{},"distantMaxMiles":5},"Gili Air":{"countryName":"Indonesia","stateName":"Nusa Tenggara Barat","name":"Gili Air","lat":-8.35783,"lon":116.0824,"geocoding":{},"distantMaxMiles":5},"Kabupaten Bima":{"countryName":"Indonesia","stateName":"Nusa Tenggara Barat","name":"Kabupaten Bima","lat":-8.6,"lon":118.61667,"geocoding":{},"distantMaxMiles":5},"Kabupaten Dompu":{"countryName":"Indonesia","stateName":"Nusa Tenggara Barat","name":"Kabupaten Dompu","lat":-8.5094,"lon":118.4816,"geocoding":{},"distantMaxMiles":5},"Kabupaten Lombok Barat":{"countryName":"Indonesia","stateName":"Nusa Tenggara Barat","name":"Kabupaten Lombok Barat","lat":-8.69583,"lon":116.11667,"geocoding":{},"distantMaxMiles":5},"Kabupaten Lombok Tengah":{"countryName":"Indonesia","stateName":"Nusa Tenggara Barat","name":"Kabupaten Lombok Tengah","lat":-8.7,"lon":116.3,"geocoding":{},"distantMaxMiles":5},"Kabupaten Lombok Timur":{"countryName":"Indonesia","stateName":"Nusa Tenggara Barat","name":"Kabupaten Lombok Timur","lat":-8.53333,"lon":116.53333,"geocoding":{},"distantMaxMiles":5},"Kabupaten Lombok Utara":{"countryName":"Indonesia","stateName":"Nusa Tenggara Barat","name":"Kabupaten Lombok Utara","lat":-8.35214,"lon":116.40152,"geocoding":{},"distantMaxMiles":5},"Kabupaten Sumbawa":{"countryName":"Indonesia","stateName":"Nusa Tenggara Barat","name":"Kabupaten Sumbawa","lat":-8.7439,"lon":117.3324,"geocoding":{},"distantMaxMiles":5},"Kabupaten Sumbawa Barat":{"countryName":"Indonesia","stateName":"Nusa Tenggara Barat","name":"Kabupaten Sumbawa Barat","lat":-8.75159,"lon":116.92132,"geocoding":{},"distantMaxMiles":5},"Kota Bima":{"countryName":"Indonesia","stateName":"Nusa Tenggara Barat","name":"Kota Bima","lat":-8.46728,"lon":118.75259,"geocoding":{},"distantMaxMiles":5},"Kota Mataram":{"countryName":"Indonesia","stateName":"Nusa Tenggara Barat","name":"Kota Mataram","lat":-8.5833,"lon":116.1167,"geocoding":{},"distantMaxMiles":5},"Labuan Lombok":{"countryName":"Indonesia","stateName":"Nusa Tenggara Barat","name":"Labuan Lombok","lat":-8.5,"lon":116.66667,"geocoding":{},"distantMaxMiles":5},"Lembar":{"countryName":"Indonesia","stateName":"Nusa Tenggara Barat","name":"Lembar","lat":-8.7264,"lon":116.0744,"geocoding":{},"distantMaxMiles":5},"Mataram":{"countryName":"Indonesia","stateName":"Nusa Tenggara Barat","name":"Mataram","lat":-8.58333,"lon":116.11667,"geocoding":{},"distantMaxMiles":5},"Pemenang":{"countryName":"Indonesia","stateName":"Nusa Tenggara Barat","name":"Pemenang","lat":-8.40401,"lon":116.10255,"geocoding":{},"distantMaxMiles":5},"Pototano":{"countryName":"Indonesia","stateName":"Nusa Tenggara Barat","name":"Pototano","lat":-8.4126,"lon":117.4811,"geocoding":{},"distantMaxMiles":5},"Praya":{"countryName":"Indonesia","stateName":"Nusa Tenggara Barat","name":"Praya","lat":-8.70536,"lon":116.27036,"geocoding":{},"distantMaxMiles":5},"Senggigi":{"countryName":"Indonesia","stateName":"Nusa Tenggara Barat","name":"Senggigi","lat":-8.4919,"lon":116.0424,"geocoding":{},"distantMaxMiles":5},"Sumbawa Besar":{"countryName":"Indonesia","stateName":"Nusa Tenggara Barat","name":"Sumbawa Besar","lat":-8.49317,"lon":117.42024,"geocoding":{},"distantMaxMiles":5}}},"Nusa Tenggara Timur":{"countryName":"Indonesia","name":"Nusa Tenggara Timur","isoCode":"NT","lat":-8.6573819,"lon":121.0793705,"geocoding":{},"distantMaxMiles":5,"cities":{"Atambua":{"countryName":"Indonesia","stateName":"Nusa Tenggara Timur","name":"Atambua","lat":-9.10611,"lon":124.8925,"geocoding":{},"distantMaxMiles":5},"Ende":{"countryName":"Indonesia","stateName":"Nusa Tenggara Timur","name":"Ende","lat":-8.8432,"lon":121.6623,"geocoding":{},"distantMaxMiles":5},"Kabupaten Alor":{"countryName":"Indonesia","stateName":"Nusa Tenggara Timur","name":"Kabupaten Alor","lat":-8.3,"lon":124.56667,"geocoding":{},"distantMaxMiles":5},"Kabupaten Belu":{"countryName":"Indonesia","stateName":"Nusa Tenggara Timur","name":"Kabupaten Belu","lat":-9.41258,"lon":124.95066,"geocoding":{},"distantMaxMiles":5},"Kabupaten Ende":{"countryName":"Indonesia","stateName":"Nusa Tenggara Timur","name":"Kabupaten Ende","lat":-8.84056,"lon":121.66389,"geocoding":{},"distantMaxMiles":5},"Kabupaten Flores Timur":{"countryName":"Indonesia","stateName":"Nusa Tenggara Timur","name":"Kabupaten Flores Timur","lat":-8.24224,"lon":122.96817,"geocoding":{},"distantMaxMiles":5},"Kabupaten Kupang":{"countryName":"Indonesia","stateName":"Nusa Tenggara Timur","name":"Kabupaten Kupang","lat":-9.91667,"lon":123.83333,"geocoding":{},"distantMaxMiles":5},"Kabupaten Lembata":{"countryName":"Indonesia","stateName":"Nusa Tenggara Timur","name":"Kabupaten Lembata","lat":-8.41396,"lon":123.55225,"geocoding":{},"distantMaxMiles":5},"Kabupaten Malaka":{"countryName":"Indonesia","stateName":"Nusa Tenggara Timur","name":"Kabupaten Malaka","lat":-9.5632,"lon":124.89481,"geocoding":{},"distantMaxMiles":5},"Kabupaten Manggarai":{"countryName":"Indonesia","stateName":"Nusa Tenggara Timur","name":"Kabupaten Manggarai","lat":-8.56667,"lon":120.41667,"geocoding":{},"distantMaxMiles":5},"Kabupaten Manggarai Barat":{"countryName":"Indonesia","stateName":"Nusa Tenggara Timur","name":"Kabupaten Manggarai Barat","lat":-8.64484,"lon":119.88281,"geocoding":{},"distantMaxMiles":5},"Kabupaten Manggarai Timur":{"countryName":"Indonesia","stateName":"Nusa Tenggara Timur","name":"Kabupaten Manggarai Timur","lat":-8.55533,"lon":120.59761,"geocoding":{},"distantMaxMiles":5},"Kabupaten Nagekeo":{"countryName":"Indonesia","stateName":"Nusa Tenggara Timur","name":"Kabupaten Nagekeo","lat":-8.8721,"lon":121.20963,"geocoding":{},"distantMaxMiles":5},"Kabupaten Ngada":{"countryName":"Indonesia","stateName":"Nusa Tenggara Timur","name":"Kabupaten Ngada","lat":-8.66667,"lon":121,"geocoding":{},"distantMaxMiles":5},"Kabupaten Rote Ndao":{"countryName":"Indonesia","stateName":"Nusa Tenggara Timur","name":"Kabupaten Rote Ndao","lat":-10.73617,"lon":123.12054,"geocoding":{},"distantMaxMiles":5},"Kabupaten Sabu Raijua":{"countryName":"Indonesia","stateName":"Nusa Tenggara Timur","name":"Kabupaten Sabu Raijua","lat":-10.56286,"lon":121.78894,"geocoding":{},"distantMaxMiles":5},"Kabupaten Sikka":{"countryName":"Indonesia","stateName":"Nusa Tenggara Timur","name":"Kabupaten Sikka","lat":-8.66667,"lon":122.36667,"geocoding":{},"distantMaxMiles":5},"Kabupaten Sumba Barat":{"countryName":"Indonesia","stateName":"Nusa Tenggara Timur","name":"Kabupaten Sumba Barat","lat":-9.56667,"lon":119.45,"geocoding":{},"distantMaxMiles":5},"Kabupaten Sumba Barat Daya":{"countryName":"Indonesia","stateName":"Nusa Tenggara Timur","name":"Kabupaten Sumba Barat Daya","lat":-9.56216,"lon":119.08905,"geocoding":{},"distantMaxMiles":5},"Kabupaten Sumba Tengah":{"countryName":"Indonesia","stateName":"Nusa Tenggara Timur","name":"Kabupaten Sumba Tengah","lat":-9.62941,"lon":119.61914,"geocoding":{},"distantMaxMiles":5},"Kabupaten Sumba Timur":{"countryName":"Indonesia","stateName":"Nusa Tenggara Timur","name":"Kabupaten Sumba Timur","lat":-9.88333,"lon":120.25,"geocoding":{},"distantMaxMiles":5},