{"name":"Tunisia","isoCode":"TN","lat":34,"lon":9,"geocoding":{},"distantMaxMiles":5,"states":{"Ariana Governorate":{"countryName":"Tunisia","name":"Ariana Governorate","isoCode":"12","lat":36.9922751,"lon":10.1255164,"geocoding":{},"distantMaxMiles":5,"cities":{"Ariana":{"countryName":"Tunisia","stateName":"Ariana Governorate","name":"Ariana","lat":36.86012,"lon":10.19337,"geocoding":{},"distantMaxMiles":5},"Galaat el Andeless":{"countryName":"Tunisia","stateName":"Ariana Governorate","name":"Galaat el Andeless","lat":37.0629,"lon":10.11829,"geocoding":{},"distantMaxMiles":5}}},"Ben Arous Governorate":{"countryName":"Tunisia","name":"Ben Arous Governorate","isoCode":"13","lat":36.6435606,"lon":10.2151578,"geocoding":{},"distantMaxMiles":5,"cities":{"Ben Arous":{"countryName":"Tunisia","stateName":"Ben Arous Governorate","name":"Ben Arous","lat":36.75452,"lon":10.22167,"geocoding":{},"distantMaxMiles":5},"Hammam Lif":{"countryName":"Tunisia","stateName":"Ben Arous Governorate","name":"Hammam Lif","lat":36.71919,"lon":10.32233,"geocoding":{},"distantMaxMiles":5},"Hammam-Lif":{"countryName":"Tunisia","stateName":"Ben Arous Governorate","name":"Hammam-Lif","lat":36.72866,"lon":10.34163,"geocoding":{},"distantMaxMiles":5},"La Sebala du Mornag":{"countryName":"Tunisia","stateName":"Ben Arous Governorate","name":"La Sebala du Mornag","lat":36.67931,"lon":10.29195,"geocoding":{},"distantMaxMiles":5},"Radès":{"countryName":"Tunisia","stateName":"Ben Arous Governorate","name":"Radès","lat":36.76946,"lon":10.27468,"geocoding":{},"distantMaxMiles":5}}},"Bizerte Governorate":{"countryName":"Tunisia","name":"Bizerte Governorate","isoCode":"23","lat":37.1609397,"lon":9.634135,"geocoding":{},"distantMaxMiles":5,"cities":{"Al Matlīn":{"countryName":"Tunisia","stateName":"Bizerte Governorate","name":"Al Matlīn","lat":37.24516,"lon":10.05,"geocoding":{},"distantMaxMiles":5},"Bizerte":{"countryName":"Tunisia","stateName":"Bizerte Governorate","name":"Bizerte","lat":37.27442,"lon":9.87391,"geocoding":{},"distantMaxMiles":5},"Bizerte Sud":{"countryName":"Tunisia","stateName":"Bizerte Governorate","name":"Bizerte Sud","lat":37.25528,"lon":9.67915,"geocoding":{},"distantMaxMiles":5},"Douar Tindja":{"countryName":"Tunisia","stateName":"Bizerte Governorate","name":"Douar Tindja","lat":37.16667,"lon":9.75,"geocoding":{},"distantMaxMiles":5},"El Alia":{"countryName":"Tunisia","stateName":"Bizerte Governorate","name":"El Alia","lat":37.16911,"lon":10.03478,"geocoding":{},"distantMaxMiles":5},"Mateur":{"countryName":"Tunisia","stateName":"Bizerte Governorate","name":"Mateur","lat":37.04045,"lon":9.66557,"geocoding":{},"distantMaxMiles":5},"Menzel Abderhaman":{"countryName":"Tunisia","stateName":"Bizerte Governorate","name":"Menzel Abderhaman","lat":37.23737,"lon":9.86313,"geocoding":{},"distantMaxMiles":5},"Menzel Bourguiba":{"countryName":"Tunisia","stateName":"Bizerte Governorate","name":"Menzel Bourguiba","lat":37.15368,"lon":9.78594,"geocoding":{},"distantMaxMiles":5},"Menzel Jemil":{"countryName":"Tunisia","stateName":"Bizerte Governorate","name":"Menzel Jemil","lat":37.23618,"lon":9.91448,"geocoding":{},"distantMaxMiles":5},"Rafrāf":{"countryName":"Tunisia","stateName":"Bizerte Governorate","name":"Rafrāf","lat":37.19043,"lon":10.18365,"geocoding":{},"distantMaxMiles":5},"Rhar el Melah":{"countryName":"Tunisia","stateName":"Bizerte Governorate","name":"Rhar el Melah","lat":37.16939,"lon":10.19064,"geocoding":{},"distantMaxMiles":5},"Sejenane":{"countryName":"Tunisia","stateName":"Bizerte Governorate","name":"Sejenane","lat":37.05722,"lon":9.23806,"geocoding":{},"distantMaxMiles":5},"Zahānah":{"countryName":"Tunisia","stateName":"Bizerte Governorate","name":"Zahānah","lat":37.03959,"lon":10.03876,"geocoding":{},"distantMaxMiles":5}}},"Gabès Governorate":{"countryName":"Tunisia","name":"Gabès Governorate","isoCode":"81","lat":33.9459648,"lon":9.7232673,"geocoding":{},"distantMaxMiles":5,"cities":{"Bou Attouche":{"countryName":"Tunisia","stateName":"Gabès Governorate","name":"Bou Attouche","lat":33.89927,"lon":9.78496,"geocoding":{},"distantMaxMiles":5},"El Hamma":{"countryName":"Tunisia","stateName":"Gabès Governorate","name":"El Hamma","lat":33.89152,"lon":9.79629,"geocoding":{},"distantMaxMiles":5},"Gabès":{"countryName":"Tunisia","stateName":"Gabès Governorate","name":"Gabès","lat":33.88146,"lon":10.0982,"geocoding":{},"distantMaxMiles":5},"Matmata":{"countryName":"Tunisia","stateName":"Gabès Governorate","name":"Matmata","lat":33.54445,"lon":9.97157,"geocoding":{},"distantMaxMiles":5}}},"Gafsa Governorate":{"countryName":"Tunisia","name":"Gafsa Governorate","isoCode":"71","lat":34.3788505,"lon":8.6600586,"geocoding":{},"distantMaxMiles":5,"cities":{"Ar Rudayyif":{"countryName":"Tunisia","stateName":"Gafsa Governorate","name":"Ar Rudayyif","lat":34.3827,"lon":8.15549,"geocoding":{},"distantMaxMiles":5},"As Sanad":{"countryName":"Tunisia","stateName":"Gafsa Governorate","name":"As Sanad","lat":34.4628,"lon":9.26404,"geocoding":{},"distantMaxMiles":5},"Gafsa":{"countryName":"Tunisia","stateName":"Gafsa Governorate","name":"Gafsa","lat":34.425,"lon":8.78417,"geocoding":{},"distantMaxMiles":5},"Metlaoui":{"countryName":"Tunisia","stateName":"Gafsa Governorate","name":"Metlaoui","lat":34.32081,"lon":8.40157,"geocoding":{},"distantMaxMiles":5},"Mu‘tamadīyat ar Rudayyif":{"countryName":"Tunisia","stateName":"Gafsa Governorate","name":"Mu‘tamadīyat ar Rudayyif","lat":34.40081,"lon":8.17057,"geocoding":{},"distantMaxMiles":5}}},"Jendouba Governorate":{"countryName":"Tunisia","name":"Jendouba Governorate","isoCode":"32","lat":36.7181862,"lon":8.7481167,"geocoding":{},"distantMaxMiles":5,"cities":{"Fernana":{"countryName":"Tunisia","stateName":"Jendouba Governorate","name":"Fernana","lat":36.65547,"lon":8.69602,"geocoding":{},"distantMaxMiles":5},"Jendouba":{"countryName":"Tunisia","stateName":"Jendouba Governorate","name":"Jendouba","lat":36.48519,"lon":8.82325,"geocoding":{},"distantMaxMiles":5},"Oued Meliz":{"countryName":"Tunisia","stateName":"Jendouba Governorate","name":"Oued Meliz","lat":36.46813,"lon":8.54951,"geocoding":{},"distantMaxMiles":5},"Tabarka":{"countryName":"Tunisia","stateName":"Jendouba Governorate","name":"Tabarka","lat":36.95442,"lon":8.75801,"geocoding":{},"distantMaxMiles":5}}},"Kairouan Governorate":{"countryName":"Tunisia","name":"Kairouan Governorate","isoCode":"41","lat":35.6711663,"lon":10.1005469,"geocoding":{},"distantMaxMiles":5,"cities":{"Haffouz":{"countryName":"Tunisia","stateName":"Kairouan Governorate","name":"Haffouz","lat":35.63235,"lon":9.67624,"geocoding":{},"distantMaxMiles":5},"Kairouan":{"countryName":"Tunisia","stateName":"Kairouan Governorate","name":"Kairouan","lat":35.6781,"lon":10.09633,"geocoding":{},"distantMaxMiles":5},"Sbikha":{"countryName":"Tunisia","stateName":"Kairouan Governorate","name":"Sbikha","lat":35.93325,"lon":10.02081,"geocoding":{},"distantMaxMiles":5}}},"Kasserine Governorate":{"countryName":"Tunisia","name":"Kasserine Governorate","isoCode":"42","lat":35.0809148,"lon":8.6600586,"geocoding":{},"distantMaxMiles":5,"cities":{"Kasserine":{"countryName":"Tunisia","stateName":"Kasserine Governorate","name":"Kasserine","lat":35.16758,"lon":8.83651,"geocoding":{},"distantMaxMiles":5},"Rohia":{"countryName":"Tunisia","stateName":"Kasserine Governorate","name":"Rohia","lat":35.65129,"lon":9.05306,"geocoding":{},"distantMaxMiles":5},"Sbiba":{"countryName":"Tunisia","stateName":"Kasserine Governorate","name":"Sbiba","lat":35.54332,"lon":9.0737,"geocoding":{},"distantMaxMiles":5},"Thala":{"countryName":"Tunisia","stateName":"Kasserine Governorate","name":"Thala","lat":35.57244,"lon":8.67031,"geocoding":{},"distantMaxMiles":5}}},"Kassrine":{"countryName":"Tunisia","name":"Kassrine","isoCode":"31","lat":35.1722716,"lon":8.8307626,"geocoding":{},"distantMaxMiles":5,"cities":{"Béja":{"countryName":"Tunisia","stateName":"Kassrine","name":"Béja","lat":36.72564,"lon":9.18169,"geocoding":{},"distantMaxMiles":5},"Délégation de Béja Nord":{"countryName":"Tunisia","stateName":"Kassrine","name":"Délégation de Béja Nord","lat":36.80353,"lon":9.24984,"geocoding":{},"distantMaxMiles":5},"Goubellat":{"countryName":"Tunisia","stateName":"Kassrine","name":"Goubellat","lat":36.54178,"lon":9.66334,"geocoding":{},"distantMaxMiles":5},"Medjez el Bab":{"countryName":"Tunisia","stateName":"Kassrine","name":"Medjez el Bab","lat":36.64964,"lon":9.61231,"geocoding":{},"distantMaxMiles":5},"Tabursuq":{"countryName":"Tunisia","stateName":"Kassrine","name":"Tabursuq","lat":36.45692,"lon":9.24751,"geocoding":{},"distantMaxMiles":5},"Testour":{"countryName":"Tunisia","stateName":"Kassrine","name":"Testour","lat":36.5513,"lon":9.44307,"geocoding":{},"distantMaxMiles":5}}},"Kebili Governorate":{"countryName":"Tunisia","name":"Kebili Governorate","isoCode":"73","lat":33.7071551,"lon":8.9714623,"geocoding":{},"distantMaxMiles":5,"cities":{"Douz":{"countryName":"Tunisia","stateName":"Kebili Governorate","name":"Douz","lat":33.46632,"lon":9.0203,"geocoding":{},"distantMaxMiles":5},"El Golaa":{"countryName":"Tunisia","stateName":"Kebili Governorate","name":"El Golaa","lat":33.48485,"lon":9.00678,"geocoding":{},"distantMaxMiles":5},"Jemna":{"countryName":"Tunisia","stateName":"Kebili Governorate","name":"Jemna","lat":33.57778,"lon":9.01472,"geocoding":{},"distantMaxMiles":5},"Kebili":{"countryName":"Tunisia","stateName":"Kebili Governorate","name":"Kebili","lat":33.70439,"lon":8.96903,"geocoding":{},"distantMaxMiles":5}}},"Kef Governorate":{"countryName":"Tunisia","name":"Kef Governorate","isoCode":"33","lat":36.1230512,"lon":8.6600586,"geocoding":{},"distantMaxMiles":5,"cities":{"As Sars":{"countryName":"Tunisia","stateName":"Kef Governorate","name":"As Sars","lat":36.0764,"lon":9.02117,"geocoding":{},"distantMaxMiles":5},"El Kef":{"countryName":"Tunisia","stateName":"Kef Governorate","name":"El Kef","lat":36.17424,"lon":8.70486,"geocoding":{},"distantMaxMiles":5},"El Ksour":{"countryName":"Tunisia","stateName":"Kef Governorate","name":"El Ksour","lat":35.89607,"lon":8.88493,"geocoding":{},"distantMaxMiles":5},"Menzel Salem":{"countryName":"Tunisia","stateName":"Kef Governorate","name":"Menzel Salem","lat":35.85673,"lon":8.47654,"geocoding":{},"distantMaxMiles":5},"Nibbar":{"countryName":"Tunisia","stateName":"Kef Governorate","name":"Nibbar","lat":36.29411,"lon":8.76657,"geocoding":{},"distantMaxMiles":5},"Sakiet Sidi Youssef":{"countryName":"Tunisia","stateName":"Kef Governorate","name":"Sakiet Sidi Youssef","lat":36.22292,"lon":8.35547,"geocoding":{},"distantMaxMiles":5},"Tajerouine":{"countryName":"Tunisia","stateName":"Kef Governorate","name":"Tajerouine","lat":35.89174,"lon":8.55276,"geocoding":{},"distantMaxMiles":5}}},"Mahdia Governorate":{"countryName":"Tunisia","name":"Mahdia Governorate","isoCode":"53","lat":35.3352558,"lon":10.8903099,"geocoding":{},"distantMaxMiles":5,"cities":{"Chebba":{"countryName":"Tunisia","stateName":"Mahdia Governorate","name":"Chebba","lat":35.23722,"lon":11.115,"geocoding":{},"distantMaxMiles":5},"Chorbane":{"countryName":"Tunisia","stateName":"Mahdia Governorate","name":"Chorbane","lat":35.28581,"lon":10.3858,"geocoding":{},"distantMaxMiles":5},"El Jem":{"countryName":"Tunisia","stateName":"Mahdia Governorate","name":"El Jem","lat":35.3,"lon":10.71667,"geocoding":{},"distantMaxMiles":5},"Ksour Essaf":{"countryName":"Tunisia","stateName":"Mahdia Governorate","name":"Ksour Essaf","lat":35.41808,"lon":10.99475,"geocoding":{},"distantMaxMiles":5},"Mahdia":{"countryName":"Tunisia","stateName":"Mahdia Governorate","name":"Mahdia","lat":35.50472,"lon":11.06222,"geocoding":{},"distantMaxMiles":5},"Melloulèche":{"countryName":"Tunisia","stateName":"Mahdia Governorate","name":"Melloulèche","lat":35.16617,"lon":11.03504,"geocoding":{},"distantMaxMiles":5},"Salakta":{"countryName":"Tunisia","stateName":"Mahdia Governorate","name":"Salakta","lat":35.39444,"lon":11.04361,"geocoding":{},"distantMaxMiles":5},"Sidi Alouane":{"countryName":"Tunisia","stateName":"Mahdia Governorate","name":"Sidi Alouane","lat":35.37505,"lon":10.93899,"geocoding":{},"distantMaxMiles":5},"Zouila":{"countryName":"Tunisia","stateName":"Mahdia Governorate","name":"Zouila","lat":35.50056,"lon":11.06056,"geocoding":{},"distantMaxMiles":5}}},"Manouba Governorate":{"countryName":"Tunisia","name":"Manouba Governorate","isoCode":"14","lat":36.8446504,"lon":9.8571416,"geocoding":{},"distantMaxMiles":5,"cities":{"El Battan":{"countryName":"Tunisia","stateName":"Manouba Governorate","name":"El Battan","lat":36.80368,"lon":9.84424,"geocoding":{},"distantMaxMiles":5},"Manouba":{"countryName":"Tunisia","stateName":"Manouba Governorate","name":"Manouba","lat":36.81006,"lon":10.09557,"geocoding":{},"distantMaxMiles":5},"Mu‘tamadīyat Manūbah":{"countryName":"Tunisia","stateName":"Manouba Governorate","name":"Mu‘tamadīyat Manūbah","lat":36.80907,"lon":10.09467,"geocoding":{},"distantMaxMiles":5},"Oued Lill":{"countryName":"Tunisia","stateName":"Manouba Governorate","name":"Oued Lill","lat":36.83408,"lon":10.04057,"geocoding":{},"distantMaxMiles":5}}},"Medenine Governorate":{"countryName":"Tunisia","name":"Medenine Governorate","isoCode":"82","lat":33.2280565,"lon":10.8903099,"geocoding":{},"distantMaxMiles":5,"cities":{"Ben Gardane":{"countryName":"Tunisia","stateName":"Medenine Governorate","name":"Ben Gardane","lat":33.13783,"lon":11.21965,"geocoding":{},"distantMaxMiles":5},"Beni Kheddache":{"countryName":"Tunisia","stateName":"Medenine Governorate","name":"Beni Kheddache","lat":33.25279,"lon":10.19883,"geocoding":{},"distantMaxMiles":5},"Erriadh":{"countryName":"Tunisia","stateName":"Medenine Governorate","name":"Erriadh","lat":33.82063,"lon":10.85394,"geocoding":{},"distantMaxMiles":5},"Houmt El Souk":{"countryName":"Tunisia","stateName":"Medenine Governorate","name":"Houmt El Souk","lat":33.87576,"lon":10.85745,"geocoding":{},"distantMaxMiles":5},"Jerba Midoun":{"countryName":"Tunisia","stateName":"Medenine Governorate","name":"Jerba Midoun","lat":33.77918,"lon":10.95215,"geocoding":{},"distantMaxMiles":5},"Medenine":{"countryName":"Tunisia","stateName":"Medenine Governorate","name":"Medenine","lat":33.35495,"lon":10.50548,"geocoding":{},"distantMaxMiles":5},"Midoun":{"countryName":"Tunisia","stateName":"Medenine Governorate","name":"Midoun","lat":33.80813,"lon":10.99228,"geocoding":{},"distantMaxMiles":5},"Zarzis":{"countryName":"Tunisia","stateName":"Medenine Governorate","name":"Zarzis","lat":33.50398,"lon":11.11215,"geocoding":{},"distantMaxMiles":5}}},"Monastir Governorate":{"countryName":"Tunisia","name":"Monastir Governorate","isoCode":"52","lat":35.7642515,"lon":10.8112885,"geocoding":{},"distantMaxMiles":5,"cities":{"Banbalah":{"countryName":"Tunisia","stateName":"Monastir Governorate","name":"Banbalah","lat":35.7,"lon":10.8,"geocoding":{},"distantMaxMiles":5},"Bekalta":{"countryName":"Tunisia","stateName":"Monastir Governorate","name":"Bekalta","lat":35.61739,"lon":10.99466,"geocoding":{},"distantMaxMiles":5},"Beni Hassane":{"countryName":"Tunisia","stateName":"Monastir Governorate","name":"Beni Hassane","lat":35.5672,"lon":10.80869,"geocoding":{},"distantMaxMiles":5},"Djemmal":{"countryName":"Tunisia","stateName":"Monastir Governorate","name":"Djemmal","lat":35.62231,"lon":10.75696,"geocoding":{},"distantMaxMiles":5},"Ksar Hellal":{"countryName":"Tunisia","stateName":"Monastir Governorate","name":"Ksar Hellal","lat":35.64773,"lon":10.89046,"geocoding":{},"distantMaxMiles":5},"Ksibet el Mediouni":{"countryName":"Tunisia","stateName":"Monastir Governorate","name":"Ksibet el Mediouni","lat":35.68561,"lon":10.84256,"geocoding":{},"distantMaxMiles":5},"Lemta":{"countryName":"Tunisia","stateName":"Monastir Governorate","name":"Lemta","lat":35.66667,"lon":10.88333,"geocoding":{},"distantMaxMiles":5},"Menzel Kamel":{"countryName":"Tunisia","stateName":"Monastir Governorate","name":"Menzel Kamel","lat":35.62477,"lon":10.66727,"geocoding":{},"distantMaxMiles":5},"Mesdour":{"countryName":"Tunisia","stateName":"Monastir Governorate","name":"Mesdour","lat":35.68206,"lon":10.72746,"geocoding":{},"distantMaxMiles":5},"Monastir":{"countryName":"Tunisia","stateName":"Monastir Governorate","name":"Monastir","lat":35.77799,"lon":10.82617,"geocoding":{},"distantMaxMiles":5},"Ouardenine":{"countryName":"Tunisia","stateName":"Monastir Governorate","name":"Ouardenine","lat":35.70915,"lon":10.67397,"geocoding":{},"distantMaxMiles":5},"Sahline":{"countryName":"Tunisia","stateName":"Monastir Governorate","name":"Sahline","lat":35.75166,"lon":10.71109,"geocoding":{},"distantMaxMiles":5},"Seïada":{"countryName":"Tunisia","stateName":"Monastir Governorate","name":"Seïada","lat":35.66887,"lon":10.89246,"geocoding":{},"distantMaxMiles":5},"Sidi Ben Nour":{"countryName":"Tunisia","stateName":"Monastir Governorate","name":"Sidi Ben Nour","lat":35.53333,"lon":10.91667,"geocoding":{},"distantMaxMiles":5},"Skanes":{"countryName":"Tunisia","stateName":"Monastir Governorate","name":"Skanes","lat":35.78333,"lon":10.8,"geocoding":{},"distantMaxMiles":5},"Touza":{"countryName":"Tunisia","stateName":"Monastir Governorate","name":"Touza","lat":35.63544,"lon":10.82732,"geocoding":{},"distantMaxMiles":5}}},"Sfax Governorate":{"countryName":"Tunisia","name":"Sfax Governorate","isoCode":"61","lat":34.8606581,"lon":10.3497895,"geocoding":{},"distantMaxMiles":5,"cities":{"Agareb":{"countryName":"Tunisia","stateName":"Sfax Governorate","name":"Agareb","lat":34.74406,"lon":10.4611,"geocoding":{},"distantMaxMiles":5},"Bir Ali Ben Khalifa":{"countryName":"Tunisia","stateName":"Sfax Governorate","name":"Bir Ali Ben Khalifa","lat":34.73592,"lon":10.0924,"geocoding":{},"distantMaxMiles":5},"Djebeniana":{"countryName":"Tunisia","stateName":"Sfax Governorate","name":"Djebeniana","lat":35.035,"lon":10.90809,"geocoding":{},"distantMaxMiles":5},"Gremda":{"countryName":"Tunisia","stateName":"Sfax Governorate","name":"Gremda","lat":34.75,"lon":10.78333,"geocoding":{},"distantMaxMiles":5},"Sfax":{"countryName":"Tunisia","stateName":"Sfax Governorate","name":"Sfax","lat":34.74056,"lon":10.76028,"geocoding":{},"distantMaxMiles":5},"Skhira":{"countryName":"Tunisia","stateName":"Sfax Governorate","name":"Skhira","lat":34.2992,"lon":10.06999,"geocoding":{},"distantMaxMiles":5}}},"Sidi Bouzid Governorate":{"countryName":"Tunisia","name":"Sidi Bouzid Governorate","isoCode":"43","lat":35.0354386,"lon":9.4839392,"geocoding":{},"distantMaxMiles":5,"cities":{"Bir el Hafey":{"countryName":"Tunisia","stateName":"Sidi Bouzid Governorate","name":"Bir el Hafey","lat":34.93212,"lon":9.19321,"geocoding":{},"distantMaxMiles":5},"Er Regueb":{"countryName":"Tunisia","stateName":"Sidi Bouzid Governorate","name":"Er Regueb","lat":34.85932,"lon":9.78654,"geocoding":{},"distantMaxMiles":5},"Jilma":{"countryName":"Tunisia","stateName":"Sidi Bouzid Governorate","name":"Jilma","lat":35.27311,"lon":9.42385,"geocoding":{},"distantMaxMiles":5},"Mezzouna":{"countryName":"Tunisia","stateName":"Sidi Bouzid Governorate","name":"Mezzouna","lat":34.57758,"lon":9.84193,"geocoding":{},"distantMaxMiles":5},"Sidi Bouzid":{"countryName":"Tunisia","stateName":"Sidi Bouzid Governorate","name":"Sidi Bouzid","lat":35.03823,"lon":9.48494,"geocoding":{},"distantMaxMiles":5}}},"Siliana Governorate":{"countryName":"Tunisia","name":"Siliana Governorate","isoCode":"34","lat":36.0887208,"lon":9.3645335,"geocoding":{},"distantMaxMiles":5,"cities":{"Bou Arada":{"countryName":"Tunisia","stateName":"Siliana Governorate","name":"Bou Arada","lat":36.35251,"lon":9.62175,"geocoding":{},"distantMaxMiles":5},"Gafour":{"countryName":"Tunisia","stateName":"Siliana Governorate","name":"Gafour","lat":36.32045,"lon":9.32424,"geocoding":{},"distantMaxMiles":5},"Kesra":{"countryName":"Tunisia","stateName":"Siliana Governorate","name":"Kesra","lat":35.81363,"lon":9.36434,"geocoding":{},"distantMaxMiles":5},"Le Krib":{"countryName":"Tunisia","stateName":"Siliana Governorate","name":"Le Krib","lat":36.32802,"lon":9.13613,"geocoding":{},"distantMaxMiles":5},"Maktar":{"countryName":"Tunisia","stateName":"Siliana Governorate","name":"Maktar","lat":35.85798,"lon":9.20072,"geocoding":{},"distantMaxMiles":5},"Siliana":{"countryName":"Tunisia","stateName":"Siliana Governorate","name":"Siliana","lat":36.08497,"lon":9.37082,"geocoding":{},"distantMaxMiles":5}}},"Sousse Governorate":{"countryName":"Tunisia","name":"Sousse Governorate","isoCode":"51","lat":35.9022267,"lon":10.3497895,"geocoding":{},"distantMaxMiles":5,"cities":{"Akouda":{"countryName":"Tunisia","stateName":"Sousse Governorate","name":"Akouda","lat":35.8691,"lon":10.5653,"geocoding":{},"distantMaxMiles":5},"Hammam Sousse":{"countryName":"Tunisia","stateName":"Sousse Governorate","name":"Hammam Sousse","lat":35.8609,"lon":10.60313,"geocoding":{},"distantMaxMiles":5},"Harqalah":{"countryName":"Tunisia","stateName":"Sousse Governorate","name":"Harqalah","lat":36.03027,"lon":10.50904,"geocoding":{},"distantMaxMiles":5},"Msaken":{"countryName":"Tunisia","stateName":"Sousse Governorate","name":"Msaken","lat":35.72917,"lon":10.58082,"geocoding":{},"distantMaxMiles":5},"Port el Kantaoui":{"countryName":"Tunisia","stateName":"Sousse Governorate","name":"Port el Kantaoui","lat":35.89239,"lon":10.59434,"geocoding":{},"distantMaxMiles":5},"Sidi Bou Ali":{"countryName":"Tunisia","stateName":"Sousse Governorate","name":"Sidi Bou Ali","lat":35.95667,"lon":10.47306,"geocoding":{},"distantMaxMiles":5},"Sidi el Hani":{"countryName":"Tunisia","stateName":"Sousse Governorate","name":"Sidi el Hani","lat":35.67139,"lon":10.31583,"geocoding":{},"distantMaxMiles":5},"Sousse":{"countryName":"Tunisia","stateName":"Sousse Governorate","name":"Sousse","lat":35.82539,"lon":10.63699,"geocoding":{},"distantMaxMiles":5}}},"Tataouine Governorate":{"countryName":"Tunisia","name":"Tataouine Governorate","isoCode":"83","lat":32.1344122,"lon":10.0807298,"geocoding":{},"distantMaxMiles":5,"cities":{"Remada":{"countryName":"Tunisia","stateName":"Tataouine Governorate","name":"Remada","lat":32.31662,"lon":10.39551,"geocoding":{},"distantMaxMiles":5},"Tataouine":{"countryName":"Tunisia","stateName":"Tataouine Governorate","name":"Tataouine","lat":32.92967,"lon":10.45177,"geocoding":{},"distantMaxMiles":5}}},"Tozeur Governorate":{"countryName":"Tunisia","name":"Tozeur Governorate","isoCode":"72","lat":33.9789491,"lon":8.0465185,"geocoding":{},"distantMaxMiles":5,"cities":{"Chebika":{"countryName":"Tunisia","stateName":"Tozeur Governorate","name":"Chebika","lat":34.31909,"lon":7.93519,"geocoding":{},"distantMaxMiles":5},"Degache":{"countryName":"Tunisia","stateName":"Tozeur Governorate","name":"Degache","lat":33.97606,"lon":8.2081,"geocoding":{},"distantMaxMiles":5},"Nefta":{"countryName":"Tunisia","stateName":"Tozeur Governorate","name":"Nefta","lat":33.87309,"lon":7.87765,"geocoding":{},"distantMaxMiles":5},"Tamaghzah":{"countryName":"Tunisia","stateName":"Tozeur Governorate","name":"Tamaghzah","lat":34.38849,"lon":7.94313,"geocoding":{},"distantMaxMiles":5},"Tozeur":{"countryName":"Tunisia","stateName":"Tozeur Governorate","name":"Tozeur","lat":33.91968,"lon":8.13352,"geocoding":{},"distantMaxMiles":5}}},"Tunis Governorate":{"countryName":"Tunisia","name":"Tunis Governorate","isoCode":"11","lat":36.8374946,"lon":10.1927389,"geocoding":{},"distantMaxMiles":5,"cities":{"Al Marsá":{"countryName":"Tunisia","stateName":"Tunis Governorate","name":"Al Marsá","lat":36.87818,"lon":10.32466,"geocoding":{},"distantMaxMiles":5},"Carthage":{"countryName":"Tunisia","stateName":"Tunis Governorate","name":"Carthage","lat":36.85961,"lon":10.32978,"geocoding":{},"distantMaxMiles":5},"La Goulette":{"countryName":"Tunisia","stateName":"Tunis Governorate","name":"La Goulette","lat":36.81825,"lon":10.3052,"geocoding":{},"distantMaxMiles":5},"La Mohammedia":{"countryName":"Tunisia","stateName":"Tunis Governorate","name":"La Mohammedia","lat":36.67446,"lon":10.15633,"geocoding":{},"distantMaxMiles":5},"Sidi Bou Saïd":{"countryName":"Tunisia","stateName":"Tunis Governorate","name":"Sidi Bou Saïd","lat":36.8687,"lon":10.34174,"geocoding":{},"distantMaxMiles":5},"Tunis":{"countryName":"Tunisia","stateName":"Tunis Governorate","name":"Tunis","lat":36.81897,"lon":10.16579,"geocoding":{},"distantMaxMiles":5}}},"Zaghouan Governorate":{"countryName":"Tunisia","name":"Zaghouan Governorate","isoCode":"22","lat":36.4091188,"lon":10.1423172,"geocoding":{},"distantMaxMiles":5,"cities":{"El Fahs":{"countryName":"Tunisia","stateName":"Zaghouan Governorate","name":"El Fahs","lat":36.37419,"lon":9.90651,"geocoding":{},"distantMaxMiles":5},"Zaghouan":{"countryName":"Tunisia","stateName":"Zaghouan Governorate","name":"Zaghouan","lat":36.40291,"lon":10.14292,"geocoding":{},"distantMaxMiles":5}}}}}