{"name":"Jamaica","isoCode":"JM","lat":18.25,"lon":-77.5,"geocoding":{},"distantMaxMiles":5,"states":{"Clarendon Parish":{"countryName":"Jamaica","name":"Clarendon Parish","isoCode":"13","lat":17.9557183,"lon":-77.2405153,"geocoding":{},"distantMaxMiles":5,"cities":{"Aenon Town":{"countryName":"Jamaica","stateName":"Clarendon Parish","name":"Aenon Town","lat":18.21027,"lon":-77.39851,"geocoding":{},"distantMaxMiles":5},"Alley":{"countryName":"Jamaica","stateName":"Clarendon Parish","name":"Alley","lat":17.79036,"lon":-77.27085,"geocoding":{},"distantMaxMiles":5},"Alston":{"countryName":"Jamaica","stateName":"Clarendon Parish","name":"Alston","lat":18.17639,"lon":-77.43468,"geocoding":{},"distantMaxMiles":5},"Ashley":{"countryName":"Jamaica","stateName":"Clarendon Parish","name":"Ashley","lat":18.0144,"lon":-77.34019,"geocoding":{},"distantMaxMiles":5},"Banks":{"countryName":"Jamaica","stateName":"Clarendon Parish","name":"Banks","lat":17.83222,"lon":-77.30731,"geocoding":{},"distantMaxMiles":5},"Beckford Kraal":{"countryName":"Jamaica","stateName":"Clarendon Parish","name":"Beckford Kraal","lat":18.08545,"lon":-77.32399,"geocoding":{},"distantMaxMiles":5},"Brandon Hill":{"countryName":"Jamaica","stateName":"Clarendon Parish","name":"Brandon Hill","lat":18.1511,"lon":-77.23663,"geocoding":{},"distantMaxMiles":5},"Brixton Hill":{"countryName":"Jamaica","stateName":"Clarendon Parish","name":"Brixton Hill","lat":18.02039,"lon":-77.31744,"geocoding":{},"distantMaxMiles":5},"Bucknor":{"countryName":"Jamaica","stateName":"Clarendon Parish","name":"Bucknor","lat":18.00619,"lon":-77.23749,"geocoding":{},"distantMaxMiles":5},"Bucks Common":{"countryName":"Jamaica","stateName":"Clarendon Parish","name":"Bucks Common","lat":17.98228,"lon":-77.23846,"geocoding":{},"distantMaxMiles":5},"Bushy Park":{"countryName":"Jamaica","stateName":"Clarendon Parish","name":"Bushy Park","lat":17.98243,"lon":-77.25135,"geocoding":{},"distantMaxMiles":5},"Chapelton":{"countryName":"Jamaica","stateName":"Clarendon Parish","name":"Chapelton","lat":18.08333,"lon":-77.26667,"geocoding":{},"distantMaxMiles":5},"Chateau":{"countryName":"Jamaica","stateName":"Clarendon Parish","name":"Chateau","lat":17.98972,"lon":-77.18737,"geocoding":{},"distantMaxMiles":5},"Cockpit":{"countryName":"Jamaica","stateName":"Clarendon Parish","name":"Cockpit","lat":17.88872,"lon":-77.15835,"geocoding":{},"distantMaxMiles":5},"Coffee Piece":{"countryName":"Jamaica","stateName":"Clarendon Parish","name":"Coffee Piece","lat":18.13835,"lon":-77.40648,"geocoding":{},"distantMaxMiles":5},"Colonels Ridge":{"countryName":"Jamaica","stateName":"Clarendon Parish","name":"Colonels Ridge","lat":18.13525,"lon":-77.2555,"geocoding":{},"distantMaxMiles":5},"Coxswain":{"countryName":"Jamaica","stateName":"Clarendon Parish","name":"Coxswain","lat":18.10272,"lon":-77.23444,"geocoding":{},"distantMaxMiles":5},"Crofts Hill":{"countryName":"Jamaica","stateName":"Clarendon Parish","name":"Crofts Hill","lat":18.13268,"lon":-77.20507,"geocoding":{},"distantMaxMiles":5},"Crooked River":{"countryName":"Jamaica","stateName":"Clarendon Parish","name":"Crooked River","lat":18.14289,"lon":-77.3,"geocoding":{},"distantMaxMiles":5},"Cumberland":{"countryName":"Jamaica","stateName":"Clarendon Parish","name":"Cumberland","lat":18.10522,"lon":-77.41617,"geocoding":{},"distantMaxMiles":5},"Curatoe Hill":{"countryName":"Jamaica","stateName":"Clarendon Parish","name":"Curatoe Hill","lat":17.93982,"lon":-77.24836,"geocoding":{},"distantMaxMiles":5},"Dawkins":{"countryName":"Jamaica","stateName":"Clarendon Parish","name":"Dawkins","lat":18.0554,"lon":-77.33303,"geocoding":{},"distantMaxMiles":5},"Effortville":{"countryName":"Jamaica","stateName":"Clarendon Parish","name":"Effortville","lat":17.9927,"lon":-77.2186,"geocoding":{},"distantMaxMiles":5},"Four Paths":{"countryName":"Jamaica","stateName":"Clarendon Parish","name":"Four Paths","lat":17.97089,"lon":-77.29599,"geocoding":{},"distantMaxMiles":5},"Frankfield":{"countryName":"Jamaica","stateName":"Clarendon Parish","name":"Frankfield","lat":18.14971,"lon":-77.36498,"geocoding":{},"distantMaxMiles":5},"Freetown":{"countryName":"Jamaica","stateName":"Clarendon Parish","name":"Freetown","lat":17.92192,"lon":-77.14781,"geocoding":{},"distantMaxMiles":5},"Gimme-me-bit":{"countryName":"Jamaica","stateName":"Clarendon Parish","name":"Gimme-me-bit","lat":17.88946,"lon":-77.28469,"geocoding":{},"distantMaxMiles":5},"Glenmuir":{"countryName":"Jamaica","stateName":"Clarendon Parish","name":"Glenmuir","lat":17.96801,"lon":-77.25394,"geocoding":{},"distantMaxMiles":5},"Grantham":{"countryName":"Jamaica","stateName":"Clarendon Parish","name":"Grantham","lat":18.15839,"lon":-77.39643,"geocoding":{},"distantMaxMiles":5},"Gravel Hill":{"countryName":"Jamaica","stateName":"Clarendon Parish","name":"Gravel Hill","lat":17.90968,"lon":-77.33354,"geocoding":{},"distantMaxMiles":5},"Hayes":{"countryName":"Jamaica","stateName":"Clarendon Parish","name":"Hayes","lat":17.87569,"lon":-77.23711,"geocoding":{},"distantMaxMiles":5},"Hazard":{"countryName":"Jamaica","stateName":"Clarendon Parish","name":"Hazard","lat":17.95382,"lon":-77.23147,"geocoding":{},"distantMaxMiles":5},"Inverness":{"countryName":"Jamaica","stateName":"Clarendon Parish","name":"Inverness","lat":17.91195,"lon":-77.19032,"geocoding":{},"distantMaxMiles":5},"James Hill":{"countryName":"Jamaica","stateName":"Clarendon Parish","name":"James Hill","lat":18.1875,"lon":-77.337,"geocoding":{},"distantMaxMiles":5},"Johns Hall":{"countryName":"Jamaica","stateName":"Clarendon Parish","name":"Johns Hall","lat":18.18876,"lon":-77.38063,"geocoding":{},"distantMaxMiles":5},"Kellits":{"countryName":"Jamaica","stateName":"Clarendon Parish","name":"Kellits","lat":18.16184,"lon":-77.27049,"geocoding":{},"distantMaxMiles":5},"Limit":{"countryName":"Jamaica","stateName":"Clarendon Parish","name":"Limit","lat":18.15287,"lon":-77.47121,"geocoding":{},"distantMaxMiles":5},"Lionel Town":{"countryName":"Jamaica","stateName":"Clarendon Parish","name":"Lionel Town","lat":17.81007,"lon":-77.24061,"geocoding":{},"distantMaxMiles":5},"Longville Park":{"countryName":"Jamaica","stateName":"Clarendon Parish","name":"Longville Park","lat":17.91188,"lon":-77.15983,"geocoding":{},"distantMaxMiles":5},"Longwood":{"countryName":"Jamaica","stateName":"Clarendon Parish","name":"Longwood","lat":17.80754,"lon":-77.28728,"geocoding":{},"distantMaxMiles":5},"May Pen":{"countryName":"Jamaica","stateName":"Clarendon Parish","name":"May Pen","lat":17.96454,"lon":-77.24515,"geocoding":{},"distantMaxMiles":5},"May Pen Proper":{"countryName":"Jamaica","stateName":"Clarendon Parish","name":"May Pen Proper","lat":17.97034,"lon":-77.23911,"geocoding":{},"distantMaxMiles":5},"Milk River":{"countryName":"Jamaica","stateName":"Clarendon Parish","name":"Milk River","lat":17.8756,"lon":-77.35139,"geocoding":{},"distantMaxMiles":5},"Mineral Heights":{"countryName":"Jamaica","stateName":"Clarendon Parish","name":"Mineral Heights","lat":17.94183,"lon":-77.23276,"geocoding":{},"distantMaxMiles":5},"Mitchell Town":{"countryName":"Jamaica","stateName":"Clarendon Parish","name":"Mitchell Town","lat":17.81281,"lon":-77.20531,"geocoding":{},"distantMaxMiles":5},"Moores":{"countryName":"Jamaica","stateName":"Clarendon Parish","name":"Moores","lat":18.02926,"lon":-77.1854,"geocoding":{},"distantMaxMiles":5},"Morgans Forest":{"countryName":"Jamaica","stateName":"Clarendon Parish","name":"Morgans Forest","lat":18.19088,"lon":-77.41021,"geocoding":{},"distantMaxMiles":5},"Morgans Pass":{"countryName":"Jamaica","stateName":"Clarendon Parish","name":"Morgans Pass","lat":18.12123,"lon":-77.27493,"geocoding":{},"distantMaxMiles":5},"Mount Airy":{"countryName":"Jamaica","stateName":"Clarendon Parish","name":"Mount Airy","lat":18.01843,"lon":-77.36357,"geocoding":{},"distantMaxMiles":5},"New Denbigh":{"countryName":"Jamaica","stateName":"Clarendon Parish","name":"New Denbigh","lat":17.98563,"lon":-77.27104,"geocoding":{},"distantMaxMiles":5},"New Longsville":{"countryName":"Jamaica","stateName":"Clarendon Parish","name":"New Longsville","lat":18.03072,"lon":-77.23048,"geocoding":{},"distantMaxMiles":5},"Old Denbigh":{"countryName":"Jamaica","stateName":"Clarendon Parish","name":"Old Denbigh","lat":17.96116,"lon":-77.26701,"geocoding":{},"distantMaxMiles":5},"Orange Hill":{"countryName":"Jamaica","stateName":"Clarendon Parish","name":"Orange Hill","lat":18.11788,"lon":-77.35942,"geocoding":{},"distantMaxMiles":5},"Osbourne Store":{"countryName":"Jamaica","stateName":"Clarendon Parish","name":"Osbourne Store","lat":17.95892,"lon":-77.32827,"geocoding":{},"distantMaxMiles":5},"Paisley":{"countryName":"Jamaica","stateName":"Clarendon Parish","name":"Paisley","lat":17.96293,"lon":-77.22368,"geocoding":{},"distantMaxMiles":5},"Palmers Cross":{"countryName":"Jamaica","stateName":"Clarendon Parish","name":"Palmers Cross","lat":17.95,"lon":-77.20338,"geocoding":{},"distantMaxMiles":5},"Part of Banana Ground":{"countryName":"Jamaica","stateName":"Clarendon Parish","name":"Part of Banana Ground","lat":18.08022,"lon":-77.40971,"geocoding":{},"distantMaxMiles":5},"Part of Douglas Castle":{"countryName":"Jamaica","stateName":"Clarendon Parish","name":"Part of Douglas Castle","lat":18.18703,"lon":-77.27538,"geocoding":{},"distantMaxMiles":5},"Part of Kellits":{"countryName":"Jamaica","stateName":"Clarendon Parish","name":"Part of Kellits","lat":18.17159,"lon":-77.2512,"geocoding":{},"distantMaxMiles":5},"Peckham":{"countryName":"Jamaica","stateName":"Clarendon Parish","name":"Peckham","lat":18.17147,"lon":-77.39766,"geocoding":{},"distantMaxMiles":5},"Pennants":{"countryName":"Jamaica","stateName":"Clarendon Parish","name":"Pennants","lat":18.11025,"lon":-77.31306,"geocoding":{},"distantMaxMiles":5},"Pleasant Valley":{"countryName":"Jamaica","stateName":"Clarendon Parish","name":"Pleasant Valley","lat":18.01101,"lon":-77.29027,"geocoding":{},"distantMaxMiles":5},"Portland Cottage":{"countryName":"Jamaica","stateName":"Clarendon Parish","name":"Portland Cottage","lat":17.7462,"lon":-77.18772,"geocoding":{},"distantMaxMiles":5},"Porus":{"countryName":"Jamaica","stateName":"Clarendon Parish","name":"Porus","lat":18.05202,"lon":-77.40007,"geocoding":{},"distantMaxMiles":5},"Race Course":{"countryName":"Jamaica","stateName":"Clarendon Parish","name":"Race Course","lat":17.84019,"lon":-77.28223,"geocoding":{},"distantMaxMiles":5},"Richmond Park":{"countryName":"Jamaica","stateName":"Clarendon Parish","name":"Richmond Park","lat":18.05172,"lon":-77.37642,"geocoding":{},"distantMaxMiles":5},"Ritchies":{"countryName":"Jamaica","stateName":"Clarendon Parish","name":"Ritchies","lat":18.13904,"lon":-77.42893,"geocoding":{},"distantMaxMiles":5},"Rock":{"countryName":"Jamaica","stateName":"Clarendon Parish","name":"Rock","lat":17.99122,"lon":-77.33702,"geocoding":{},"distantMaxMiles":5},"Rock River":{"countryName":"Jamaica","stateName":"Clarendon Parish","name":"Rock River","lat":18.06548,"lon":-77.19707,"geocoding":{},"distantMaxMiles":5},"Rocky Point":{"countryName":"Jamaica","stateName":"Clarendon Parish","name":"Rocky Point","lat":17.77695,"lon":-77.24816,"geocoding":{},"distantMaxMiles":5},"Salt River":{"countryName":"Jamaica","stateName":"Clarendon Parish","name":"Salt River","lat":17.84143,"lon":-77.17413,"geocoding":{},"distantMaxMiles":5},"Sandy Bay":{"countryName":"Jamaica","stateName":"Clarendon Parish","name":"Sandy Bay","lat":17.95105,"lon":-77.16225,"geocoding":{},"distantMaxMiles":5},"Sanguinetti":{"countryName":"Jamaica","stateName":"Clarendon Parish","name":"Sanguinetti","lat":18.15585,"lon":-77.42938,"geocoding":{},"distantMaxMiles":5},"Sedgepond":{"countryName":"Jamaica","stateName":"Clarendon Parish","name":"Sedgepond","lat":17.84753,"lon":-77.32638,"geocoding":{},"distantMaxMiles":5},"Silent Hill":{"countryName":"Jamaica","stateName":"Clarendon Parish","name":"Silent Hill","lat":18.19152,"lon":-77.45918,"geocoding":{},"distantMaxMiles":5},"Smithville":{"countryName":"Jamaica","stateName":"Clarendon Parish","name":"Smithville","lat":18.11977,"lon":-77.38561,"geocoding":{},"distantMaxMiles":5},"Spaldings":{"countryName":"Jamaica","stateName":"Clarendon Parish","name":"Spaldings","lat":18.16875,"lon":-77.45798,"geocoding":{},"distantMaxMiles":5},"Summerfield":{"countryName":"Jamaica","stateName":"Clarendon Parish","name":"Summerfield","lat":18.09433,"lon":-77.28429,"geocoding":{},"distantMaxMiles":5},"Thompson Town":{"countryName":"Jamaica","stateName":"Clarendon Parish","name":"Thompson Town","lat":18.08968,"lon":-77.37186,"geocoding":{},"distantMaxMiles":5},"Tollgate":{"countryName":"Jamaica","stateName":"Clarendon Parish","name":"Tollgate","lat":17.97195,"lon":-77.36566,"geocoding":{},"distantMaxMiles":5},"Treadlight":{"countryName":"Jamaica","stateName":"Clarendon Parish","name":"Treadlight","lat":17.99264,"lon":-77.25531,"geocoding":{},"distantMaxMiles":5},"Trout Hall":{"countryName":"Jamaica","stateName":"Clarendon Parish","name":"Trout Hall","lat":18.13779,"lon":-77.33299,"geocoding":{},"distantMaxMiles":5},"Turners":{"countryName":"Jamaica","stateName":"Clarendon Parish","name":"Turners","lat":18.06647,"lon":-77.23523,"geocoding":{},"distantMaxMiles":5},"Water Lane":{"countryName":"Jamaica","stateName":"Clarendon Parish","name":"Water Lane","lat":17.82452,"lon":-77.25946,"geocoding":{},"distantMaxMiles":5},"Woodhall":{"countryName":"Jamaica","stateName":"Clarendon Parish","name":"Woodhall","lat":18.04757,"lon":-77.27575,"geocoding":{},"distantMaxMiles":5},"York Town":{"countryName":"Jamaica","stateName":"Clarendon Parish","name":"York Town","lat":17.92515,"lon":-77.30002,"geocoding":{},"distantMaxMiles":5}}},"Hanover Parish":{"countryName":"Jamaica","name":"Hanover Parish","isoCode":"09","lat":18.4097707,"lon":-78.133638,"geocoding":{},"distantMaxMiles":5,"cities":{"Askenish":{"countryName":"Jamaica","stateName":"Hanover Parish","name":"Askenish","lat":18.38492,"lon":-78.1491,"geocoding":{},"distantMaxMiles":5},"Cacoon":{"countryName":"Jamaica","stateName":"Hanover Parish","name":"Cacoon","lat":18.41642,"lon":-78.2073,"geocoding":{},"distantMaxMiles":5},"Cacoon Castle":{"countryName":"Jamaica","stateName":"Hanover Parish","name":"Cacoon Castle","lat":18.40247,"lon":-78.01336,"geocoding":{},"distantMaxMiles":5},"Cascade":{"countryName":"Jamaica","stateName":"Hanover Parish","name":"Cascade","lat":18.39747,"lon":-78.10337,"geocoding":{},"distantMaxMiles":5},"Cash Hill":{"countryName":"Jamaica","stateName":"Hanover Parish","name":"Cash Hill","lat":18.3692,"lon":-78.10938,"geocoding":{},"distantMaxMiles":5},"Cauldwell":{"countryName":"Jamaica","stateName":"Hanover Parish","name":"Cauldwell","lat":18.38583,"lon":-78.2411,"geocoding":{},"distantMaxMiles":5},"Chambers Pen":{"countryName":"Jamaica","stateName":"Hanover Parish","name":"Chambers Pen","lat":18.4052,"lon":-78.15975,"geocoding":{},"distantMaxMiles":5},"Chester Castle":{"countryName":"Jamaica","stateName":"Hanover Parish","name":"Chester Castle","lat":18.33822,"lon":-77.94722,"geocoding":{},"distantMaxMiles":5},"Copse":{"countryName":"Jamaica","stateName":"Hanover Parish","name":"Copse","lat":18.39466,"lon":-77.97678,"geocoding":{},"distantMaxMiles":5},"Cousins Cove":{"countryName":"Jamaica","stateName":"Hanover Parish","name":"Cousins Cove","lat":18.42425,"lon":-78.23752,"geocoding":{},"distantMaxMiles":5},"Dias":{"countryName":"Jamaica","stateName":"Hanover Parish","name":"Dias","lat":18.39379,"lon":-78.18562,"geocoding":{},"distantMaxMiles":5},"Great Valley":{"countryName":"Jamaica","stateName":"Hanover Parish","name":"Great Valley","lat":18.41169,"lon":-78.05023,"geocoding":{},"distantMaxMiles":5},"Green Island":{"countryName":"Jamaica","stateName":"Hanover Parish","name":"Green Island","lat":18.38399,"lon":-78.27015,"geocoding":{},"distantMaxMiles":5},"Haddington":{"countryName":"Jamaica","stateName":"Hanover Parish","name":"Haddington","lat":18.42043,"lon":-78.00383,"geocoding":{},"distantMaxMiles":5},"Hopewell":{"countryName":"Jamaica","stateName":"Hanover Parish","name":"Hopewell","lat":18.44321,"lon":-78.02636,"geocoding":{},"distantMaxMiles":5},"Jericho":{"countryName":"Jamaica","stateName":"Hanover Parish","name":"Jericho","lat":18.43744,"lon":-78.13028,"geocoding":{},"distantMaxMiles":5},"Kendal":{"countryName":"Jamaica","stateName":"Hanover Parish","name":"Kendal","lat":18.36287,"lon":-78.2272,"geocoding":{},"distantMaxMiles":5},"Kingsvale":{"countryName":"Jamaica","stateName":"Hanover Parish","name":"Kingsvale","lat":18.38087,"lon":-78.20523,"geocoding":{},"distantMaxMiles":5},"Lances Bay":{"countryName":"Jamaica","stateName":"Hanover Parish","name":"Lances Bay","lat":18.43819,"lon":-78.21442,"geocoding":{},"distantMaxMiles":5},"Logwood":{"countryName":"Jamaica","stateName":"Hanover Parish","name":"Logwood","lat":18.34878,"lon":-78.2962,"geocoding":{},"distantMaxMiles":5},"Lucea":{"countryName":"Jamaica","stateName":"Hanover Parish","name":"Lucea","lat":18.45095,"lon":-78.17356,"geocoding":{},"distantMaxMiles":5},"Lucea East":{"countryName":"Jamaica","stateName":"Hanover Parish","name":"Lucea East","lat":18.42198,"lon":-78.16675,"geocoding":{},"distantMaxMiles":5},"Lucea West":{"countryName":"Jamaica","stateName":"Hanover Parish","name":"Lucea West","lat":18.44238,"lon":-78.18663,"geocoding":{},"distantMaxMiles":5},"March Town":{"countryName":"Jamaica","stateName":"Hanover Parish","name":"March Town","lat":18.32951,"lon":-78.27656,"geocoding":{},"distantMaxMiles":5},"Maryland":{"countryName":"Jamaica","stateName":"Hanover Parish","name":"Maryland","lat":18.38679,"lon":-78.12825,"geocoding":{},"distantMaxMiles":5},"Mount Peto":{"countryName":"Jamaica","stateName":"Hanover Parish","name":"Mount Peto","lat":18.35747,"lon":-78.02289,"geocoding":{},"distantMaxMiles":5},"Orange Bay":{"countryName":"Jamaica","stateName":"Hanover Parish","name":"Orange Bay","lat":18.34266,"lon":-78.32005,"geocoding":{},"distantMaxMiles":5},"Pell River":{"countryName":"Jamaica","stateName":"Hanover Parish","name":"Pell River","lat":18.37886,"lon":-78.21904,"geocoding":{},"distantMaxMiles":5},"Pondside":{"countryName":"Jamaica","stateName":"Hanover Parish","name":"Pondside","lat":18.40222,"lon":-78.07344,"geocoding":{},"distantMaxMiles":5},"Ramble":{"countryName":"Jamaica","stateName":"Hanover Parish","name":"Ramble","lat":18.34674,"lon":-77.98802,"geocoding":{},"distantMaxMiles":5},"Rock Spring":{"countryName":"Jamaica","stateName":"Hanover Parish","name":"Rock Spring","lat":18.34797,"lon":-78.24392,"geocoding":{},"distantMaxMiles":5},"Sandy Bay":{"countryName":"Jamaica","stateName":"Hanover Parish","name":"Sandy Bay","lat":18.4375,"lon":-78.08383,"geocoding":{},"distantMaxMiles":5},"Santoy":{"countryName":"Jamaica","stateName":"Hanover Parish","name":"Santoy","lat":18.35875,"lon":-78.28386,"geocoding":{},"distantMaxMiles":5},"Success":{"countryName":"Jamaica","stateName":"Hanover Parish","name":"Success","lat":18.37729,"lon":-78.05105,"geocoding":{},"distantMaxMiles":5},"Woodlands":{"countryName":"Jamaica","stateName":"Hanover Parish","name":"Woodlands","lat":18.44555,"lon":-77.99963,"geocoding":{},"distantMaxMiles":5},"Woodsville":{"countryName":"Jamaica","stateName":"Hanover Parish","name":"Woodsville","lat":18.3695,"lon":-78.07217,"geocoding":{},"distantMaxMiles":5}}},"Kingston Parish":{"countryName":"Jamaica","name":"Kingston Parish","isoCode":"01","lat":17.9683271,"lon":-76.782702,"geocoding":{},"distantMaxMiles":5,"cities":{"Allman Town":{"countryName":"Jamaica","stateName":"Kingston Parish","name":"Allman Town","lat":17.98297,"lon":-76.78685,"geocoding":{},"distantMaxMiles":5},"Bournemouth Gardens":{"countryName":"Jamaica","stateName":"Kingston Parish","name":"Bournemouth Gardens","lat":17.97009,"lon":-76.76266,"geocoding":{},"distantMaxMiles":5},"Campbell Town":{"countryName":"Jamaica","stateName":"Kingston Parish","name":"Campbell Town","lat":17.97914,"lon":-76.78134,"geocoding":{},"distantMaxMiles":5},"Central Down Town":{"countryName":"Jamaica","stateName":"Kingston Parish","name":"Central Down Town","lat":17.96958,"lon":-76.79264,"geocoding":{},"distantMaxMiles":5},"D'Aguilar Town/ Rennock Lodge":{"countryName":"Jamaica","stateName":"Kingston Parish","name":"D'Aguilar Town/ Rennock Lodge","lat":17.97001,"lon":-76.73701,"geocoding":{},"distantMaxMiles":5},"Denham Town":{"countryName":"Jamaica","stateName":"Kingston Parish","name":"Denham Town","lat":17.97812,"lon":-76.79984,"geocoding":{},"distantMaxMiles":5},"East Down Town":{"countryName":"Jamaica","stateName":"Kingston Parish","name":"East Down Town","lat":17.97197,"lon":-76.78471,"geocoding":{},"distantMaxMiles":5},"Fletchers Land":{"countryName":"Jamaica","stateName":"Kingston Parish","name":"Fletchers Land","lat":17.97968,"lon":-76.791,"geocoding":{},"distantMaxMiles":5},"Franklyn Town":{"countryName":"Jamaica","stateName":"Kingston Parish","name":"Franklyn Town","lat":17.97787,"lon":-76.77339,"geocoding":{},"distantMaxMiles":5},"Hannah Town/ Craig Town":{"countryName":"Jamaica","stateName":"Kingston Parish","name":"Hannah Town/ Craig Town","lat":17.97998,"lon":-76.7943,"geocoding":{},"distantMaxMiles":5},"Johnson Town":{"countryName":"Jamaica","stateName":"Kingston Parish","name":"Johnson Town","lat":17.97771,"lon":-76.75593,"geocoding":{},"distantMaxMiles":5},"Kingston":{"countryName":"Jamaica","stateName":"Kingston Parish","name":"Kingston","lat":17.99702,"lon":-76.79358,"geocoding":{},"distantMaxMiles":5},"Kingston Gardens":{"countryName":"Jamaica","stateName":"Kingston Parish","name":"Kingston Gardens","lat":17.97836,"lon":-76.78681,"geocoding":{},"distantMaxMiles":5},"Manley Meadows":{"countryName":"Jamaica","stateName":"Kingston Parish","name":"Manley Meadows","lat":17.96907,"lon":-76.77116,"geocoding":{},"distantMaxMiles":5},"Newport East":{"countryName":"Jamaica","stateName":"Kingston Parish","name":"Newport East","lat":17.97421,"lon":-76.80663,"geocoding":{},"distantMaxMiles":5},"Newton Square":{"countryName":"Jamaica","stateName":"Kingston Parish","name":"Newton Square","lat":17.97352,"lon":-76.77207,"geocoding":{},"distantMaxMiles":5},"Norman Gardens":{"countryName":"Jamaica","stateName":"Kingston Parish","name":"Norman Gardens","lat":17.97803,"lon":-76.7594,"geocoding":{},"distantMaxMiles":5},"Passmore Town":{"countryName":"Jamaica","stateName":"Kingston Parish","name":"Passmore Town","lat":17.97301,"lon":-76.7765,"geocoding":{},"distantMaxMiles":5},"Port Royal":{"countryName":"Jamaica","stateName":"Kingston Parish","name":"Port Royal","lat":17.93738,"lon":-76.84062,"geocoding":{},"distantMaxMiles":5},"Rae Town":{"countryName":"Jamaica","stateName":"Kingston Parish","name":"Rae Town","lat":17.96773,"lon":-76.77965,"geocoding":{},"distantMaxMiles":5},"Rollington Town":{"countryName":"Jamaica","stateName":"Kingston Parish","name":"Rollington Town","lat":17.97687,"lon":-76.76523,"geocoding":{},"distantMaxMiles":5},"Southside":{"countryName":"Jamaica","stateName":"Kingston Parish","name":"Southside","lat":17.96569,"lon":-76.78624,"geocoding":{},"distantMaxMiles":5},"Springfield":{"countryName":"Jamaica","stateName":"Kingston Parish","name":"Springfield","lat":17.97117,"lon":-76.75607,"geocoding":{},"distantMaxMiles":5},"Tivoli Gardens":{"countryName":"Jamaica","stateName":"Kingston Parish","name":"Tivoli Gardens","lat":17.97326,"lon":-76.8009,"geocoding":{},"distantMaxMiles":5},"West Down Town":{"countryName":"Jamaica","stateName":"Kingston Parish","name":"West Down Town","lat":17.97294,"lon":-76.79704,"geocoding":{},"distantMaxMiles":5}}},"Manchester Parish":{"countryName":"Jamaica","name":"Manchester Parish","isoCode":"12","lat":18.0669654,"lon":-77.5160788,"geocoding":{},"distantMaxMiles":5,"cities":{"Alligator Pond":{"countryName":"Jamaica","stateName":"Manchester Parish","name":"Alligator Pond","lat":17.88369,"lon":-77.56068,"geocoding":{},"distantMaxMiles":5},"Asia/Pratville":{"countryName":"Jamaica","stateName":"Manchester Parish","name":"Asia/Pratville","lat":17.91584,"lon":-77.41563,"geocoding":{},"distantMaxMiles":5},"Auchtembeddie":{"countryName":"Jamaica","stateName":"Manchester Parish","name":"Auchtembeddie","lat":18.22543,"lon":-77.60361,"geocoding":{},"distantMaxMiles":5},"Bellefield":{"countryName":"Jamaica","stateName":"Manchester Parish","name":"Bellefield","lat":18.09266,"lon":-77.44004,"geocoding":{},"distantMaxMiles":5},"Bethany":{"countryName":"Jamaica","stateName":"Manchester Parish","name":"Bethany","lat":18.15373,"lon":-77.55032,"geocoding":{},"distantMaxMiles":5},"Blue Mountain":{"countryName":"Jamaica","stateName":"Manchester Parish","name":"Blue Mountain","lat":18.07095,"lon":-77.4284,"geocoding":{},"distantMaxMiles":5},"Bombay":{"countryName":"Jamaica","stateName":"Manchester Parish","name":"Bombay","lat":18.1178,"lon":-77.4494,"geocoding":{},"distantMaxMiles":5},"Butt-Up":{"countryName":"Jamaica","stateName":"Manchester Parish","name":"Butt-Up","lat":17.97313,"lon":-77.57777,"geocoding":{},"distantMaxMiles":5},"Cedar Grove":{"countryName":"Jamaica","stateName":"Manchester Parish","name":"Cedar Grove","lat":18.01225,"lon":-77.4963,"geocoding":{},"distantMaxMiles":5},"Chantilly":{"countryName":"Jamaica","stateName":"Manchester Parish","name":"Chantilly","lat":18.10447,"lon":-77.46625,"geocoding":{},"distantMaxMiles":5},"Christiana":{"countryName":"Jamaica","stateName":"Manchester Parish","name":"Christiana","lat":18.18015,"lon":-77.49045,"geocoding":{},"distantMaxMiles":5},"Chudleigh":{"countryName":"Jamaica","stateName":"Manchester Parish","name":"Chudleigh","lat":18.15148,"lon":-77.50707,"geocoding":{},"distantMaxMiles":5},"Cobbla":{"countryName":"Jamaica","stateName":"Manchester Parish","name":"Cobbla","lat":18.1406,"lon":-77.46998,"geocoding":{},"distantMaxMiles":5},"Coleyville":{"countryName":"Jamaica","stateName":"Manchester Parish","name":"Coleyville","lat":18.19993,"lon":-77.51924,"geocoding":{},"distantMaxMiles":5},"Comfort":{"countryName":"Jamaica","stateName":"Manchester Parish","name":"Comfort","lat":18.0539,"lon":-77.42477,"geocoding":{},"distantMaxMiles":5},"Comfort Hall":{"countryName":"Jamaica","stateName":"Manchester Parish","name":"Comfort Hall","lat":18.18789,"lon":-77.61041,"geocoding":{},"distantMaxMiles":5},"Content":{"countryName":"Jamaica","stateName":"Manchester Parish","name":"Content","lat":18.07444,"lon":-77.45116,"geocoding":{},"distantMaxMiles":5},"Craig Head":{"countryName":"Jamaica","stateName":"Manchester Parish","name":"Craig Head","lat":18.23658,"lon":-77.56295,"geocoding":{},"distantMaxMiles":5},"Cross Keys":{"countryName":"Jamaica","stateName":"Manchester Parish","name":"Cross Keys","lat":17.90727,"lon":-77.50111,"geocoding":{},"distantMaxMiles":5},"Devon":{"countryName":"Jamaica","stateName":"Manchester Parish","name":"Devon","lat":18.16595,"lon":-77.52507,"geocoding":{},"distantMaxMiles":5},"Downs":{"countryName":"Jamaica","stateName":"Manchester Parish","name":"Downs","lat":17.95004,"lon":-77.57313,"geocoding":{},"distantMaxMiles":5},"Ellen Street":{"countryName":"Jamaica","stateName":"Manchester Parish","name":"Ellen Street","lat":17.96796,"lon":-77.43931,"geocoding":{},"distantMaxMiles":5},"Evergreen":{"countryName":"Jamaica","stateName":"Manchester Parish","name":"Evergreen","lat":18.15096,"lon":-77.59965,"geocoding":{},"distantMaxMiles":5},"Fairfield":{"countryName":"Jamaica","stateName":"Manchester Parish","name":"Fairfield","lat":18.03117,"lon":-77.57535,"geocoding":{},"distantMaxMiles":5},"French Park":{"countryName":"Jamaica","stateName":"Manchester Parish","name":"French Park","lat":17.95572,"lon":-77.54471,"geocoding":{},"distantMaxMiles":5},"George's Valley":{"countryName":"Jamaica","stateName":"Manchester Parish","name":"George's Valley","lat":18.03172,"lon":-77.48081,"geocoding":{},"distantMaxMiles":5},"Good Intent":{"countryName":"Jamaica","stateName":"Manchester Parish","name":"Good Intent","lat":18.20806,"lon":-77.57086,"geocoding":{},"distantMaxMiles":5},"Greenvale":{"countryName":"Jamaica","stateName":"Manchester Parish","name":"Greenvale","lat":18.03928,"lon":-77.53239,"geocoding":{},"distantMaxMiles":5},"Grove Place":{"countryName":"Jamaica","stateName":"Manchester Parish","name":"Grove Place","lat":18.10467,"lon":-77.52923,"geocoding":{},"distantMaxMiles":5},"Grove Town":{"countryName":"Jamaica","stateName":"Manchester Parish","name":"Grove Town","lat":17.88606,"lon":-77.45882,"geocoding":{},"distantMaxMiles":5},"Harmons":{"countryName":"Jamaica","stateName":"Manchester Parish","name":"Harmons","lat":17.98171,"lon":-77.41208,"geocoding":{},"distantMaxMiles":5},"Harry Watch":{"countryName":"Jamaica","stateName":"Manchester Parish","name":"Harry Watch","lat":18.17314,"lon":-77.57611,"geocoding":{},"distantMaxMiles":5},"Hatfield":{"countryName":"Jamaica","stateName":"Manchester Parish","name":"Hatfield","lat":18.01557,"lon":-77.54009,"geocoding":{},"distantMaxMiles":5},"Heartease":{"countryName":"Jamaica","stateName":"Manchester Parish","name":"Heartease","lat":18.04878,"lon":-77.48238,"geocoding":{},"distantMaxMiles":5},"Hibernia":{"countryName":"Jamaica","stateName":"Manchester Parish","name":"Hibernia","lat":18.17575,"lon":-77.5483,"geocoding":{},"distantMaxMiles":5},"Huntley":{"countryName":"Jamaica","stateName":"Manchester Parish","name":"Huntley","lat":18.06647,"lon":-77.58171,"geocoding":{},"distantMaxMiles":5},"Kendal":{"countryName":"Jamaica","stateName":"Manchester Parish","name":"Kendal","lat":18.08318,"lon":-77.5032,"geocoding":{},"distantMaxMiles":5},"Knockpatrick":{"countryName":"Jamaica","stateName":"Manchester Parish","name":"Knockpatrick","lat":17.99027,"lon":-77.4927,"geocoding":{},"distantMaxMiles":5},"Lancaster":{"countryName":"Jamaica","stateName":"Manchester Parish","name":"Lancaster","lat":17.93603,"lon":-77.46134,"geocoding":{},"distantMaxMiles":5},"Litchfield":{"countryName":"Jamaica","stateName":"Manchester Parish","name":"Litchfield","lat":18.13502,"lon":-77.52448,"geocoding":{},"distantMaxMiles":5},"Maidstone":{"countryName":"Jamaica","stateName":"Manchester Parish","name":"Maidstone","lat":18.10165,"lon":-77.57284,"geocoding":{},"distantMaxMiles":5},"Mandeville":{"countryName":"Jamaica","stateName":"Manchester Parish","name":"Mandeville","lat":18.04168,"lon":-77.50714,"geocoding":{},"distantMaxMiles":5},"Mandeville Proper":{"countryName":"Jamaica","stateName":"Manchester Parish","name":"Mandeville Proper","lat":18.04453,"lon":-77.50574,"geocoding":{},"distantMaxMiles":5},"Marlie Hill":{"countryName":"Jamaica","stateName":"Manchester Parish","name":"Marlie Hill","lat":17.86692,"lon":-77.50835,"geocoding":{},"distantMaxMiles":5},"May Day":{"countryName":"Jamaica","stateName":"Manchester Parish","name":"May Day","lat":18.00951,"lon":-77.47606,"geocoding":{},"distantMaxMiles":5},"Medina":{"countryName":"Jamaica","stateName":"Manchester Parish","name":"Medina","lat":18.12236,"lon":-77.59643,"geocoding":{},"distantMaxMiles":5},"Mike Town":{"countryName":"Jamaica","stateName":"Manchester Parish","name":"Mike Town","lat":18.04253,"lon":-77.5549,"geocoding":{},"distantMaxMiles":5},"Mile Gully":{"countryName":"Jamaica","stateName":"Manchester Parish","name":"Mile Gully","lat":18.13395,"lon":-77.56556,"geocoding":{},"distantMaxMiles":5},"New Forest":{"countryName":"Jamaica","stateName":"Manchester Parish","name":"New Forest","lat":17.9201,"lon":-77.55867,"geocoding":{},"distantMaxMiles":5},"New Green":{"countryName":"Jamaica","stateName":"Manchester Parish","name":"New Green","lat":18.07663,"lon":-77.52569,"geocoding":{},"distantMaxMiles":5},"Newport":{"countryName":"Jamaica","stateName":"Manchester Parish","name":"Newport","lat":17.96293,"lon":-77.50486,"geocoding":{},"distantMaxMiles":5},"Old England":{"countryName":"Jamaica","stateName":"Manchester Parish","name":"Old England","lat":17.98503,"lon":-77.46017,"geocoding":{},"distantMaxMiles":5},"Part Of Banana Ground":{"countryName":"Jamaica","stateName":"Manchester Parish","name":"Part Of Banana Ground","lat":18.07912,"lon":-77.42134,"geocoding":{},"distantMaxMiles":5},"Part Of Gutters":{"countryName":"Jamaica","stateName":"Manchester Parish","name":"Part Of Gutters","lat":18.00642,"lon":-77.57903,"geocoding":{},"distantMaxMiles":5},"Part of Spaldings":{"countryName":"Jamaica","stateName":"Manchester Parish","name":"Part of Spaldings","lat":18.15819,"lon":-77.46627,"geocoding":{},"distantMaxMiles":5},"Pike":{"countryName":"Jamaica","stateName":"Manchester Parish","name":"Pike","lat":18.23229,"lon":-77.5379,"geocoding":{},"distantMaxMiles":5},"Plowden":{"countryName":"Jamaica","stateName":"Manchester Parish","name":"Plowden","lat":17.89178,"lon":-77.53846,"geocoding":{},"distantMaxMiles":5},"Porus":{"countryName":"Jamaica","stateName":"Manchester Parish","name":"Porus","lat":18.03535,"lon":-77.41166,"geocoding":{},"distantMaxMiles":5},"Prospect":{"countryName":"Jamaica","stateName":"Manchester Parish","name":"Prospect","lat":17.98244,"lon":-77.56775,"geocoding":{},"distantMaxMiles":5},"Richmond":{"countryName":"Jamaica","stateName":"Manchester Parish","name":"Richmond","lat":18.0256,"lon":-77.46337,"geocoding":{},"distantMaxMiles":5},"Robins Hall":{"countryName":"Jamaica","stateName":"Manchester Parish","name":"Robins Hall","lat":18.20405,"lon":-77.55007,"geocoding":{},"distantMaxMiles":5},"Rose Hill":{"countryName":"Jamaica","stateName":"Manchester Parish","name":"Rose Hill","lat":17.92471,"lon":-77.5234,"geocoding":{},"distantMaxMiles":5},"Royal Flat":{"countryName":"Jamaica","stateName":"Manchester Parish","name":"Royal Flat","lat":18.04965,"lon":-77.4683,"geocoding":{},"distantMaxMiles":5},"Scotts Pass":{"countryName":"Jamaica","stateName":"Manchester Parish","name":"Scotts Pass","lat":17.9992,"lon":-77.3982,"geocoding":{},"distantMaxMiles":5},"Snowdon":{"countryName":"Jamaica","stateName":"Manchester Parish","name":"Snowdon","lat":17.94198,"lon":-77.49137,"geocoding":{},"distantMaxMiles":5},"Somerset":{"countryName":"Jamaica","stateName":"Manchester Parish","name":"Somerset","lat":18.08036,"lon":-77.54306,"geocoding":{},"distantMaxMiles":5},"Spring Ground":{"countryName":"Jamaica","stateName":"Manchester Parish","name":"Spring Ground","lat":18.16233,"lon":-77.47977,"geocoding":{},"distantMaxMiles":5},"Spur Tree":{"countryName":"Jamaica","stateName":"Manchester Parish","name":"Spur Tree","lat":18.0065,"lon":-77.55664,"geocoding":{},"distantMaxMiles":5},"St. Paul's":{"countryName":"Jamaica","stateName":"Manchester Parish","name":"St. Paul's","lat":18.13144,"lon":-77.612,"geocoding":{},"distantMaxMiles":5},"Swaby's Hope":{"countryName":"Jamaica","stateName":"Manchester Parish","name":"Swaby's Hope","lat":17.98608,"lon":-77.53326,"geocoding":{},"distantMaxMiles":5},"Top Hill":{"countryName":"Jamaica","stateName":"Manchester Parish","name":"Top Hill","lat":18.11622,"lon":-77.50344,"geocoding":{},"distantMaxMiles":5},"Victoria Town":{"countryName":"Jamaica","stateName":"Manchester Parish","name":"Victoria Town","lat":17.90472,"lon":-77.37795,"geocoding":{},"distantMaxMiles":5},"Walderston":{"countryName":"Jamaica","stateName":"Manchester Parish","name":"Walderston","lat":18.11637,"lon":-77.48614,"geocoding":{},"distantMaxMiles":5},"Watham":{"countryName":"Jamaica","stateName":"Manchester Parish","name":"Watham","lat":18.00675,"lon":-77.51873,"geocoding":{},"distantMaxMiles":5},"Williamsfield":{"countryName":"Jamaica","stateName":"Manchester Parish","name":"Williamsfield","lat":18.06664,"lon":-77.46582,"geocoding":{},"distantMaxMiles":5}}},"Portland Parish":{"countryName":"Jamaica","name":"Portland Parish","isoCode":"04","lat":18.0844274,"lon":-76.4100267,"geocoding":{},"distantMaxMiles":5,"cities":{"Balcarres":{"countryName":"Jamaica","stateName":"Portland Parish","name":"Balcarres","lat":18.16735,"lon":-76.72061,"geocoding":{},"distantMaxMiles":5},"Bangor Ridge":{"countryName":"Jamaica","stateName":"Portland Parish","name":"Bangor Ridge","lat":18.13637,"lon":-76.68903,"geocoding":{},"distantMaxMiles":5},"Belvedere":{"countryName":"Jamaica","stateName":"Portland Parish","name":"Belvedere","lat":18.20772,"lon":-76.69671,"geocoding":{},"distantMaxMiles":5},"Black Hill":{"countryName":"Jamaica","stateName":"Portland Parish","name":"Black Hill","lat":18.21786,"lon":-76.59758,"geocoding":{},"distantMaxMiles":5},"Boundbrook":{"countryName":"Jamaica","stateName":"Portland Parish","name":"Boundbrook","lat":18.17573,"lon":-76.47079,"geocoding":{},"distantMaxMiles":5},"Breastworks":{"countryName":"Jamaica","stateName":"Portland Parish","name":"Breastworks","lat":18.16,"lon":-76.46612,"geocoding":{},"distantMaxMiles":5},"Buff Bay":{"countryName":"Jamaica","stateName":"Portland Parish","name":"Buff Bay","lat":18.23287,"lon":-76.66118,"geocoding":{},"distantMaxMiles":5},"Bybrook":{"countryName":"Jamaica","stateName":"Portland Parish","name":"Bybrook","lat":18.14641,"lon":-76.65726,"geocoding":{},"distantMaxMiles":5},"Cascade":{"countryName":"Jamaica","stateName":"Portland Parish","name":"Cascade","lat":18.09377,"lon":-76.71223,"geocoding":{},"distantMaxMiles":5},"Castle Comfort":{"countryName":"Jamaica","stateName":"Portland Parish","name":"Castle Comfort","lat":18.14217,"lon":-76.34634,"geocoding":{},"distantMaxMiles":5},"Central Port Antonio":{"countryName":"Jamaica","stateName":"Portland Parish","name":"Central Port Antonio","lat":18.18763,"lon":-76.45343,"geocoding":{},"distantMaxMiles":5},"Charles Town":{"countryName":"Jamaica","stateName":"Portland Parish","name":"Charles Town","lat":18.20526,"lon":-76.6639,"geocoding":{},"distantMaxMiles":5},"Claverty Cottage":{"countryName":"Jamaica","stateName":"Portland Parish","name":"Claverty Cottage","lat":18.14876,"lon":-76.63923,"geocoding":{},"distantMaxMiles":5},"Comfort Castle":{"countryName":"Jamaica","stateName":"Portland Parish","name":"Comfort Castle","lat":18.04833,"lon":-76.41614,"geocoding":{},"distantMaxMiles":5},"Drapers":{"countryName":"Jamaica","stateName":"Portland Parish","name":"Drapers","lat":18.17121,"lon":-76.40612,"geocoding":{},"distantMaxMiles":5},"Durham":{"countryName":"Jamaica","stateName":"Portland Parish","name":"Durham","lat":18.08566,"lon":-76.51562,"geocoding":{},"distantMaxMiles":5},"Fairy Hill":{"countryName":"Jamaica","stateName":"Portland Parish","name":"Fairy Hill","lat":18.16508,"lon":-76.36595,"geocoding":{},"distantMaxMiles":5},"Fellowship":{"countryName":"Jamaica","stateName":"Portland Parish","name":"Fellowship","lat":18.12783,"lon":-76.47202,"geocoding":{},"distantMaxMiles":5},"Fruitfulvale":{"countryName":"Jamaica","stateName":"Portland Parish","name":"Fruitfulvale","lat":18.10891,"lon":-76.58617,"geocoding":{},"distantMaxMiles":5},"Hectors River":{"countryName":"Jamaica","stateName":"Portland Parish","name":"Hectors River","lat":18.00089,"lon":-76.27055,"geocoding":{},"distantMaxMiles":5},"Hope Bay":{"countryName":"Jamaica","stateName":"Portland Parish","name":"Hope Bay","lat":18.18754,"lon":-76.57579,"geocoding":{},"distantMaxMiles":5},"Kensington":{"countryName":"Jamaica","stateName":"Portland Parish","name":"Kensington","lat":18.06765,"lon":-76.30053,"geocoding":{},"distantMaxMiles":5},"Long Bay":{"countryName":"Jamaica","stateName":"Portland Parish","name":"Long Bay","lat":18.08581,"lon":-76.32515,"geocoding":{},"distantMaxMiles":5},"Long Road":{"countryName":"Jamaica","stateName":"Portland Parish","name":"Long Road","lat":18.00864,"lon":-76.29482,"geocoding":{},"distantMaxMiles":5},"Manchioneal":{"countryName":"Jamaica","stateName":"Portland Parish","name":"Manchioneal","lat":18.04444,"lon":-76.27735,"geocoding":{},"distantMaxMiles":5},"Moore Town":{"countryName":"Jamaica","stateName":"Portland Parish","name":"Moore Town","lat":18.07767,"lon":-76.42577,"geocoding":{},"distantMaxMiles":5},"Mount Pleasant":{"countryName":"Jamaica","stateName":"Portland Parish","name":"Mount Pleasant","lat":18.16325,"lon":-76.50472,"geocoding":{},"distantMaxMiles":5},"Nonsuch":{"countryName":"Jamaica","stateName":"Portland Parish","name":"Nonsuch","lat":18.13819,"lon":-76.40467,"geocoding":{},"distantMaxMiles":5},"Norwich":{"countryName":"Jamaica","stateName":"Portland Parish","name":"Norwich","lat":18.18819,"lon":-76.47705,"geocoding":{},"distantMaxMiles":5},"Orange Bay":{"countryName":"Jamaica","stateName":"Portland Parish","name":"Orange Bay","lat":18.20306,"lon":-76.6225,"geocoding":{},"distantMaxMiles":5},"Port Antonio":{"countryName":"Jamaica","stateName":"Portland Parish","name":"Port Antonio","lat":18.17615,"lon":-76.4509,"geocoding":{},"distantMaxMiles":5},"Prospect":{"countryName":"Jamaica","stateName":"Portland Parish","name":"Prospect","lat":18.17481,"lon":-76.4355,"geocoding":{},"distantMaxMiles":5},"Rock Hall":{"countryName":"Jamaica","stateName":"Portland Parish","name":"Rock Hall","lat":18.1617,"lon":-76.5305,"geocoding":{},"distantMaxMiles":5},"Sherwood Forest":{"countryName":"Jamaica","stateName":"Portland Parish","name":"Sherwood Forest","lat":18.15428,"lon":-76.37821,"geocoding":{},"distantMaxMiles":5},"Shirley Castle":{"countryName":"Jamaica","stateName":"Portland Parish","name":"Shirley Castle","lat":18.15657,"lon":-76.61112,"geocoding":{},"distantMaxMiles":5},"Skibo":{"countryName":"Jamaica","stateName":"Portland Parish","name":"Skibo","lat":18.17318,"lon":-76.62752,"geocoding":{},"distantMaxMiles":5},"Snow Hill":{"countryName":"Jamaica","stateName":"Portland Parish","name":"Snow Hill","lat":18.19474,"lon":-76.4935,"geocoding":{},"distantMaxMiles":5},"Spring Hill":{"countryName":"Jamaica","stateName":"Portland Parish","name":"Spring Hill","lat":18.12591,"lon":-76.72909,"geocoding":{},"distantMaxMiles":5},"St. Margaret's Bay":{"countryName":"Jamaica","stateName":"Portland Parish","name":"St. Margaret's Bay","lat":18.19084,"lon":-76.52888,"geocoding":{},"distantMaxMiles":5},"Swift River":{"countryName":"Jamaica","stateName":"Portland Parish","name":"Swift River","lat":18.1577,"lon":-76.57869,"geocoding":{},"distantMaxMiles":5},"Tranquility":{"countryName":"Jamaica","stateName":"Portland Parish","name":"Tranquility","lat":18.18028,"lon":-76.6815,"geocoding":{},"distantMaxMiles":5},"Windsor":{"countryName":"Jamaica","stateName":"Portland Parish","name":"Windsor","lat":18.10673,"lon":-76.44631,"geocoding":{},"distantMaxMiles":5},"Windsor Castle":{"countryName":"Jamaica","stateName":"Portland Parish","name":"Windsor Castle","lat":18.24888,"lon":-76.69029,"geocoding":{},"distantMaxMiles":5},"Windsor Forest":{"countryName":"Jamaica","stateName":"Portland Parish","name":"Windsor Forest","lat":18.12057,"lon":-76.33876,"geocoding":{},"distantMaxMiles":5}}},"Saint Andrew":{"countryName":"Jamaica","name":"Saint Andrew","isoCode":"02","lat":37.2245103,"lon":-95.7021189,"geocoding":{},"distantMaxMiles":5,"cities":{"Arcadia":{"countryName":"Jamaica","stateName":"Saint Andrew","name":"Arcadia","lat":18.03737,"lon":-76.78201,"geocoding":{},"distantMaxMiles":5},"Arlene Gardens":{"countryName":"Jamaica","stateName":"Saint Andrew","name":"Arlene Gardens","lat":18.03713,"lon":-76.81791,"geocoding":{},"distantMaxMiles":5},"Arnett Gardens":{"countryName":"Jamaica","stateName":"Saint Andrew","name":"Arnett Gardens","lat":17.9915,"lon":-76.79829,"geocoding":{},"distantMaxMiles":5},"August Town":{"countryName":"Jamaica","stateName":"Saint Andrew","name":"August Town","lat":17.99556,"lon":-76.73673,"geocoding":{},"distantMaxMiles":5},"Barbican":{"countryName":"Jamaica","stateName":"Saint Andrew","name":"Barbican","lat":18.03549,"lon":-76.76987,"geocoding":{},"distantMaxMiles":5},"Beverley Hills":{"countryName":"Jamaica","stateName":"Saint Andrew","name":"Beverley Hills","lat":18.00833,"lon":-76.76208,"geocoding":{},"distantMaxMiles":5},"Bito":{"countryName":"Jamaica","stateName":"Saint Andrew","name":"Bito","lat":17.97363,"lon":-76.66625,"geocoding":{},"distantMaxMiles":5},"Bloxborough":{"countryName":"Jamaica","stateName":"Saint Andrew","name":"Bloxborough","lat":17.99581,"lon":-76.64767,"geocoding":{},"distantMaxMiles":5},"Boucher Park":{"countryName":"Jamaica","stateName":"Saint Andrew","name":"Boucher Park","lat":18.00344,"lon":-76.81257,"geocoding":{},"distantMaxMiles":5},"Brandon Hill":{"countryName":"Jamaica","stateName":"Saint Andrew","name":"Brandon Hill","lat":18.14822,"lon":-76.80513,"geocoding":{},"distantMaxMiles":5},"Bull Bay/ Seven Mile":{"countryName":"Jamaica","stateName":"Saint Andrew","name":"Bull Bay/ Seven Mile","lat":17.95247,"lon":-76.68404,"geocoding":{},"distantMaxMiles":5},"Cane River":{"countryName":"Jamaica","stateName":"Saint Andrew","name":"Cane River","lat":17.98098,"lon":-76.68624,"geocoding":{},"distantMaxMiles":5},"Cassia Park":{"countryName":"Jamaica","stateName":"Saint Andrew","name":"Cassia Park","lat":18.02047,"lon":-76.80665,"geocoding":{},"distantMaxMiles":5},"Cavaliers":{"countryName":"Jamaica","stateName":"Saint Andrew","name":"Cavaliers","lat":18.09677,"lon":-76.84321,"geocoding":{},"distantMaxMiles":5},"Cherry Gardens":{"countryName":"Jamaica","stateName":"Saint Andrew","name":"Cherry Gardens","lat":18.04963,"lon":-76.77867,"geocoding":{},"distantMaxMiles":5},"Cockburn Gardens":{"countryName":"Jamaica","stateName":"Saint Andrew","name":"Cockburn Gardens","lat":18.00357,"lon":-76.82435,"geocoding":{},"distantMaxMiles":5},"Constant Spring":{"countryName":"Jamaica","stateName":"Saint Andrew","name":"Constant Spring","lat":18.05078,"lon":-76.79372,"geocoding":{},"distantMaxMiles":5},"Constant Spring Gardens":{"countryName":"Jamaica","stateName":"Saint Andrew","name":"Constant Spring Gardens","lat":18.02942,"lon":-76.79956,"geocoding":{},"distantMaxMiles":5},"Constitution Hill":{"countryName":"Jamaica","stateName":"Saint Andrew","name":"Constitution Hill","lat":18.01488,"lon":-76.70515,"geocoding":{},"distantMaxMiles":5},"Content Gap":{"countryName":"Jamaica","stateName":"Saint Andrew","name":"Content Gap","lat":18.04082,"lon":-76.6907,"geocoding":{},"distantMaxMiles":5},"Cooreville Gardens":{"countryName":"Jamaica","stateName":"Saint Andrew","name":"Cooreville Gardens","lat":18.02244,"lon":-76.84852,"geocoding":{},"distantMaxMiles":5},"Cross Roads":{"countryName":"Jamaica","stateName":"Saint Andrew","name":"Cross Roads","lat":17.99454,"lon":-76.7881,"geocoding":{},"distantMaxMiles":5},"Dallas":{"countryName":"Jamaica","stateName":"Saint Andrew","name":"Dallas","lat":17.98463,"lon":-76.71256,"geocoding":{},"distantMaxMiles":5},"Delacree Park/ Union Gardens":{"countryName":"Jamaica","stateName":"Saint Andrew","name":"Delacree Park/ Union Gardens","lat":17.9921,"lon":-76.8224,"geocoding":{},"distantMaxMiles":5},"Delacree Pen":{"countryName":"Jamaica","stateName":"Saint Andrew","name":"Delacree Pen","lat":17.99579,"lon":-76.81709,"geocoding":{},"distantMaxMiles":5},"Drewsland":{"countryName":"Jamaica","stateName":"Saint Andrew","name":"Drewsland","lat":18.02381,"lon":-76.82626,"geocoding":{},"distantMaxMiles":5},"Drumblair":{"countryName":"Jamaica","stateName":"Saint Andrew","name":"Drumblair","lat":18.02354,"lon":-76.78759,"geocoding":{},"distantMaxMiles":5},"Duhaney Park":{"countryName":"Jamaica","stateName":"Saint Andrew","name":"Duhaney Park","lat":18.03086,"lon":-76.84617,"geocoding":{},"distantMaxMiles":5},"Eastwood Park Gardens":{"countryName":"Jamaica","stateName":"Saint Andrew","name":"Eastwood Park Gardens","lat":18.01891,"lon":-76.80072,"geocoding":{},"distantMaxMiles":5},"Elleston Flats/ Mona Commons":{"countryName":"Jamaica","stateName":"Saint Andrew","name":"Elleston Flats/ Mona Commons","lat":18.00945,"lon":-76.74034,"geocoding":{},"distantMaxMiles":5},"Ferry":{"countryName":"Jamaica","stateName":"Saint Andrew","name":"Ferry","lat":18.02771,"lon":-76.8672,"geocoding":{},"distantMaxMiles":5},"Forest Hills Gardens":{"countryName":"Jamaica","stateName":"Saint Andrew","name":"Forest Hills Gardens","lat":18.03848,"lon":-76.82868,"geocoding":{},"distantMaxMiles":5},"Forest Hills/ Plantation Height":{"countryName":"Jamaica","stateName":"Saint Andrew","name":"Forest Hills/ Plantation Height","lat":18.043,"lon":-76.8514,"geocoding":{},"distantMaxMiles":5},"Golden Spring":{"countryName":"Jamaica","stateName":"Saint Andrew","name":"Golden Spring","lat":18.09446,"lon":-76.79727,"geocoding":{},"distantMaxMiles":5},"Gordon Town":{"countryName":"Jamaica","stateName":"Saint Andrew","name":"Gordon Town","lat":18.03762,"lon":-76.72353,"geocoding":{},"distantMaxMiles":5},"Grants Pen":{"countryName":"Jamaica","stateName":"Saint Andrew","name":"Grants Pen","lat":18.03258,"lon":-76.78887,"geocoding":{},"distantMaxMiles":5},"Greenwich Town/ Newport West":{"countryName":"Jamaica","stateName":"Saint Andrew","name":"Greenwich Town/ Newport West","lat":17.98438,"lon":-76.82559,"geocoding":{},"distantMaxMiles":5},"Half Way Tree":{"countryName":"Jamaica","stateName":"Saint Andrew","name":"Half Way Tree","lat":18.01248,"lon":-76.79928,"geocoding":{},"distantMaxMiles":5},"Half-Way-Tree":{"countryName":"Jamaica","stateName":"Saint Andrew","name":"Half-Way-Tree","lat":18.01259,"lon":-76.79582,"geocoding":{},"distantMaxMiles":5},"Harbour View":{"countryName":"Jamaica","stateName":"Saint Andrew","name":"Harbour View","lat":17.95146,"lon":-76.71662,"geocoding":{},"distantMaxMiles":5},"Havendale":{"countryName":"Jamaica","stateName":"Saint Andrew","name":"Havendale","lat":18.05429,"lon":-76.8087,"geocoding":{},"distantMaxMiles":5},"Hermitage":{"countryName":"Jamaica","stateName":"Saint Andrew","name":"Hermitage","lat":17.98351,"lon":-76.74102,"geocoding":{},"distantMaxMiles":5},"Hope Pastures/ UTECH":{"countryName":"Jamaica","stateName":"Saint Andrew","name":"Hope Pastures/ UTECH","lat":18.02306,"lon":-76.74987,"geocoding":{},"distantMaxMiles":5},"Hope Tavern":{"countryName":"Jamaica","stateName":"Saint Andrew","name":"Hope Tavern","lat":18.01233,"lon":-76.73202,"geocoding":{},"distantMaxMiles":5},"Hughenden":{"countryName":"Jamaica","stateName":"Saint Andrew","name":"Hughenden","lat":18.03037,"lon":-76.81728,"geocoding":{},"distantMaxMiles":5},"Irish Town":{"countryName":"Jamaica","stateName":"Saint Andrew","name":"Irish Town","lat":18.06234,"lon":-76.70262,"geocoding":{},"distantMaxMiles":5},"Jacks Hill":{"countryName":"Jamaica","stateName":"Saint Andrew","name":"Jacks Hill","lat":18.03872,"lon":-76.74892,"geocoding":{},"distantMaxMiles":5},"Jones Town":{"countryName":"Jamaica","stateName":"Saint Andrew","name":"Jones Town","lat":17.98422,"lon":-76.79691,"geocoding":{},"distantMaxMiles":5},"Kencot":{"countryName":"Jamaica","stateName":"Saint Andrew","name":"Kencot","lat":18.00041,"lon":-76.79835,"geocoding":{},"distantMaxMiles":5},"Kintyre":{"countryName":"Jamaica","stateName":"Saint Andrew","name":"Kintyre","lat":18.02133,"lon":-76.72688,"geocoding":{},"distantMaxMiles":5},"Lawrence Tavern":{"countryName":"Jamaica","stateName":"Saint Andrew","name":"Lawrence Tavern","lat":18.13742,"lon":-76.84736,"geocoding":{},"distantMaxMiles":5},"Liguanea":{"countryName":"Jamaica","stateName":"Saint Andrew","name":"Liguanea","lat":18.02097,"lon":-76.76827,"geocoding":{},"distantMaxMiles":5},"Majestic Gardens":{"countryName":"Jamaica","stateName":"Saint Andrew","name":"Majestic Gardens","lat":18.00023,"lon":-76.83295,"geocoding":{},"distantMaxMiles":5},"Mannings Hill":{"countryName":"Jamaica","stateName":"Saint Andrew","name":"Mannings Hill","lat":18.07052,"lon":-76.81288,"geocoding":{},"distantMaxMiles":5},"Mannings Hill (Rural)":{"countryName":"Jamaica","stateName":"Saint Andrew","name":"Mannings Hill (Rural)","lat":18.08169,"lon":-76.82328,"geocoding":{},"distantMaxMiles":5},"Marverley":{"countryName":"Jamaica","stateName":"Saint Andrew","name":"Marverley","lat":18.02676,"lon":-76.82652,"geocoding":{},"distantMaxMiles":5},"Maryland":{"countryName":"Jamaica","stateName":"Saint Andrew","name":"Maryland","lat":18.05166,"lon":-76.7432,"geocoding":{},"distantMaxMiles":5},"Mavis Bank":{"countryName":"Jamaica","stateName":"Saint Andrew","name":"Mavis Bank","lat":18.03333,"lon":-76.66667,"geocoding":{},"distantMaxMiles":5},"Maxfield Park":{"countryName":"Jamaica","stateName":"Saint Andrew","name":"Maxfield Park","lat":17.99937,"lon":-76.808,"geocoding":{},"distantMaxMiles":5},"Meadowbrook":{"countryName":"Jamaica","stateName":"Saint Andrew","name":"Meadowbrook","lat":18.04708,"lon":-76.81553,"geocoding":{},"distantMaxMiles":5},"Meadowbrook Estate":{"countryName":"Jamaica","stateName":"Saint Andrew","name":"Meadowbrook Estate","lat":18.03738,"lon":-76.82964,"geocoding":{},"distantMaxMiles":5},"Molynes Four Roads":{"countryName":"Jamaica","stateName":"Saint Andrew","name":"Molynes Four Roads","lat":18.01035,"lon":-76.81112,"geocoding":{},"distantMaxMiles":5},"Molynes Gardens":{"countryName":"Jamaica","stateName":"Saint Andrew","name":"Molynes Gardens","lat":18.0198,"lon":-76.81621,"geocoding":{},"distantMaxMiles":5},"Mona Heights":{"countryName":"Jamaica","stateName":"Saint Andrew","name":"Mona Heights","lat":18.01331,"lon":-76.75086,"geocoding":{},"distantMaxMiles":5},"Mount James":{"countryName":"Jamaica","stateName":"Saint Andrew","name":"Mount James","lat":18.12069,"lon":-76.77394,"geocoding":{},"distantMaxMiles":5},"Mountain View Gardens":{"countryName":"Jamaica","stateName":"Saint Andrew","name":"Mountain View Gardens","lat":17.99186,"lon":-76.7607,"geocoding":{},"distantMaxMiles":5},"Nannyville":{"countryName":"Jamaica","stateName":"Saint Andrew","name":"Nannyville","lat":17.99677,"lon":-76.76949,"geocoding":{},"distantMaxMiles":5},"New Haven":{"countryName":"Jamaica","stateName":"Saint Andrew","name":"New Haven","lat":18.02953,"lon":-76.85425,"geocoding":{},"distantMaxMiles":5},"New Kingston":{"countryName":"Jamaica","stateName":"Saint Andrew","name":"New Kingston","lat":18.00747,"lon":-76.78319,"geocoding":{},"distantMaxMiles":5},"Norbrook":{"countryName":"Jamaica","stateName":"Saint Andrew","name":"Norbrook","lat":18.05483,"lon":-76.78498,"geocoding":{},"distantMaxMiles":5},"Oaklands":{"countryName":"Jamaica","stateName":"Saint Andrew","name":"Oaklands","lat":18.03558,"lon":-76.79563,"geocoding":{},"distantMaxMiles":5},"Papine":{"countryName":"Jamaica","stateName":"Saint Andrew","name":"Papine","lat":18.01536,"lon":-76.73868,"geocoding":{},"distantMaxMiles":5},"Parks Road":{"countryName":"Jamaica","stateName":"Saint Andrew","name":"Parks Road","lat":18.09802,"lon":-76.85941,"geocoding":{},"distantMaxMiles":5},"Patrick City":{"countryName":"Jamaica","stateName":"Saint Andrew","name":"Patrick City","lat":18.03185,"lon":-76.83774,"geocoding":{},"distantMaxMiles":5},"Pembroke Hall":{"countryName":"Jamaica","stateName":"Saint Andrew","name":"Pembroke Hall","lat":18.03113,"lon":-76.83003,"geocoding":{},"distantMaxMiles":5},"Penwood":{"countryName":"Jamaica","stateName":"Saint Andrew","name":"Penwood","lat":18.01952,"lon":-76.83094,"geocoding":{},"distantMaxMiles":5},"Queensborough/ Tunbridge":{"countryName":"Jamaica","stateName":"Saint Andrew","name":"Queensborough/ Tunbridge","lat":18.04289,"lon":-76.82119,"geocoding":{},"distantMaxMiles":5},"Red Hills (Rural)":{"countryName":"Jamaica","stateName":"Saint Andrew","name":"Red Hills (Rural)","lat":18.06777,"lon":-76.86093,"geocoding":{},"distantMaxMiles":5},"Red Hills Gardens":{"countryName":"Jamaica","stateName":"Saint Andrew","name":"Red Hills Gardens","lat":18.03,"lon":-76.80994,"geocoding":{},"distantMaxMiles":5},"Red Hills/ Sterling Castle":{"countryName":"Jamaica","stateName":"Saint Andrew","name":"Red Hills/ Sterling Castle","lat":18.05946,"lon":-76.84028,"geocoding":{},"distantMaxMiles":5},"Richmond Park":{"countryName":"Jamaica","stateName":"Saint Andrew","name":"Richmond Park","lat":18.0056,"lon":-76.80464,"geocoding":{},"distantMaxMiles":5},"Riverton City":{"countryName":"Jamaica","stateName":"Saint Andrew","name":"Riverton City","lat":18.01443,"lon":-76.84897,"geocoding":{},"distantMaxMiles":5},"Roehampton":{"countryName":"Jamaica","stateName":"Saint Andrew","name":"Roehampton","lat":18.0432,"lon":-76.80841,"geocoding":{},"distantMaxMiles":5},"Rose Town":{"countryName":"Jamaica","stateName":"Saint Andrew","name":"Rose Town","lat":17.98697,"lon":-76.80726,"geocoding":{},"distantMaxMiles":5},"Seaview Gardens":{"countryName":"Jamaica","stateName":"Saint Andrew","name":"Seaview Gardens","lat":18.00619,"lon":-76.84106,"geocoding":{},"distantMaxMiles":5},"Seaward Pen":{"countryName":"Jamaica","stateName":"Saint Andrew","name":"Seaward Pen","lat":18.019,"lon":-76.82368,"geocoding":{},"distantMaxMiles":5},"Seymour Lands":{"countryName":"Jamaica","stateName":"Saint Andrew","name":"Seymour Lands","lat":18.01291,"lon":-76.77706,"geocoding":{},"distantMaxMiles":5},"St. Peter's":{"countryName":"Jamaica","stateName":"Saint Andrew","name":"St. Peter's","lat":18.07881,"lon":-76.67202,"geocoding":{},"distantMaxMiles":5},"Stadium Gardens":{"countryName":"Jamaica","stateName":"Saint Andrew","name":"Stadium Gardens","lat":17.99501,"lon":-76.77644,"geocoding":{},"distantMaxMiles":5},"Stony Hill":{"countryName":"Jamaica","stateName":"Saint Andrew","name":"Stony Hill","lat":18.07916,"lon":-76.78473,"geocoding":{},"distantMaxMiles":5},"Swallowfield":{"countryName":"Jamaica","stateName":"Saint Andrew","name":"Swallowfield","lat":18.00486,"lon":-76.77439,"geocoding":{},"distantMaxMiles":5},"Temple Hall":{"countryName":"Jamaica","stateName":"Saint Andrew","name":"Temple Hall","lat":18.10471,"lon":-76.81818,"geocoding":{},"distantMaxMiles":5},"Three Oaks/ Glendale":{"countryName":"Jamaica","stateName":"Saint Andrew","name":"Three Oaks/ Glendale","lat":18.03128,"lon":-76.82447,"geocoding":{},"distantMaxMiles":5},"Tower Hill":{"countryName":"Jamaica","stateName":"Saint Andrew","name":"Tower Hill","lat":18.01183,"lon":-76.82807,"geocoding":{},"distantMaxMiles":5},"Trafalgar Park":{"countryName":"Jamaica","stateName":"Saint Andrew","name":"Trafalgar Park","lat":18.0128,"lon":-76.78465,"geocoding":{},"distantMaxMiles":5},"Trench Town":{"countryName":"Jamaica","stateName":"Saint Andrew","name":"Trench Town","lat":17.98743,"lon":-76.80118,"geocoding":{},"distantMaxMiles":5},"University":{"countryName":"Jamaica","stateName":"Saint Andrew","name":"University","lat":18.00094,"lon":-76.74769,"geocoding":{},"distantMaxMiles":5},"Vineyard Town":{"countryName":"Jamaica","stateName":"Saint Andrew","name":"Vineyard Town","lat":17.9869,"lon":-76.77059,"geocoding":{},"distantMaxMiles":5},"Waltham Gardens":{"countryName":"Jamaica","stateName":"Saint Andrew","name":"Waltham Gardens","lat":18.01085,"lon":-76.82049,"geocoding":{},"distantMaxMiles":5},"Washington Gardens":{"countryName":"Jamaica","stateName":"Saint Andrew","name":"Washington Gardens","lat":18.02174,"lon":-76.8402,"geocoding":{},"distantMaxMiles":5},"Waterhouse":{"countryName":"Jamaica","stateName":"Saint Andrew","name":"Waterhouse","lat":18.01231,"lon":-76.83505,"geocoding":{},"distantMaxMiles":5},"Whitehall":{"countryName":"Jamaica","stateName":"Saint Andrew","name":"Whitehall","lat":18.03838,"lon":-76.80583,"geocoding":{},"distantMaxMiles":5},"Whitfield Town":{"countryName":"Jamaica","stateName":"Saint Andrew","name":"Whitfield Town","lat":17.99212,"lon":-76.8091,"geocoding":{},"distantMaxMiles":5},"Wilton Gardens/ Rema":{"countryName":"Jamaica","stateName":"Saint Andrew","name":"Wilton Gardens/ Rema","lat":17.98287,"lon":-76.80422,"geocoding":{},"distantMaxMiles":5},"Woodford":{"countryName":"Jamaica","stateName":"Saint Andrew","name":"Woodford","lat":18.07362,"lon":-76.74632,"geocoding":{},"distantMaxMiles":5},"Woodford Park":{"countryName":"Jamaica","stateName":"Saint Andrew","name":"Woodford Park","lat":17.98712,"lon":-76.78117,"geocoding":{},"distantMaxMiles":5},"Zaidie Gardens":{"countryName":"Jamaica","stateName":"Saint Andrew","name":"Zaidie Gardens","lat":18.02566,"lon":-76.80978,"geocoding":{},"distantMaxMiles":5}}},"Saint Ann Parish":{"countryName":"Jamaica","name":"Saint Ann Parish","isoCode":"06","lat":37.2871452,"lon":-77.4103533,"geocoding":{},"distantMaxMiles":5,"cities":{"Aboukir":{"countryName":"Jamaica","stateName":"Saint Ann Parish","name":"Aboukir","lat":18.2509,"lon":-77.34327,"geocoding":{},"distantMaxMiles":5},"Alderton":{"countryName":"Jamaica","stateName":"Saint Ann Parish","name":"Alderton","lat":18.28706,"lon":-77.20832,"geocoding":{},"distantMaxMiles":5},"Alexandria":{"countryName":"Jamaica","stateName":"Saint Ann Parish","name":"Alexandria","lat":18.30411,"lon":-77.35311,"geocoding":{},"distantMaxMiles":5},"Alva":{"countryName":"Jamaica","stateName":"Saint Ann Parish","name":"Alva","lat":18.29679,"lon":-77.31717,"geocoding":{},"distantMaxMiles":5},"Bamboo":{"countryName":"Jamaica","stateName":"Saint Ann Parish","name":"Bamboo","lat":18.39216,"lon":-77.26429,"geocoding":{},"distantMaxMiles":5},"Beecher Town":{"countryName":"Jamaica","stateName":"Saint Ann Parish","name":"Beecher Town","lat":18.38465,"lon":-77.11617,"geocoding":{},"distantMaxMiles":5},"Bensonton":{"countryName":"Jamaica","stateName":"Saint Ann Parish","name":"Bensonton","lat":18.22315,"lon":-77.20861,"geocoding":{},"distantMaxMiles":5},"Blackstonedge":{"countryName":"Jamaica","stateName":"Saint Ann Parish","name":"Blackstonedge","lat":18.27357,"lon":-77.04254,"geocoding":{},"distantMaxMiles":5},"Bohemia":{"countryName":"Jamaica","stateName":"Saint Ann Parish","name":"Bohemia","lat":18.21239,"lon":-77.46954,"geocoding":{},"distantMaxMiles":5},"Borobridge":{"countryName":"Jamaica","stateName":"Saint Ann Parish","name":"Borobridge","lat":18.19779,"lon":-77.42755,"geocoding":{},"distantMaxMiles":5},"Browns Town":{"countryName":"Jamaica","stateName":"Saint Ann Parish","name":"Browns Town","lat":18.38464,"lon":-77.35286,"geocoding":{},"distantMaxMiles":5},"Calderwood":{"countryName":"Jamaica","stateName":"Saint Ann Parish","name":"Calderwood","lat":18.25641,"lon":-77.27144,"geocoding":{},"distantMaxMiles":5},"Cascade":{"countryName":"Jamaica","stateName":"Saint Ann Parish","name":"Cascade","lat":18.23209,"lon":-77.46255,"geocoding":{},"distantMaxMiles":5},"Cave Valley":{"countryName":"Jamaica","stateName":"Saint Ann Parish","name":"Cave Valley","lat":18.23268,"lon":-77.36337,"geocoding":{},"distantMaxMiles":5},"Chalky Hill":{"countryName":"Jamaica","stateName":"Saint Ann Parish","name":"Chalky Hill","lat":18.37964,"lon":-77.1752,"geocoding":{},"distantMaxMiles":5},"Chester":{"countryName":"Jamaica","stateName":"Saint Ann Parish","name":"Chester","lat":18.44786,"lon":-77.26503,"geocoding":{},"distantMaxMiles":5},"Claremont":{"countryName":"Jamaica","stateName":"Saint Ann Parish","name":"Claremont","lat":18.32556,"lon":-77.20643,"geocoding":{},"distantMaxMiles":5},"Cole Gate":{"countryName":"Jamaica","stateName":"Saint Ann Parish","name":"Cole Gate","lat":18.37967,"lon":-77.08518,"geocoding":{},"distantMaxMiles":5},"Content Garden":{"countryName":"Jamaica","stateName":"Saint Ann Parish","name":"Content Garden","lat":18.40977,"lon":-77.0754,"geocoding":{},"distantMaxMiles":5},"Cuffie Ridge":{"countryName":"Jamaica","stateName":"Saint Ann Parish","name":"Cuffie Ridge","lat":18.22793,"lon":-77.42054,"geocoding":{},"distantMaxMiles":5},"Discovery Bay":{"countryName":"Jamaica","stateName":"Saint Ann Parish","name":"Discovery Bay","lat":18.43725,"lon":-77.41815,"geocoding":{},"distantMaxMiles":5},"Epworth":{"countryName":"Jamaica","stateName":"Saint Ann Parish","name":"Epworth","lat":18.36083,"lon":-77.13342,"geocoding":{},"distantMaxMiles":5},"Exchange":{"countryName":"Jamaica","stateName":"Saint Ann Parish","name":"Exchange","lat":18.37265,"lon":-77.06572,"geocoding":{},"distantMaxMiles":5},"Faith's Pen":{"countryName":"Jamaica","stateName":"Saint Ann Parish","name":"Faith's Pen","lat":18.22963,"lon":-77.08804,"geocoding":{},"distantMaxMiles":5},"Gibraltar":{"countryName":"Jamaica","stateName":"Saint Ann Parish","name":"Gibraltar","lat":18.35079,"lon":-77.42142,"geocoding":{},"distantMaxMiles":5},"Golden Grove":{"countryName":"Jamaica","stateName":"Saint Ann Parish","name":"Golden Grove","lat":18.32956,"lon":-77.12256,"geocoding":{},"distantMaxMiles":5},"Great Pond":{"countryName":"Jamaica","stateName":"Saint Ann Parish","name":"Great Pond","lat":18.40227,"lon":-77.08511,"geocoding":{},"distantMaxMiles":5},"Higgin Land":{"countryName":"Jamaica","stateName":"Saint Ann Parish","name":"Higgin Land","lat":18.34119,"lon":-77.27072,"geocoding":{},"distantMaxMiles":5},"Hinds Town":{"countryName":"Jamaica","stateName":"Saint Ann Parish","name":"Hinds Town","lat":18.35425,"lon":-77.09812,"geocoding":{},"distantMaxMiles":5},"Inverness":{"countryName":"Jamaica","stateName":"Saint Ann Parish","name":"Inverness","lat":18.27531,"lon":-77.36862,"geocoding":{},"distantMaxMiles":5},"Lime Hall":{"countryName":"Jamaica","stateName":"Saint Ann Parish","name":"Lime Hall","lat":18.39742,"lon":-77.21051,"geocoding":{},"distantMaxMiles":5},"Lime Tree Gardens":{"countryName":"Jamaica","stateName":"Saint Ann Parish","name":"Lime Tree Gardens","lat":18.34545,"lon":-77.38645,"geocoding":{},"distantMaxMiles":5},"Linton Park":{"countryName":"Jamaica","stateName":"Saint Ann Parish","name":"Linton Park","lat":18.26081,"lon":-77.42221,"geocoding":{},"distantMaxMiles":5},"Macknie":{"countryName":"Jamaica","stateName":"Saint Ann Parish","name":"Macknie","lat":18.21191,"lon":-77.28016,"geocoding":{},"distantMaxMiles":5},"Madras":{"countryName":"Jamaica","stateName":"Saint Ann Parish","name":"Madras","lat":18.29112,"lon":-77.44875,"geocoding":{},"distantMaxMiles":5},"Mansfield":{"countryName":"Jamaica","stateName":"Saint Ann Parish","name":"Mansfield","lat":18.40265,"lon":-77.09488,"geocoding":{},"distantMaxMiles":5},"Moneague":{"countryName":"Jamaica","stateName":"Saint Ann Parish","name":"Moneague","lat":18.28307,"lon":-77.13855,"geocoding":{},"distantMaxMiles":5},"Mount Moriah":{"countryName":"Jamaica","stateName":"Saint Ann Parish","name":"Mount Moriah","lat":18.20617,"lon":-77.44094,"geocoding":{},"distantMaxMiles":5},"Mount Zion":{"countryName":"Jamaica","stateName":"Saint Ann Parish","name":"Mount Zion","lat":18.43377,"lon":-77.28028,"geocoding":{},"distantMaxMiles":5},"Ocho Rios":{"countryName":"Jamaica","stateName":"Saint Ann Parish","name":"Ocho Rios","lat":18.4076,"lon":-77.10312,"geocoding":{},"distantMaxMiles":5},"Parry Town":{"countryName":"Jamaica","stateName":"Saint Ann Parish","name":"Parry Town","lat":18.38359,"lon":-77.10345,"geocoding":{},"distantMaxMiles":5},"Philadelphia":{"countryName":"Jamaica","stateName":"Saint Ann Parish","name":"Philadelphia","lat":18.40005,"lon":-77.32735,"geocoding":{},"distantMaxMiles":5},"Pimento Walk":{"countryName":"Jamaica","stateName":"Saint Ann Parish","name":"Pimento Walk","lat":18.39578,"lon":-77.11383,"geocoding":{},"distantMaxMiles":5},"Priory":{"countryName":"Jamaica","stateName":"Saint Ann Parish","name":"Priory","lat":18.4366,"lon":-77.24551,"geocoding":{},"distantMaxMiles":5},"River Head":{"countryName":"Jamaica","stateName":"Saint Ann Parish","name":"River Head","lat":18.2603,"lon":-77.07782,"geocoding":{},"distantMaxMiles":5},"Runaway Bay":{"countryName":"Jamaica","stateName":"Saint Ann Parish","name":"Runaway Bay","lat":18.45962,"lon":-77.3357,"geocoding":{},"distantMaxMiles":5},"Saint Anns Bay":{"countryName":"Jamaica","stateName":"Saint Ann Parish","name":"Saint Anns Bay","lat":18.43581,"lon":-77.20098,"geocoding":{},"distantMaxMiles":5},"St. Ann's Bay":{"countryName":"Jamaica","stateName":"Saint Ann Parish","name":"St. Ann's Bay","lat":18.42989,"lon":-77.20775,"geocoding":{},"distantMaxMiles":5},"St. D'Acre":{"countryName":"Jamaica","stateName":"Saint Ann Parish","name":"St. D'Acre","lat":18.333,"lon":-77.36297,"geocoding":{},"distantMaxMiles":5},"Steer Town":{"countryName":"Jamaica","stateName":"Saint Ann Parish","name":"Steer Town","lat":18.42852,"lon":-77.17101,"geocoding":{},"distantMaxMiles":5},"Sturge Town":{"countryName":"Jamaica","stateName":"Saint Ann Parish","name":"Sturge Town","lat":18.41631,"lon":-77.31988,"geocoding":{},"distantMaxMiles":5},"Walkers Wood":{"countryName":"Jamaica","stateName":"Saint Ann Parish","name":"Walkers Wood","lat":18.31939,"lon":-77.07082,"geocoding":{},"distantMaxMiles":5},"Watt Town":{"countryName":"Jamaica","stateName":"Saint Ann Parish","name":"Watt Town","lat":18.29427,"lon":-77.41466,"geocoding":{},"distantMaxMiles":5},"York Castle":{"countryName":"Jamaica","stateName":"Saint Ann Parish","name":"York Castle","lat":18.27515,"lon":-77.22923,"geocoding":{},"distantMaxMiles":5}}},"Saint Catherine Parish":{"countryName":"Jamaica","name":"Saint Catherine Parish","isoCode":"14","lat":18.0364134,"lon":-77.0564464,"geocoding":{},"distantMaxMiles":5,"cities":{"Above Rocks":{"countryName":"Jamaica","stateName":"Saint Catherine Parish","name":"Above Rocks","lat":18.11432,"lon":-76.8759,"geocoding":{},"distantMaxMiles":5},"Bartons":{"countryName":"Jamaica","stateName":"Saint Catherine Parish","name":"Bartons","lat":18.02895,"lon":-77.13322,"geocoding":{},"distantMaxMiles":5},"Bellas Gate":{"countryName":"Jamaica","stateName":"Saint Catherine Parish","name":"Bellas Gate","lat":18.04715,"lon":-77.14906,"geocoding":{},"distantMaxMiles":5},"Bog Walk":{"countryName":"Jamaica","stateName":"Saint Catherine Parish","name":"Bog Walk","lat":18.10205,"lon":-77.00541,"geocoding":{},"distantMaxMiles":5},"Bogwalk":{"countryName":"Jamaica","stateName":"Saint Catherine Parish","name":"Bogwalk","lat":18.10468,"lon":-76.98792,"geocoding":{},"distantMaxMiles":5},"Braeton":{"countryName":"Jamaica","stateName":"Saint Catherine Parish","name":"Braeton","lat":17.94174,"lon":-76.88635,"geocoding":{},"distantMaxMiles":5},"Bridgeport":{"countryName":"Jamaica","stateName":"Saint Catherine Parish","name":"Bridgeport","lat":17.96264,"lon":-76.87809,"geocoding":{},"distantMaxMiles":5},"Browns Hill":{"countryName":"Jamaica","stateName":"Saint Catherine Parish","name":"Browns Hill","lat":18.05358,"lon":-77.11855,"geocoding":{},"distantMaxMiles":5},"Caymanas":{"countryName":"Jamaica","stateName":"Saint Catherine Parish","name":"Caymanas","lat":18.03824,"lon":-76.89833,"geocoding":{},"distantMaxMiles":5},"Central Village":{"countryName":"Jamaica","stateName":"Saint Catherine Parish","name":"Central Village","lat":17.99992,"lon":-76.92393,"geocoding":{},"distantMaxMiles":5},"Crescent":{"countryName":"Jamaica","stateName":"Saint Catherine Parish","name":"Crescent","lat":18.03621,"lon":-76.97626,"geocoding":{},"distantMaxMiles":5},"Cromarty":{"countryName":"Jamaica","stateName":"Saint Catherine Parish","name":"Cromarty","lat":17.9584,"lon":-76.98457,"geocoding":{},"distantMaxMiles":5},"Cumberland":{"countryName":"Jamaica","stateName":"Saint Catherine Parish","name":"Cumberland","lat":17.9765,"lon":-76.88208,"geocoding":{},"distantMaxMiles":5},"Edgewater":{"countryName":"Jamaica","stateName":"Saint Catherine Parish","name":"Edgewater","lat":17.96448,"lon":-76.86547,"geocoding":{},"distantMaxMiles":5},"Ensom":{"countryName":"Jamaica","stateName":"Saint Catherine Parish","name":"Ensom","lat":18.01778,"lon":-76.96221,"geocoding":{},"distantMaxMiles":5},"Ewarton":{"countryName":"Jamaica","stateName":"Saint Catherine Parish","name":"Ewarton","lat":18.18333,"lon":-77.08536,"geocoding":{},"distantMaxMiles":5},"Ginger Ridge":{"countryName":"Jamaica","stateName":"Saint Catherine Parish","name":"Ginger Ridge","lat":18.07688,"lon":-77.16865,"geocoding":{},"distantMaxMiles":5},"Glengoffe":{"countryName":"Jamaica","stateName":"Saint Catherine Parish","name":"Glengoffe","lat":18.15214,"lon":-76.89057,"geocoding":{},"distantMaxMiles":5},"Golden Acres":{"countryName":"Jamaica","stateName":"Saint Catherine Parish","name":"Golden Acres","lat":18.0195,"lon":-76.9804,"geocoding":{},"distantMaxMiles":5},"Greater Portmore":{"countryName":"Jamaica","stateName":"Saint Catherine Parish","name":"Greater Portmore","lat":17.95228,"lon":-76.91133,"geocoding":{},"distantMaxMiles":5},"Greendale":{"countryName":"Jamaica","stateName":"Saint Catherine Parish","name":"Greendale","lat":18.01251,"lon":-76.94831,"geocoding":{},"distantMaxMiles":5},"Gregory Park":{"countryName":"Jamaica","stateName":"Saint Catherine Parish","name":"Gregory Park","lat":17.9949,"lon":-76.88302,"geocoding":{},"distantMaxMiles":5},"Hampton Green":{"countryName":"Jamaica","stateName":"Saint Catherine Parish","name":"Hampton Green","lat":18.00544,"lon":-76.96818,"geocoding":{},"distantMaxMiles":5},"Harewood":{"countryName":"Jamaica","stateName":"Saint Catherine Parish","name":"Harewood","lat":18.17277,"lon":-76.94395,"geocoding":{},"distantMaxMiles":5},"Harkers Hall":{"countryName":"Jamaica","stateName":"Saint Catherine Parish","name":"Harkers Hall","lat":18.13149,"lon":-76.9135,"geocoding":{},"distantMaxMiles":5},"Hellshire":{"countryName":"Jamaica","stateName":"Saint Catherine Parish","name":"Hellshire","lat":17.89669,"lon":-76.96187,"geocoding":{},"distantMaxMiles":5},"Independence City":{"countryName":"Jamaica","stateName":"Saint Catherine Parish","name":"Independence City","lat":17.97783,"lon":-76.87498,"geocoding":{},"distantMaxMiles":5},"Keystone":{"countryName":"Jamaica","stateName":"Saint Catherine Parish","name":"Keystone","lat":18.01652,"lon":-76.93525,"geocoding":{},"distantMaxMiles":5},"Kitson Town":{"countryName":"Jamaica","stateName":"Saint Catherine Parish","name":"Kitson Town","lat":18.03487,"lon":-77.04028,"geocoding":{},"distantMaxMiles":5},"Linstead":{"countryName":"Jamaica","stateName":"Saint Catherine Parish","name":"Linstead","lat":18.13683,"lon":-77.03171,"geocoding":{},"distantMaxMiles":5},"Lluidas Vale":{"countryName":"Jamaica","stateName":"Saint Catherine Parish","name":"Lluidas Vale","lat":18.14977,"lon":-77.16853,"geocoding":{},"distantMaxMiles":5},"Naggo Head":{"countryName":"Jamaica","stateName":"Saint Catherine Parish","name":"Naggo Head","lat":17.96415,"lon":-76.8882,"geocoding":{},"distantMaxMiles":5},"Old Harbour":{"countryName":"Jamaica","stateName":"Saint Catherine Parish","name":"Old Harbour","lat":17.94144,"lon":-77.10898,"geocoding":{},"distantMaxMiles":5},"Old Harbour Bay":{"countryName":"Jamaica","stateName":"Saint Catherine Parish","name":"Old Harbour Bay","lat":17.90918,"lon":-77.09718,"geocoding":{},"distantMaxMiles":5},"Old Harbour Road":{"countryName":"Jamaica","stateName":"Saint Catherine Parish","name":"Old Harbour Road","lat":17.95797,"lon":-77.0273,"geocoding":{},"distantMaxMiles":5},"Part of Guys Hill":{"countryName":"Jamaica","stateName":"Saint Catherine Parish","name":"Part of Guys Hill","lat":18.24525,"lon":-76.99081,"geocoding":{},"distantMaxMiles":5},"Part of Keystone":{"countryName":"Jamaica","stateName":"Saint Catherine Parish","name":"Part of Keystone","lat":18.03965,"lon":-76.95113,"geocoding":{},"distantMaxMiles":5},"Part of Rock Hall":{"countryName":"Jamaica","stateName":"Saint Catherine Parish","name":"Part of Rock Hall","lat":18.09119,"lon":-76.88804,"geocoding":{},"distantMaxMiles":5},"Passage Fort":{"countryName":"Jamaica","stateName":"Saint Catherine Parish","name":"Passage Fort","lat":17.97788,"lon":-76.86793,"geocoding":{},"distantMaxMiles":5},"Pear Tree Grove":{"countryName":"Jamaica","stateName":"Saint Catherine Parish","name":"Pear Tree Grove","lat":18.22515,"lon":-76.95293,"geocoding":{},"distantMaxMiles":5},"Point Hill":{"countryName":"Jamaica","stateName":"Saint Catherine Parish","name":"Point Hill","lat":18.09361,"lon":-77.1048,"geocoding":{},"distantMaxMiles":5},"Portmore":{"countryName":"Jamaica","stateName":"Saint Catherine Parish","name":"Portmore","lat":17.95032,"lon":-76.88215,"geocoding":{},"distantMaxMiles":5},"Redwood":{"countryName":"Jamaica","stateName":"Saint Catherine Parish","name":"Redwood","lat":18.21026,"lon":-76.98536,"geocoding":{},"distantMaxMiles":5},"Riversdale":{"countryName":"Jamaica","stateName":"Saint Catherine Parish","name":"Riversdale","lat":18.17802,"lon":-76.96636,"geocoding":{},"distantMaxMiles":5},"Sligoville":{"countryName":"Jamaica","stateName":"Saint Catherine Parish","name":"Sligoville","lat":18.08203,"lon":-76.93991,"geocoding":{},"distantMaxMiles":5},"Spanish Town":{"countryName":"Jamaica","stateName":"Saint Catherine Parish","name":"Spanish Town","lat":17.99107,"lon":-76.95742,"geocoding":{},"distantMaxMiles":5},"Spanish Town Central":{"countryName":"Jamaica","stateName":"Saint Catherine Parish","name":"Spanish Town Central","lat":17.98014,"lon":-76.92294,"geocoding":{},"distantMaxMiles":5},"St. John's East":{"countryName":"Jamaica","stateName":"Saint Catherine Parish","name":"St. John's East","lat":18.0009,"lon":-76.97466,"geocoding":{},"distantMaxMiles":5},"St. John's West":{"countryName":"Jamaica","stateName":"Saint Catherine Parish","name":"St. John's West","lat":18.00539,"lon":-77.00755,"geocoding":{},"distantMaxMiles":5},"Troja":{"countryName":"Jamaica","stateName":"Saint Catherine Parish","name":"Troja","lat":18.20485,"lon":-76.93196,"geocoding":{},"distantMaxMiles":5},"Waterford":{"countryName":"Jamaica","stateName":"Saint Catherine Parish","name":"Waterford","lat":17.9934,"lon":-76.8609,"geocoding":{},"distantMaxMiles":5},"Watermount":{"countryName":"Jamaica","stateName":"Saint Catherine Parish","name":"Watermount","lat":18.06686,"lon":-77.09112,"geocoding":{},"distantMaxMiles":5},"West Cumberland":{"countryName":"Jamaica","stateName":"Saint Catherine Parish","name":"West Cumberland","lat":17.9789,"lon":-76.88662,"geocoding":{},"distantMaxMiles":5},"Willowdene":{"countryName":"Jamaica","stateName":"Saint Catherine Parish","name":"Willowdene","lat":17.99189,"lon":-76.98199,"geocoding":{},"distantMaxMiles":5}}},"Saint Elizabeth Parish":{"countryName":"Jamaica","name":"Saint Elizabeth Parish","isoCode":"11","lat":38.9925308,"lon":-94.58992,"geocoding":{},"distantMaxMiles":5,"cities":{"Aberdeen":{"countryName":"Jamaica","stateName":"Saint Elizabeth Parish","name":"Aberdeen","lat":18.20508,"lon":-77.67932,"geocoding":{},"distantMaxMiles":5},"Accompong":{"countryName":"Jamaica","stateName":"Saint Elizabeth Parish","name":"Accompong","lat":18.22985,"lon":-77.74816,"geocoding":{},"distantMaxMiles":5},"Alligator Pond":{"countryName":"Jamaica","stateName":"Saint Elizabeth Parish","name":"Alligator Pond","lat":17.86932,"lon":-77.56769,"geocoding":{},"distantMaxMiles":5},"Balaclava":{"countryName":"Jamaica","stateName":"Saint Elizabeth Parish","name":"Balaclava","lat":18.17228,"lon":-77.64375,"geocoding":{},"distantMaxMiles":5},"Ballards  Valley":{"countryName":"Jamaica","stateName":"Saint Elizabeth Parish","name":"Ballards  Valley","lat":17.87949,"lon":-77.63086,"geocoding":{},"distantMaxMiles":5},"Barbary Hall":{"countryName":"Jamaica","stateName":"Saint Elizabeth Parish","name":"Barbary Hall","lat":17.968,"lon":-77.77961,"geocoding":{},"distantMaxMiles":5},"Bigwoods":{"countryName":"Jamaica","stateName":"Saint Elizabeth Parish","name":"Bigwoods","lat":17.93338,"lon":-77.71897,"geocoding":{},"distantMaxMiles":5},"Black River":{"countryName":"Jamaica","stateName":"Saint Elizabeth Parish","name":"Black River","lat":18.02636,"lon":-77.84873,"geocoding":{},"distantMaxMiles":5},"Bogue":{"countryName":"Jamaica","stateName":"Saint Elizabeth Parish","name":"Bogue","lat":18.13619,"lon":-77.6697,"geocoding":{},"distantMaxMiles":5},"Braes River":{"countryName":"Jamaica","stateName":"Saint Elizabeth Parish","name":"Braes River","lat":18.09351,"lon":-77.66487,"geocoding":{},"distantMaxMiles":5},"Brighton":{"countryName":"Jamaica","stateName":"Saint Elizabeth Parish","name":"Brighton","lat":18.14836,"lon":-77.85604,"geocoding":{},"distantMaxMiles":5},"Brompton":{"countryName":"Jamaica","stateName":"Saint Elizabeth Parish","name":"Brompton","lat":18.06795,"lon":-77.88821,"geocoding":{},"distantMaxMiles":5},"Bull Savanna":{"countryName":"Jamaica","stateName":"Saint Elizabeth Parish","name":"Bull Savanna","lat":17.88678,"lon":-77.59022,"geocoding":{},"distantMaxMiles":5},"Bull Savannah":{"countryName":"Jamaica","stateName":"Saint Elizabeth Parish","name":"Bull Savannah","lat":17.88056,"lon":-77.59,"geocoding":{},"distantMaxMiles":5},"Burnt Savannah":{"countryName":"Jamaica","stateName":"Saint Elizabeth Parish","name":"Burnt Savannah","lat":18.03177,"lon":-77.74936,"geocoding":{},"distantMaxMiles":5},"Carisbrook":{"countryName":"Jamaica","stateName":"Saint Elizabeth Parish","name":"Carisbrook","lat":18.14742,"lon":-77.77367,"geocoding":{},"distantMaxMiles":5},"Cotterwood":{"countryName":"Jamaica","stateName":"Saint Elizabeth Parish","name":"Cotterwood","lat":18.09492,"lon":-77.91553,"geocoding":{},"distantMaxMiles":5},"Crawford":{"countryName":"Jamaica","stateName":"Saint Elizabeth Parish","name":"Crawford","lat":18.0506,"lon":-77.91596,"geocoding":{},"distantMaxMiles":5},"Elderslie":{"countryName":"Jamaica","stateName":"Saint Elizabeth Parish","name":"Elderslie","lat":18.22416,"lon":-77.79381,"geocoding":{},"distantMaxMiles":5},"Fullerswood":{"countryName":"Jamaica","stateName":"Saint Elizabeth Parish","name":"Fullerswood","lat":18.01527,"lon":-77.77572,"geocoding":{},"distantMaxMiles":5},"Giddy Hall":{"countryName":"Jamaica","stateName":"Saint Elizabeth Parish","name":"Giddy Hall","lat":18.09702,"lon":-77.86764,"geocoding":{},"distantMaxMiles":5},"Ginger Hill":{"countryName":"Jamaica","stateName":"Saint Elizabeth Parish","name":"Ginger Hill","lat":18.1918,"lon":-77.84867,"geocoding":{},"distantMaxMiles":5},"Goshen":{"countryName":"Jamaica","stateName":"Saint Elizabeth Parish","name":"Goshen","lat":18.04964,"lon":-77.64136,"geocoding":{},"distantMaxMiles":5},"Holland":{"countryName":"Jamaica","stateName":"Saint Elizabeth Parish","name":"Holland","lat":18.10358,"lon":-77.80164,"geocoding":{},"distantMaxMiles":5},"Hopeton":{"countryName":"Jamaica","stateName":"Saint Elizabeth Parish","name":"Hopeton","lat":17.95626,"lon":-77.66239,"geocoding":{},"distantMaxMiles":5},"Junction":{"countryName":"Jamaica","stateName":"Saint Elizabeth Parish","name":"Junction","lat":17.91467,"lon":-77.59894,"geocoding":{},"distantMaxMiles":5},"Lacovia":{"countryName":"Jamaica","stateName":"Saint Elizabeth Parish","name":"Lacovia","lat":18.08844,"lon":-77.7535,"geocoding":{},"distantMaxMiles":5},"Leeds":{"countryName":"Jamaica","stateName":"Saint Elizabeth Parish","name":"Leeds","lat":18.01399,"lon":-77.68374,"geocoding":{},"distantMaxMiles":5},"Lititz":{"countryName":"Jamaica","stateName":"Saint Elizabeth Parish","name":"Lititz","lat":17.94033,"lon":-77.59511,"geocoding":{},"distantMaxMiles":5},"Maggotty":{"countryName":"Jamaica","stateName":"Saint Elizabeth Parish","name":"Maggotty","lat":18.17343,"lon":-77.76681,"geocoding":{},"distantMaxMiles":5},"Malvern":{"countryName":"Jamaica","stateName":"Saint Elizabeth Parish","name":"Malvern","lat":17.96667,"lon":-77.7,"geocoding":{},"distantMaxMiles":5},"Merrywood":{"countryName":"Jamaica","stateName":"Saint Elizabeth Parish","name":"Merrywood","lat":18.21793,"lon":-77.83773,"geocoding":{},"distantMaxMiles":5},"Middle Quarters":{"countryName":"Jamaica","stateName":"Saint Elizabeth Parish","name":"Middle Quarters","lat":18.11455,"lon":-77.83808,"geocoding":{},"distantMaxMiles":5},"Mountainside":{"countryName":"Jamaica","stateName":"Saint Elizabeth Parish","name":"Mountainside","lat":17.98077,"lon":-77.74786,"geocoding":{},"distantMaxMiles":5},"Mulgrave":{"countryName":"Jamaica","stateName":"Saint Elizabeth Parish","name":"Mulgrave","lat":18.21164,"lon":-77.82018,"geocoding":{},"distantMaxMiles":5},"Myersville":{"countryName":"Jamaica","stateName":"Saint Elizabeth Parish","name":"Myersville","lat":17.99699,"lon":-77.62425,"geocoding":{},"distantMaxMiles":5},"Nain":{"countryName":"Jamaica","stateName":"Saint Elizabeth Parish","name":"Nain","lat":17.96526,"lon":-77.60528,"geocoding":{},"distantMaxMiles":5},"New Market":{"countryName":"Jamaica","stateName":"Saint Elizabeth Parish","name":"New Market","lat":18.15362,"lon":-77.90962,"geocoding":{},"distantMaxMiles":5},"Newell":{"countryName":"Jamaica","stateName":"Saint Elizabeth Parish","name":"Newell","lat":17.92103,"lon":-77.74653,"geocoding":{},"distantMaxMiles":5},"Newton":{"countryName":"Jamaica","stateName":"Saint Elizabeth Parish","name":"Newton","lat":18.11095,"lon":-77.72352,"geocoding":{},"distantMaxMiles":5},"Parottee":{"countryName":"Jamaica","stateName":"Saint Elizabeth Parish","name":"Parottee","lat":17.96174,"lon":-77.81774,"geocoding":{},"distantMaxMiles":5},"Pedro Plains":{"countryName":"Jamaica","stateName":"Saint Elizabeth Parish","name":"Pedro Plains","lat":17.88569,"lon":-77.71337,"geocoding":{},"distantMaxMiles":5},"Pepper":{"countryName":"Jamaica","stateName":"Saint Elizabeth Parish","name":"Pepper","lat":18.02105,"lon":-77.61284,"geocoding":{},"distantMaxMiles":5},"Pisgah":{"countryName":"Jamaica","stateName":"Saint Elizabeth Parish","name":"Pisgah","lat":18.19605,"lon":-77.88671,"geocoding":{},"distantMaxMiles":5},"Pondside":{"countryName":"Jamaica","stateName":"Saint Elizabeth Parish","name":"Pondside","lat":17.98153,"lon":-77.7945,"geocoding":{},"distantMaxMiles":5},"Potsdam":{"countryName":"Jamaica","stateName":"Saint Elizabeth Parish","name":"Potsdam","lat":17.91872,"lon":-77.66869,"geocoding":{},"distantMaxMiles":5},"Quick Step":{"countryName":"Jamaica","stateName":"Saint Elizabeth Parish","name":"Quick Step","lat":18.23281,"lon":-77.67831,"geocoding":{},"distantMaxMiles":5},"Red Bank":{"countryName":"Jamaica","stateName":"Saint Elizabeth Parish","name":"Red Bank","lat":17.93776,"lon":-77.62585,"geocoding":{},"distantMaxMiles":5},"Retirement":{"countryName":"Jamaica","stateName":"Saint Elizabeth Parish","name":"Retirement","lat":18.2074,"lon":-77.76698,"geocoding":{},"distantMaxMiles":5},"Rose Hall":{"countryName":"Jamaica","stateName":"Saint Elizabeth Parish","name":"Rose Hall","lat":17.92654,"lon":-77.64153,"geocoding":{},"distantMaxMiles":5},"Russels":{"countryName":"Jamaica","stateName":"Saint Elizabeth Parish","name":"Russels","lat":17.98638,"lon":-77.65065,"geocoding":{},"distantMaxMiles":5},"Santa Cruz":{"countryName":"Jamaica","stateName":"Saint Elizabeth Parish","name":"Santa Cruz","lat":18.05336,"lon":-77.69836,"geocoding":{},"distantMaxMiles":5},"Scholefield":{"countryName":"Jamaica","stateName":"Saint Elizabeth Parish","name":"Scholefield","lat":18.02375,"lon":-77.71884,"geocoding":{},"distantMaxMiles":5},"Siloah":{"countryName":"Jamaica","stateName":"Saint Elizabeth Parish","name":"Siloah","lat":18.16334,"lon":-77.71061,"geocoding":{},"distantMaxMiles":5},"Slipe":{"countryName":"Jamaica","stateName":"Saint Elizabeth Parish","name":"Slipe","lat":18.0574,"lon":-77.79687,"geocoding":{},"distantMaxMiles":5},"Southfield":{"countryName":"Jamaica","stateName":"Saint Elizabeth Parish","name":"Southfield","lat":17.88212,"lon":-77.66988,"geocoding":{},"distantMaxMiles":5},"Springfield":{"countryName":"Jamaica","stateName":"Saint Elizabeth Parish","name":"Springfield","lat":18.17662,"lon":-77.87392,"geocoding":{},"distantMaxMiles":5},"Thornton":{"countryName":"Jamaica","stateName":"Saint Elizabeth Parish","name":"Thornton","lat":18.19564,"lon":-77.72246,"geocoding":{},"distantMaxMiles":5},"Top Hill":{"countryName":"Jamaica","stateName":"Saint Elizabeth Parish","name":"Top Hill","lat":17.89317,"lon":-77.63793,"geocoding":{},"distantMaxMiles":5},"Treasure Beach":{"countryName":"Jamaica","stateName":"Saint Elizabeth Parish","name":"Treasure Beach","lat":17.8955,"lon":-77.76051,"geocoding":{},"distantMaxMiles":5},"Warminister":{"countryName":"Jamaica","stateName":"Saint Elizabeth Parish","name":"Warminister","lat":17.96238,"lon":-77.63956,"geocoding":{},"distantMaxMiles":5},"Watchwell":{"countryName":"Jamaica","stateName":"Saint Elizabeth Parish","name":"Watchwell","lat":17.93876,"lon":-77.7725,"geocoding":{},"distantMaxMiles":5},"White Hill":{"countryName":"Jamaica","stateName":"Saint Elizabeth Parish","name":"White Hill","lat":18.15646,"lon":-77.81067,"geocoding":{},"distantMaxMiles":5}}},"Saint James Parish":{"countryName":"Jamaica","name":"Saint James Parish","isoCode":"08","lat":30.0179292,"lon":-90.7913227,"geocoding":{},"distantMaxMiles":5,"cities":{"Adelphi":{"countryName":"Jamaica","stateName":"Saint James Parish","name":"Adelphi","lat":18.4506,"lon":-77.7859,"geocoding":{},"distantMaxMiles":5},"Albion":{"countryName":"Jamaica","stateName":"Saint James Parish","name":"Albion","lat":18.48471,"lon":-77.91408,"geocoding":{},"distantMaxMiles":5},"Anchovy":{"countryName":"Jamaica","stateName":"Saint James Parish","name":"Anchovy","lat":18.4103,"lon":-77.93166,"geocoding":{},"distantMaxMiles":5},"Arcadia":{"countryName":"Jamaica","stateName":"Saint James Parish","name":"Arcadia","lat":18.24993,"lon":-77.79228,"geocoding":{},"distantMaxMiles":5},"Barrett Town":{"countryName":"Jamaica","stateName":"Saint James Parish","name":"Barrett Town","lat":18.50871,"lon":-77.79625,"geocoding":{},"distantMaxMiles":5},"Bickersteth":{"countryName":"Jamaica","stateName":"Saint James Parish","name":"Bickersteth","lat":18.36335,"lon":-77.93651,"geocoding":{},"distantMaxMiles":5},"Bogue":{"countryName":"Jamaica","stateName":"Saint James Parish","name":"Bogue","lat":18.43722,"lon":-77.92022,"geocoding":{},"distantMaxMiles":5},"Brandon Hill":{"countryName":"Jamaica","stateName":"Saint James Parish","name":"Brandon Hill","lat":18.47767,"lon":-77.91117,"geocoding":{},"distantMaxMiles":5},"Cambridge":{"countryName":"Jamaica","stateName":"Saint James Parish","name":"Cambridge","lat":18.31308,"lon":-77.89546,"geocoding":{},"distantMaxMiles":5},"Canterbury":{"countryName":"Jamaica","stateName":"Saint James Parish","name":"Canterbury","lat":18.47919,"lon":-77.91655,"geocoding":{},"distantMaxMiles":5},"Catadupa":{"countryName":"Jamaica","stateName":"Saint James Parish","name":"Catadupa","lat":18.28052,"lon":-77.86579,"geocoding":{},"distantMaxMiles":5},"Catherine Hall":{"countryName":"Jamaica","stateName":"Saint James Parish","name":"Catherine Hall","lat":18.46258,"lon":-77.92286,"geocoding":{},"distantMaxMiles":5},"Catherine Mount":{"countryName":"Jamaica","stateName":"Saint James Parish","name":"Catherine Mount","lat":18.45672,"lon":-77.89691,"geocoding":{},"distantMaxMiles":5},"Comfort Hall":{"countryName":"Jamaica","stateName":"Saint James Parish","name":"Comfort Hall","lat":18.4127,"lon":-77.91814,"geocoding":{},"distantMaxMiles":5},"Coral Gardens":{"countryName":"Jamaica","stateName":"Saint James Parish","name":"Coral Gardens","lat":18.50791,"lon":-77.88034,"geocoding":{},"distantMaxMiles":5},"Cornwall":{"countryName":"Jamaica","stateName":"Saint James Parish","name":"Cornwall","lat":18.4893,"lon":-77.81016,"geocoding":{},"distantMaxMiles":5},"Down Town Montego Bay":{"countryName":"Jamaica","stateName":"Saint James Parish","name":"Down Town Montego Bay","lat":18.47726,"lon":-77.92031,"geocoding":{},"distantMaxMiles":5},"Dumfries":{"countryName":"Jamaica","stateName":"Saint James Parish","name":"Dumfries","lat":18.42973,"lon":-77.75593,"geocoding":{},"distantMaxMiles":5},"Fairfield":{"countryName":"Jamaica","stateName":"Saint James Parish","name":"Fairfield","lat":18.45079,"lon":-77.91235,"geocoding":{},"distantMaxMiles":5},"Farm Heights":{"countryName":"Jamaica","stateName":"Saint James Parish","name":"Farm Heights","lat":18.46869,"lon":-77.8776,"geocoding":{},"distantMaxMiles":5},"Flagstaff":{"countryName":"Jamaica","stateName":"Saint James Parish","name":"Flagstaff","lat":18.35412,"lon":-77.77132,"geocoding":{},"distantMaxMiles":5},"Flamstead":{"countryName":"Jamaica","stateName":"Saint James Parish","name":"Flamstead","lat":18.31409,"lon":-77.81316,"geocoding":{},"distantMaxMiles":5},"Flankers":{"countryName":"Jamaica","stateName":"Saint James Parish","name":"Flankers","lat":18.50265,"lon":-77.90831,"geocoding":{},"distantMaxMiles":5},"Flower Hill":{"countryName":"Jamaica","stateName":"Saint James Parish","name":"Flower Hill","lat":18.48426,"lon":-77.83913,"geocoding":{},"distantMaxMiles":5},"Friendship":{"countryName":"Jamaica","stateName":"Saint James Parish","name":"Friendship","lat":18.4459,"lon":-77.86242,"geocoding":{},"distantMaxMiles":5},"Garlands":{"countryName":"Jamaica","stateName":"Saint James Parish","name":"Garlands","lat":18.27811,"lon":-77.78908,"geocoding":{},"distantMaxMiles":5},"Glendevon":{"countryName":"Jamaica","stateName":"Saint James Parish","name":"Glendevon","lat":18.48488,"lon":-77.8971,"geocoding":{},"distantMaxMiles":5},"Goodwill":{"countryName":"Jamaica","stateName":"Saint James Parish","name":"Goodwill","lat":18.4695,"lon":-77.75646,"geocoding":{},"distantMaxMiles":5},"Granville":{"countryName":"Jamaica","stateName":"Saint James Parish","name":"Granville","lat":18.44191,"lon":-77.89402,"geocoding":{},"distantMaxMiles":5},"Green Pond":{"countryName":"Jamaica","stateName":"Saint James Parish","name":"Green Pond","lat":18.47361,"lon":-77.87779,"geocoding":{},"distantMaxMiles":5},"Greenwood":{"countryName":"Jamaica","stateName":"Saint James Parish","name":"Greenwood","lat":18.49768,"lon":-77.75243,"geocoding":{},"distantMaxMiles":5},"Hopeton":{"countryName":"Jamaica","stateName":"Saint James Parish","name":"Hopeton","lat":18.39858,"lon":-77.86826,"geocoding":{},"distantMaxMiles":5},"Ironshore":{"countryName":"Jamaica","stateName":"Saint James Parish","name":"Ironshore","lat":18.51323,"lon":-77.85108,"geocoding":{},"distantMaxMiles":5},"Irwin":{"countryName":"Jamaica","stateName":"Saint James Parish","name":"Irwin","lat":18.44949,"lon":-77.87722,"geocoding":{},"distantMaxMiles":5},"John's Hall":{"countryName":"Jamaica","stateName":"Saint James Parish","name":"John's Hall","lat":18.42849,"lon":-77.8501,"geocoding":{},"distantMaxMiles":5},"Lilliput":{"countryName":"Jamaica","stateName":"Saint James Parish","name":"Lilliput","lat":18.50591,"lon":-77.77686,"geocoding":{},"distantMaxMiles":5},"Lottery":{"countryName":"Jamaica","stateName":"Saint James Parish","name":"Lottery","lat":18.41499,"lon":-77.80696,"geocoding":{},"distantMaxMiles":5},"Maldon":{"countryName":"Jamaica","stateName":"Saint James Parish","name":"Maldon","lat":18.33831,"lon":-77.80998,"geocoding":{},"distantMaxMiles":5},"Maroon Town":{"countryName":"Jamaica","stateName":"Saint James Parish","name":"Maroon Town","lat":18.34464,"lon":-77.79544,"geocoding":{},"distantMaxMiles":5},"Mocho":{"countryName":"Jamaica","stateName":"Saint James Parish","name":"Mocho","lat":18.29135,"lon":-77.8258,"geocoding":{},"distantMaxMiles":5},"Montego Bay":{"countryName":"Jamaica","stateName":"Saint James Parish","name":"Montego Bay","lat":18.47116,"lon":-77.91883,"geocoding":{},"distantMaxMiles":5},"Montego Hill":{"countryName":"Jamaica","stateName":"Saint James Parish","name":"Montego Hill","lat":18.48038,"lon":-77.8815,"geocoding":{},"distantMaxMiles":5},"Montpelier":{"countryName":"Jamaica","stateName":"Saint James Parish","name":"Montpelier","lat":18.37612,"lon":-77.91357,"geocoding":{},"distantMaxMiles":5},"Mount Carey":{"countryName":"Jamaica","stateName":"Saint James Parish","name":"Mount Carey","lat":18.38888,"lon":-77.94374,"geocoding":{},"distantMaxMiles":5},"Mount Horeb":{"countryName":"Jamaica","stateName":"Saint James Parish","name":"Mount Horeb","lat":18.33322,"lon":-77.86675,"geocoding":{},"distantMaxMiles":5},"Mount Salem":{"countryName":"Jamaica","stateName":"Saint James Parish","name":"Mount Salem","lat":18.46601,"lon":-77.90793,"geocoding":{},"distantMaxMiles":5},"Niagara":{"countryName":"Jamaica","stateName":"Saint James Parish","name":"Niagara","lat":18.26534,"lon":-77.81879,"geocoding":{},"distantMaxMiles":5},"Norwood":{"countryName":"Jamaica","stateName":"Saint James Parish","name":"Norwood","lat":18.49217,"lon":-77.88634,"geocoding":{},"distantMaxMiles":5},"Orange":{"countryName":"Jamaica","stateName":"Saint James Parish","name":"Orange","lat":18.45395,"lon":-77.82779,"geocoding":{},"distantMaxMiles":5},"Paradise":{"countryName":"Jamaica","stateName":"Saint James Parish","name":"Paradise","lat":18.49401,"lon":-77.90982,"geocoding":{},"distantMaxMiles":5},"Pitfour":{"countryName":"Jamaica","stateName":"Saint James Parish","name":"Pitfour","lat":18.43206,"lon":-77.89007,"geocoding":{},"distantMaxMiles":5},"Porto Bello":{"countryName":"Jamaica","stateName":"Saint James Parish","name":"Porto Bello","lat":18.46607,"lon":-77.86989,"geocoding":{},"distantMaxMiles":5},"Reading":{"countryName":"Jamaica","stateName":"Saint James Parish","name":"Reading","lat":18.43723,"lon":-77.9473,"geocoding":{},"distantMaxMiles":5},"Retirement":{"countryName":"Jamaica","stateName":"Saint James Parish","name":"Retirement","lat":18.43742,"lon":-77.88004,"geocoding":{},"distantMaxMiles":5},"Retrieve":{"countryName":"Jamaica","stateName":"Saint James Parish","name":"Retrieve","lat":18.28901,"lon":-77.90081,"geocoding":{},"distantMaxMiles":5},"Roehampton":{"countryName":"Jamaica","stateName":"Saint James Parish","name":"Roehampton","lat":18.39897,"lon":-77.89926,"geocoding":{},"distantMaxMiles":5},"Rose Hall":{"countryName":"Jamaica","stateName":"Saint James Parish","name":"Rose Hall","lat":18.51228,"lon":-77.81833,"geocoding":{},"distantMaxMiles":5},"Rose Heights":{"countryName":"Jamaica","stateName":"Saint James Parish","name":"Rose Heights","lat":18.46945,"lon":-77.89533,"geocoding":{},"distantMaxMiles":5},"Rose Mount Garden":{"countryName":"Jamaica","stateName":"Saint James Parish","name":"Rose Mount Garden","lat":18.46394,"lon":-77.89397,"geocoding":{},"distantMaxMiles":5},"Rosemount":{"countryName":"Jamaica","stateName":"Saint James Parish","name":"Rosemount","lat":18.47484,"lon":-77.89216,"geocoding":{},"distantMaxMiles":5},"Salt Spring":{"countryName":"Jamaica","stateName":"Saint James Parish","name":"Salt Spring","lat":18.48687,"lon":-77.86554,"geocoding":{},"distantMaxMiles":5},"Seven Rivers":{"countryName":"Jamaica","stateName":"Saint James Parish","name":"Seven Rivers","lat":18.34702,"lon":-77.91378,"geocoding":{},"distantMaxMiles":5},"Somerton":{"countryName":"Jamaica","stateName":"Saint James Parish","name":"Somerton","lat":18.40496,"lon":-77.77071,"geocoding":{},"distantMaxMiles":5},"Spot Valley":{"countryName":"Jamaica","stateName":"Saint James Parish","name":"Spot Valley","lat":18.47869,"lon":-77.79106,"geocoding":{},"distantMaxMiles":5},"Stonehenge":{"countryName":"Jamaica","stateName":"Saint James Parish","name":"Stonehenge","lat":18.24231,"lon":-77.85042,"geocoding":{},"distantMaxMiles":5},"Summer Hill":{"countryName":"Jamaica","stateName":"Saint James Parish","name":"Summer Hill","lat":18.3736,"lon":-77.7935,"geocoding":{},"distantMaxMiles":5},"Sunderland":{"countryName":"Jamaica","stateName":"Saint James Parish","name":"Sunderland","lat":18.39794,"lon":-77.82734,"geocoding":{},"distantMaxMiles":5},"Tangle River":{"countryName":"Jamaica","stateName":"Saint James Parish","name":"Tangle River","lat":18.34337,"lon":-77.83621,"geocoding":{},"distantMaxMiles":5},"Tower Hill/Moy Hall":{"countryName":"Jamaica","stateName":"Saint James Parish","name":"Tower Hill/Moy Hall","lat":18.44044,"lon":-77.96022,"geocoding":{},"distantMaxMiles":5},"Tucker":{"countryName":"Jamaica","stateName":"Saint James Parish","name":"Tucker","lat":18.449,"lon":-77.89438,"geocoding":{},"distantMaxMiles":5},"Unity Hall":{"countryName":"Jamaica","stateName":"Saint James Parish","name":"Unity Hall","lat":18.43304,"lon":-77.97684,"geocoding":{},"distantMaxMiles":5},"Vaughnsfield":{"countryName":"Jamaica","stateName":"Saint James Parish","name":"Vaughnsfield","lat":18.32135,"lon":-77.78051,"geocoding":{},"distantMaxMiles":5},"Welcome Hall":{"countryName":"Jamaica","stateName":"Saint James Parish","name":"Welcome Hall","lat":18.36898,"lon":-77.83673,"geocoding":{},"distantMaxMiles":5},"West Green":{"countryName":"Jamaica","stateName":"Saint James Parish","name":"West Green","lat":18.46244,"lon":-77.91757,"geocoding":{},"distantMaxMiles":5}}},"Saint Mary Parish":{"countryName":"Jamaica","name":"Saint Mary Parish","isoCode":"05","lat":36.092522,"lon":-95.973844,"geocoding":{},"distantMaxMiles":5,"cities":{"Amiel Town":{"countryName":"Jamaica","stateName":"Saint Mary Parish","name":"Amiel Town","lat":18.34027,"lon":-76.97612,"geocoding":{},"distantMaxMiles":5},"Annotto Bay":{"countryName":"Jamaica","stateName":"Saint Mary Parish","name":"Annotto Bay","lat":18.2717,"lon":-76.76523,"geocoding":{},"distantMaxMiles":5},"Baileys Vale":{"countryName":"Jamaica","stateName":"Saint Mary Parish","name":"Baileys Vale","lat":18.34527,"lon":-76.92593,"geocoding":{},"distantMaxMiles":5},"Baxter Mountain":{"countryName":"Jamaica","stateName":"Saint Mary Parish","name":"Baxter Mountain","lat":18.20405,"lon":-76.77198,"geocoding":{},"distantMaxMiles":5},