{"name":"Armenia","isoCode":"AM","lat":40,"lon":45,"geocoding":{},"distantMaxMiles":5,"states":{"Aragatsotn Region":{"countryName":"Armenia","name":"Aragatsotn Region","isoCode":"AG","lat":40.3347301,"lon":44.3748296,"geocoding":{},"distantMaxMiles":5,"cities":{"Agarakavan":{"countryName":"Armenia","stateName":"Aragatsotn Region","name":"Agarakavan","lat":40.33069,"lon":44.07233,"geocoding":{},"distantMaxMiles":5},"Aparan":{"countryName":"Armenia","stateName":"Aragatsotn Region","name":"Aparan","lat":40.59323,"lon":44.3589,"geocoding":{},"distantMaxMiles":5},"Aragats":{"countryName":"Armenia","stateName":"Aragatsotn Region","name":"Aragats","lat":40.48889,"lon":44.3529,"geocoding":{},"distantMaxMiles":5},"Arteni":{"countryName":"Armenia","stateName":"Aragatsotn Region","name":"Arteni","lat":40.2973,"lon":43.76672,"geocoding":{},"distantMaxMiles":5},"Ashnak":{"countryName":"Armenia","stateName":"Aragatsotn Region","name":"Ashnak","lat":40.33069,"lon":43.91669,"geocoding":{},"distantMaxMiles":5},"Ashtarak":{"countryName":"Armenia","stateName":"Aragatsotn Region","name":"Ashtarak","lat":40.2991,"lon":44.36204,"geocoding":{},"distantMaxMiles":5},"Byurakan":{"countryName":"Armenia","stateName":"Aragatsotn Region","name":"Byurakan","lat":40.33894,"lon":44.27275,"geocoding":{},"distantMaxMiles":5},"Hnaberd":{"countryName":"Armenia","stateName":"Aragatsotn Region","name":"Hnaberd","lat":40.63721,"lon":44.14058,"geocoding":{},"distantMaxMiles":5},"Karbi":{"countryName":"Armenia","stateName":"Aragatsotn Region","name":"Karbi","lat":40.33069,"lon":44.37793,"geocoding":{},"distantMaxMiles":5},"Kasakh":{"countryName":"Armenia","stateName":"Aragatsotn Region","name":"Kasakh","lat":40.53697,"lon":44.41046,"geocoding":{},"distantMaxMiles":5},"Kosh":{"countryName":"Armenia","stateName":"Aragatsotn Region","name":"Kosh","lat":40.30011,"lon":44.16107,"geocoding":{},"distantMaxMiles":5},"Nor Yerznka":{"countryName":"Armenia","stateName":"Aragatsotn Region","name":"Nor Yerznka","lat":40.30011,"lon":44.38892,"geocoding":{},"distantMaxMiles":5},"Oshakan":{"countryName":"Armenia","stateName":"Aragatsotn Region","name":"Oshakan","lat":40.26392,"lon":44.31671,"geocoding":{},"distantMaxMiles":5},"Sasunik":{"countryName":"Armenia","stateName":"Aragatsotn Region","name":"Sasunik","lat":40.25012,"lon":44.34448,"geocoding":{},"distantMaxMiles":5},"Shenavan":{"countryName":"Armenia","stateName":"Aragatsotn Region","name":"Shenavan","lat":40.48328,"lon":44.38348,"geocoding":{},"distantMaxMiles":5},"Tsaghkahovit":{"countryName":"Armenia","stateName":"Aragatsotn Region","name":"Tsaghkahovit","lat":40.63428,"lon":44.22241,"geocoding":{},"distantMaxMiles":5},"T’alin":{"countryName":"Armenia","stateName":"Aragatsotn Region","name":"T’alin","lat":40.39172,"lon":43.87793,"geocoding":{},"distantMaxMiles":5},"Ushi":{"countryName":"Armenia","stateName":"Aragatsotn Region","name":"Ushi","lat":40.34729,"lon":44.37512,"geocoding":{},"distantMaxMiles":5},"Voskevaz":{"countryName":"Armenia","stateName":"Aragatsotn Region","name":"Voskevaz","lat":40.27508,"lon":44.30011,"geocoding":{},"distantMaxMiles":5},"Zovuni":{"countryName":"Armenia","stateName":"Aragatsotn Region","name":"Zovuni","lat":40.51111,"lon":44.4389,"geocoding":{},"distantMaxMiles":5}}},"Ararat Province":{"countryName":"Armenia","name":"Ararat Province","isoCode":"AR","lat":39.9139415,"lon":44.7200004,"geocoding":{},"distantMaxMiles":5,"cities":{"Abovyan":{"countryName":"Armenia","stateName":"Ararat Province","name":"Abovyan","lat":40.04851,"lon":44.54742,"geocoding":{},"distantMaxMiles":5},"Aralez":{"countryName":"Armenia","stateName":"Ararat Province","name":"Aralez","lat":39.90008,"lon":44.6557,"geocoding":{},"distantMaxMiles":5},"Ararat":{"countryName":"Armenia","stateName":"Ararat Province","name":"Ararat","lat":39.83069,"lon":44.70569,"geocoding":{},"distantMaxMiles":5},"Arevabuyr":{"countryName":"Armenia","stateName":"Ararat Province","name":"Arevabuyr","lat":40.03607,"lon":44.46948,"geocoding":{},"distantMaxMiles":5},"Arevshat":{"countryName":"Armenia","stateName":"Ararat Province","name":"Arevshat","lat":40.03963,"lon":44.54179,"geocoding":{},"distantMaxMiles":5},"Armash":{"countryName":"Armenia","stateName":"Ararat Province","name":"Armash","lat":39.76672,"lon":44.8111,"geocoding":{},"distantMaxMiles":5},"Artashat":{"countryName":"Armenia","stateName":"Ararat Province","name":"Artashat","lat":39.96144,"lon":44.54447,"geocoding":{},"distantMaxMiles":5},"Avshar":{"countryName":"Armenia","stateName":"Ararat Province","name":"Avshar","lat":39.85553,"lon":44.65832,"geocoding":{},"distantMaxMiles":5},"Aygavan":{"countryName":"Armenia","stateName":"Ararat Province","name":"Aygavan","lat":39.87327,"lon":44.66984,"geocoding":{},"distantMaxMiles":5},"Aygepat":{"countryName":"Armenia","stateName":"Ararat Province","name":"Aygepat","lat":39.95845,"lon":44.59981,"geocoding":{},"distantMaxMiles":5},"Aygestan":{"countryName":"Armenia","stateName":"Ararat Province","name":"Aygestan","lat":40.00293,"lon":44.55829,"geocoding":{},"distantMaxMiles":5},"Aygezard":{"countryName":"Armenia","stateName":"Ararat Province","name":"Aygezard","lat":39.95436,"lon":44.60229,"geocoding":{},"distantMaxMiles":5},"Bardzrashen":{"countryName":"Armenia","stateName":"Ararat Province","name":"Bardzrashen","lat":40.08533,"lon":44.57957,"geocoding":{},"distantMaxMiles":5},"Berk’anush":{"countryName":"Armenia","stateName":"Ararat Province","name":"Berk’anush","lat":39.9779,"lon":44.51672,"geocoding":{},"distantMaxMiles":5},"Burastan":{"countryName":"Armenia","stateName":"Ararat Province","name":"Burastan","lat":39.99157,"lon":44.49681,"geocoding":{},"distantMaxMiles":5},"Byuravan":{"countryName":"Armenia","stateName":"Ararat Province","name":"Byuravan","lat":40.01604,"lon":44.51889,"geocoding":{},"distantMaxMiles":5},"Dalar":{"countryName":"Armenia","stateName":"Ararat Province","name":"Dalar","lat":39.97653,"lon":44.52649,"geocoding":{},"distantMaxMiles":5},"Darakert":{"countryName":"Armenia","stateName":"Ararat Province","name":"Darakert","lat":40.10553,"lon":44.41388,"geocoding":{},"distantMaxMiles":5},"Dashtavan":{"countryName":"Armenia","stateName":"Ararat Province","name":"Dashtavan","lat":40.1001,"lon":44.39172,"geocoding":{},"distantMaxMiles":5},"Dimitrov":{"countryName":"Armenia","stateName":"Ararat Province","name":"Dimitrov","lat":40.00848,"lon":44.4917,"geocoding":{},"distantMaxMiles":5},"Dvin":{"countryName":"Armenia","stateName":"Ararat Province","name":"Dvin","lat":40.01984,"lon":44.58376,"geocoding":{},"distantMaxMiles":5},"Getazat":{"countryName":"Armenia","stateName":"Ararat Province","name":"Getazat","lat":40.03844,"lon":44.56369,"geocoding":{},"distantMaxMiles":5},"Ghukasavan":{"countryName":"Armenia","stateName":"Ararat Province","name":"Ghukasavan","lat":40.12793,"lon":44.41669,"geocoding":{},"distantMaxMiles":5},"Goravan":{"countryName":"Armenia","stateName":"Ararat Province","name":"Goravan","lat":39.90832,"lon":44.73328,"geocoding":{},"distantMaxMiles":5},"Hayanist":{"countryName":"Armenia","stateName":"Ararat Province","name":"Hayanist","lat":40.12231,"lon":44.37793,"geocoding":{},"distantMaxMiles":5},"Hovtashat":{"countryName":"Armenia","stateName":"Ararat Province","name":"Hovtashat","lat":40.09729,"lon":44.34448,"geocoding":{},"distantMaxMiles":5},"Hovtashen":{"countryName":"Armenia","stateName":"Ararat Province","name":"Hovtashen","lat":40.02508,"lon":44.45007,"geocoding":{},"distantMaxMiles":5},"Jrahovit":{"countryName":"Armenia","stateName":"Ararat Province","name":"Jrahovit","lat":40.0473,"lon":44.4751,"geocoding":{},"distantMaxMiles":5},"Lusarrat":{"countryName":"Armenia","stateName":"Ararat Province","name":"Lusarrat","lat":39.87403,"lon":44.58678,"geocoding":{},"distantMaxMiles":5},"Marmarashen":{"countryName":"Armenia","stateName":"Ararat Province","name":"Marmarashen","lat":40.05829,"lon":44.47229,"geocoding":{},"distantMaxMiles":5},"Masis":{"countryName":"Armenia","stateName":"Ararat Province","name":"Masis","lat":40.06542,"lon":44.41618,"geocoding":{},"distantMaxMiles":5},"Mrganush":{"countryName":"Armenia","stateName":"Ararat Province","name":"Mrganush","lat":40.02857,"lon":44.55831,"geocoding":{},"distantMaxMiles":5},"Mrgavan":{"countryName":"Armenia","stateName":"Ararat Province","name":"Mrgavan","lat":39.97251,"lon":44.53565,"geocoding":{},"distantMaxMiles":5},"Mrgavet":{"countryName":"Armenia","stateName":"Ararat Province","name":"Mrgavet","lat":40.02789,"lon":44.48328,"geocoding":{},"distantMaxMiles":5},"Nizami":{"countryName":"Armenia","stateName":"Ararat Province","name":"Nizami","lat":40.09168,"lon":44.4057,"geocoding":{},"distantMaxMiles":5},"Norabats’":{"countryName":"Armenia","stateName":"Ararat Province","name":"Norabats’","lat":40.10553,"lon":44.43329,"geocoding":{},"distantMaxMiles":5},"Noramarg":{"countryName":"Armenia","stateName":"Ararat Province","name":"Noramarg","lat":40.02228,"lon":44.42511,"geocoding":{},"distantMaxMiles":5},"Norashen":{"countryName":"Armenia","stateName":"Ararat Province","name":"Norashen","lat":40.0013,"lon":44.59296,"geocoding":{},"distantMaxMiles":5},"Noyakert":{"countryName":"Armenia","stateName":"Ararat Province","name":"Noyakert","lat":39.83069,"lon":44.66949,"geocoding":{},"distantMaxMiles":5},"Nshavan":{"countryName":"Armenia","stateName":"Ararat Province","name":"Nshavan","lat":40.02787,"lon":44.52565,"geocoding":{},"distantMaxMiles":5},"Sayat’-Nova":{"countryName":"Armenia","stateName":"Ararat Province","name":"Sayat’-Nova","lat":40.07507,"lon":44.40008,"geocoding":{},"distantMaxMiles":5},"Shahumyan":{"countryName":"Armenia","stateName":"Ararat Province","name":"Shahumyan","lat":39.94171,"lon":44.57233,"geocoding":{},"distantMaxMiles":5},"Sis":{"countryName":"Armenia","stateName":"Ararat Province","name":"Sis","lat":40.05829,"lon":44.38892,"geocoding":{},"distantMaxMiles":5},"Sisavan":{"countryName":"Armenia","stateName":"Ararat Province","name":"Sisavan","lat":39.90802,"lon":44.66721,"geocoding":{},"distantMaxMiles":5},"Surenavan":{"countryName":"Armenia","stateName":"Ararat Province","name":"Surenavan","lat":39.79449,"lon":44.77508,"geocoding":{},"distantMaxMiles":5},"Vedi":{"countryName":"Armenia","stateName":"Ararat Province","name":"Vedi","lat":39.91388,"lon":44.7251,"geocoding":{},"distantMaxMiles":5},"Verin Artashat":{"countryName":"Armenia","stateName":"Ararat Province","name":"Verin Artashat","lat":39.99731,"lon":44.58893,"geocoding":{},"distantMaxMiles":5},"Verin Dvin":{"countryName":"Armenia","stateName":"Ararat Province","name":"Verin Dvin","lat":40.02434,"lon":44.59038,"geocoding":{},"distantMaxMiles":5},"Vosketap’":{"countryName":"Armenia","stateName":"Ararat Province","name":"Vosketap’","lat":39.88114,"lon":44.64917,"geocoding":{},"distantMaxMiles":5},"Vostan":{"countryName":"Armenia","stateName":"Ararat Province","name":"Vostan","lat":39.96515,"lon":44.55937,"geocoding":{},"distantMaxMiles":5},"Yeghegnavan":{"countryName":"Armenia","stateName":"Ararat Province","name":"Yeghegnavan","lat":39.83893,"lon":44.61951,"geocoding":{},"distantMaxMiles":5},"Zangakatun":{"countryName":"Armenia","stateName":"Ararat Province","name":"Zangakatun","lat":39.82233,"lon":45.04169,"geocoding":{},"distantMaxMiles":5},"Zorak":{"countryName":"Armenia","stateName":"Ararat Province","name":"Zorak","lat":40.09168,"lon":44.39447,"geocoding":{},"distantMaxMiles":5}}},"Armavir Region":{"countryName":"Armenia","name":"Armavir Region","isoCode":"AV","lat":40.1554631,"lon":44.0372446,"geocoding":{},"distantMaxMiles":5,"cities":{"Aghavnatun":{"countryName":"Armenia","stateName":"Armavir Region","name":"Aghavnatun","lat":40.2333,"lon":44.25295,"geocoding":{},"distantMaxMiles":5},"Aknalich":{"countryName":"Armenia","stateName":"Armavir Region","name":"Aknalich","lat":40.14728,"lon":44.16669,"geocoding":{},"distantMaxMiles":5},"Aknashen":{"countryName":"Armenia","stateName":"Armavir Region","name":"Aknashen","lat":40.09551,"lon":44.28604,"geocoding":{},"distantMaxMiles":5},"Alashkert":{"countryName":"Armenia","stateName":"Armavir Region","name":"Alashkert","lat":40.10712,"lon":44.05108,"geocoding":{},"distantMaxMiles":5},"Apaga":{"countryName":"Armenia","stateName":"Armavir Region","name":"Apaga","lat":40.09729,"lon":44.25293,"geocoding":{},"distantMaxMiles":5},"Arak’s":{"countryName":"Armenia","stateName":"Armavir Region","name":"Arak’s","lat":40.05548,"lon":44.30292,"geocoding":{},"distantMaxMiles":5},"Arazap’":{"countryName":"Armenia","stateName":"Armavir Region","name":"Arazap’","lat":40.04169,"lon":44.14728,"geocoding":{},"distantMaxMiles":5},"Arbat’":{"countryName":"Armenia","stateName":"Armavir Region","name":"Arbat’","lat":40.13892,"lon":44.40289,"geocoding":{},"distantMaxMiles":5},"Arevashat":{"countryName":"Armenia","stateName":"Armavir Region","name":"Arevashat","lat":40.14447,"lon":44.37512,"geocoding":{},"distantMaxMiles":5},"Arevik":{"countryName":"Armenia","stateName":"Armavir Region","name":"Arevik","lat":40.1001,"lon":44.09448,"geocoding":{},"distantMaxMiles":5},"Argavand":{"countryName":"Armenia","stateName":"Armavir Region","name":"Argavand","lat":40.0611,"lon":44.09448,"geocoding":{},"distantMaxMiles":5},"Armavir":{"countryName":"Armenia","stateName":"Armavir Region","name":"Armavir","lat":40.15446,"lon":44.03815,"geocoding":{},"distantMaxMiles":5},"Arshaluys":{"countryName":"Armenia","stateName":"Armavir Region","name":"Arshaluys","lat":40.16949,"lon":44.21393,"geocoding":{},"distantMaxMiles":5},"Artimet":{"countryName":"Armenia","stateName":"Armavir Region","name":"Artimet","lat":40.15008,"lon":44.26672,"geocoding":{},"distantMaxMiles":5},"Aygek":{"countryName":"Armenia","stateName":"Armavir Region","name":"Aygek","lat":40.1889,"lon":44.38611,"geocoding":{},"distantMaxMiles":5},"Aygeshat":{"countryName":"Armenia","stateName":"Armavir Region","name":"Aygeshat","lat":40.07507,"lon":44.0611,"geocoding":{},"distantMaxMiles":5},"Baghramyan":{"countryName":"Armenia","stateName":"Armavir Region","name":"Baghramyan","lat":40.19452,"lon":44.36951,"geocoding":{},"distantMaxMiles":5},"Bambakashat":{"countryName":"Armenia","stateName":"Armavir Region","name":"Bambakashat","lat":40.10828,"lon":44.01947,"geocoding":{},"distantMaxMiles":5},"Dalarik":{"countryName":"Armenia","stateName":"Armavir Region","name":"Dalarik","lat":40.2279,"lon":43.87793,"geocoding":{},"distantMaxMiles":5},"Doghs":{"countryName":"Armenia","stateName":"Armavir Region","name":"Doghs","lat":40.22229,"lon":44.27228,"geocoding":{},"distantMaxMiles":5},"Gay":{"countryName":"Armenia","stateName":"Armavir Region","name":"Gay","lat":40.08444,"lon":44.30528,"geocoding":{},"distantMaxMiles":5},"Geghakert":{"countryName":"Armenia","stateName":"Armavir Region","name":"Geghakert","lat":40.18516,"lon":44.24331,"geocoding":{},"distantMaxMiles":5},"Geghanist":{"countryName":"Armenia","stateName":"Armavir Region","name":"Geghanist","lat":40.14587,"lon":44.43048,"geocoding":{},"distantMaxMiles":5},"Getashen":{"countryName":"Armenia","stateName":"Armavir Region","name":"Getashen","lat":40.04449,"lon":43.94171,"geocoding":{},"distantMaxMiles":5},"Gmbet’":{"countryName":"Armenia","stateName":"Armavir Region","name":"Gmbet’","lat":40.22369,"lon":44.25409,"geocoding":{},"distantMaxMiles":5},"Griboyedov":{"countryName":"Armenia","stateName":"Armavir Region","name":"Griboyedov","lat":40.11307,"lon":44.27169,"geocoding":{},"distantMaxMiles":5},"Haykashen":{"countryName":"Armenia","stateName":"Armavir Region","name":"Haykashen","lat":40.07233,"lon":44.30829,"geocoding":{},"distantMaxMiles":5},"Hovtamej":{"countryName":"Armenia","stateName":"Armavir Region","name":"Hovtamej","lat":40.18329,"lon":44.25848,"geocoding":{},"distantMaxMiles":5},"Janfida":{"countryName":"Armenia","stateName":"Armavir Region","name":"Janfida","lat":40.04449,"lon":44.02789,"geocoding":{},"distantMaxMiles":5},"Khoronk’":{"countryName":"Armenia","stateName":"Armavir Region","name":"Khoronk’","lat":40.13611,"lon":44.24731,"geocoding":{},"distantMaxMiles":5},"Lenughi":{"countryName":"Armenia","stateName":"Armavir Region","name":"Lenughi","lat":40.12512,"lon":43.96393,"geocoding":{},"distantMaxMiles":5},"Lukashin":{"countryName":"Armenia","stateName":"Armavir Region","name":"Lukashin","lat":40.18726,"lon":44.0039,"geocoding":{},"distantMaxMiles":5},"Margara":{"countryName":"Armenia","stateName":"Armavir Region","name":"Margara","lat":40.03332,"lon":44.18048,"geocoding":{},"distantMaxMiles":5},"Mayisyan":{"countryName":"Armenia","stateName":"Armavir Region","name":"Mayisyan","lat":40.15701,"lon":44.09192,"geocoding":{},"distantMaxMiles":5},"Merdzavan":{"countryName":"Armenia","stateName":"Armavir Region","name":"Merdzavan","lat":40.1814,"lon":44.40033,"geocoding":{},"distantMaxMiles":5},"Metsamor":{"countryName":"Armenia","stateName":"Armavir Region","name":"Metsamor","lat":40.14447,"lon":44.1167,"geocoding":{},"distantMaxMiles":5},"Mrgashat":{"countryName":"Armenia","stateName":"Armavir Region","name":"Mrgashat","lat":40.13068,"lon":44.08069,"geocoding":{},"distantMaxMiles":5},"Musalerr":{"countryName":"Armenia","stateName":"Armavir Region","name":"Musalerr","lat":40.1557,"lon":44.37793,"geocoding":{},"distantMaxMiles":5},"Myasnikyan":{"countryName":"Armenia","stateName":"Armavir Region","name":"Myasnikyan","lat":40.18048,"lon":43.91949,"geocoding":{},"distantMaxMiles":5},"Nalbandyan":{"countryName":"Armenia","stateName":"Armavir Region","name":"Nalbandyan","lat":40.0639,"lon":43.98889,"geocoding":{},"distantMaxMiles":5},"Nor Armavir":{"countryName":"Armenia","stateName":"Armavir Region","name":"Nor Armavir","lat":40.08612,"lon":43.99451,"geocoding":{},"distantMaxMiles":5},"Norakert":{"countryName":"Armenia","stateName":"Armavir Region","name":"Norakert","lat":40.19733,"lon":44.3501,"geocoding":{},"distantMaxMiles":5},"Ptghunk’":{"countryName":"Armenia","stateName":"Armavir Region","name":"Ptghunk’","lat":40.16388,"lon":44.36389,"geocoding":{},"distantMaxMiles":5},"P’shatavan":{"countryName":"Armenia","stateName":"Armavir Region","name":"P’shatavan","lat":40.03888,"lon":44.06671,"geocoding":{},"distantMaxMiles":5},"Sardarapat":{"countryName":"Armenia","stateName":"Armavir Region","name":"Sardarapat","lat":40.13206,"lon":44.00969,"geocoding":{},"distantMaxMiles":5},"Shenavan":{"countryName":"Armenia","stateName":"Armavir Region","name":"Shenavan","lat":40.05548,"lon":43.93048,"geocoding":{},"distantMaxMiles":5},"Tandzut":{"countryName":"Armenia","stateName":"Armavir Region","name":"Tandzut","lat":40.06952,"lon":44.07788,"geocoding":{},"distantMaxMiles":5},"Taronik":{"countryName":"Armenia","stateName":"Armavir Region","name":"Taronik","lat":40.13367,"lon":44.19957,"geocoding":{},"distantMaxMiles":5},"Tsaghkunk’":{"countryName":"Armenia","stateName":"Armavir Region","name":"Tsaghkunk’","lat":40.18048,"lon":44.27228,"geocoding":{},"distantMaxMiles":5},"Tsiatsan":{"countryName":"Armenia","stateName":"Armavir Region","name":"Tsiatsan","lat":40.1861,"lon":44.26947,"geocoding":{},"distantMaxMiles":5},"Vagharshapat":{"countryName":"Armenia","stateName":"Armavir Region","name":"Vagharshapat","lat":40.16557,"lon":44.29462,"geocoding":{},"distantMaxMiles":5},"Voskehat":{"countryName":"Armenia","stateName":"Armavir Region","name":"Voskehat","lat":40.14172,"lon":44.33069,"geocoding":{},"distantMaxMiles":5},"Yeghegnut":{"countryName":"Armenia","stateName":"Armavir Region","name":"Yeghegnut","lat":40.08893,"lon":44.16669,"geocoding":{},"distantMaxMiles":5},"Yeraskhahun":{"countryName":"Armenia","stateName":"Armavir Region","name":"Yeraskhahun","lat":40.07233,"lon":44.21948,"geocoding":{},"distantMaxMiles":5}}},"Gegharkunik Province":{"countryName":"Armenia","name":"Gegharkunik Province","isoCode":"GR","lat":40.3526426,"lon":45.1260414,"geocoding":{},"distantMaxMiles":5,"cities":{"Akunk’":{"countryName":"Armenia","stateName":"Gegharkunik Province","name":"Akunk’","lat":40.15886,"lon":45.72568,"geocoding":{},"distantMaxMiles":5},"Astghadzor":{"countryName":"Armenia","stateName":"Gegharkunik Province","name":"Astghadzor","lat":40.12231,"lon":45.35553,"geocoding":{},"distantMaxMiles":5},"Chambarak":{"countryName":"Armenia","stateName":"Gegharkunik Province","name":"Chambarak","lat":40.59655,"lon":45.35498,"geocoding":{},"distantMaxMiles":5},"Ddmashen":{"countryName":"Armenia","stateName":"Gegharkunik Province","name":"Ddmashen","lat":40.57028,"lon":44.82295,"geocoding":{},"distantMaxMiles":5},"Drakhtik":{"countryName":"Armenia","stateName":"Gegharkunik Province","name":"Drakhtik","lat":40.56497,"lon":45.2367,"geocoding":{},"distantMaxMiles":5},"Dzoragyugh":{"countryName":"Armenia","stateName":"Gegharkunik Province","name":"Dzoragyugh","lat":40.16957,"lon":45.18337,"geocoding":{},"distantMaxMiles":5},"Gagarin":{"countryName":"Armenia","stateName":"Gegharkunik Province","name":"Gagarin","lat":40.54026,"lon":44.86962,"geocoding":{},"distantMaxMiles":5},"Gandzak":{"countryName":"Armenia","stateName":"Gegharkunik Province","name":"Gandzak","lat":40.31472,"lon":45.11139,"geocoding":{},"distantMaxMiles":5},"Gavarr":{"countryName":"Armenia","stateName":"Gegharkunik Province","name":"Gavarr","lat":40.35398,"lon":45.12386,"geocoding":{},"distantMaxMiles":5},"Geghamasar":{"countryName":"Armenia","stateName":"Gegharkunik Province","name":"Geghamasar","lat":40.31091,"lon":45.67924,"geocoding":{},"distantMaxMiles":5},"Geghamavan":{"countryName":"Armenia","stateName":"Gegharkunik Province","name":"Geghamavan","lat":40.5625,"lon":44.88892,"geocoding":{},"distantMaxMiles":5},"Karanlukh":{"countryName":"Armenia","stateName":"Gegharkunik Province","name":"Karanlukh","lat":40.10444,"lon":45.28972,"geocoding":{},"distantMaxMiles":5},"Karchaghbyur":{"countryName":"Armenia","stateName":"Gegharkunik Province","name":"Karchaghbyur","lat":40.17048,"lon":45.57785,"geocoding":{},"distantMaxMiles":5},"Lanjaghbyur":{"countryName":"Armenia","stateName":"Gegharkunik Province","name":"Lanjaghbyur","lat":40.26947,"lon":45.14447,"geocoding":{},"distantMaxMiles":5},"Lchap’":{"countryName":"Armenia","stateName":"Gegharkunik Province","name":"Lchap’","lat":40.45569,"lon":45.07507,"geocoding":{},"distantMaxMiles":5},"Lchashen":{"countryName":"Armenia","stateName":"Gegharkunik Province","name":"Lchashen","lat":40.51947,"lon":44.93048,"geocoding":{},"distantMaxMiles":5},"Lichk’":{"countryName":"Armenia","stateName":"Gegharkunik Province","name":"Lichk’","lat":40.15933,"lon":45.23467,"geocoding":{},"distantMaxMiles":5},"Madina":{"countryName":"Armenia","stateName":"Gegharkunik Province","name":"Madina","lat":40.07637,"lon":45.25507,"geocoding":{},"distantMaxMiles":5},"Martuni":{"countryName":"Armenia","stateName":"Gegharkunik Province","name":"Martuni","lat":40.08333,"lon":45.25,"geocoding":{},"distantMaxMiles":5},"Mets Masrik":{"countryName":"Armenia","stateName":"Gegharkunik Province","name":"Mets Masrik","lat":40.21948,"lon":45.76391,"geocoding":{},"distantMaxMiles":5},"Nerk’in Getashen":{"countryName":"Armenia","stateName":"Gegharkunik Province","name":"Nerk’in Getashen","lat":40.14172,"lon":45.27087,"geocoding":{},"distantMaxMiles":5},"Noratus":{"countryName":"Armenia","stateName":"Gegharkunik Province","name":"Noratus","lat":40.37793,"lon":45.18048,"geocoding":{},"distantMaxMiles":5},"Sarukhan":{"countryName":"Armenia","stateName":"Gegharkunik Province","name":"Sarukhan","lat":40.29169,"lon":45.13068,"geocoding":{},"distantMaxMiles":5},"Sevan":{"countryName":"Armenia","stateName":"Gegharkunik Province","name":"Sevan","lat":40.5473,"lon":44.94171,"geocoding":{},"distantMaxMiles":5},"Tsovagyugh":{"countryName":"Armenia","stateName":"Gegharkunik Province","name":"Tsovagyugh","lat":40.63348,"lon":44.96112,"geocoding":{},"distantMaxMiles":5},"Tsovak":{"countryName":"Armenia","stateName":"Gegharkunik Province","name":"Tsovak","lat":40.18254,"lon":45.63286,"geocoding":{},"distantMaxMiles":5},"Tsovasar":{"countryName":"Armenia","stateName":"Gegharkunik Province","name":"Tsovasar","lat":40.1382,"lon":45.19096,"geocoding":{},"distantMaxMiles":5},"Tsovazard":{"countryName":"Armenia","stateName":"Gegharkunik Province","name":"Tsovazard","lat":40.4751,"lon":45.05011,"geocoding":{},"distantMaxMiles":5},"Tsovinar":{"countryName":"Armenia","stateName":"Gegharkunik Province","name":"Tsovinar","lat":40.15959,"lon":45.46786,"geocoding":{},"distantMaxMiles":5},"Vaghashen":{"countryName":"Armenia","stateName":"Gegharkunik Province","name":"Vaghashen","lat":40.13611,"lon":45.33069,"geocoding":{},"distantMaxMiles":5},"Vahan":{"countryName":"Armenia","stateName":"Gegharkunik Province","name":"Vahan","lat":40.57549,"lon":45.39769,"geocoding":{},"distantMaxMiles":5},"Vardenik":{"countryName":"Armenia","stateName":"Gegharkunik Province","name":"Vardenik","lat":40.13348,"lon":45.44311,"geocoding":{},"distantMaxMiles":5},"Vardenis":{"countryName":"Armenia","stateName":"Gegharkunik Province","name":"Vardenis","lat":40.18329,"lon":45.73053,"geocoding":{},"distantMaxMiles":5},"Varser":{"countryName":"Armenia","stateName":"Gegharkunik Province","name":"Varser","lat":40.55548,"lon":44.90832,"geocoding":{},"distantMaxMiles":5},"Verin Getashen":{"countryName":"Armenia","stateName":"Gegharkunik Province","name":"Verin Getashen","lat":40.13068,"lon":45.25293,"geocoding":{},"distantMaxMiles":5},"Yeranos":{"countryName":"Armenia","stateName":"Gegharkunik Province","name":"Yeranos","lat":40.20428,"lon":45.19209,"geocoding":{},"distantMaxMiles":5}}},"Kotayk Region":{"countryName":"Armenia","name":"Kotayk Region","isoCode":"KT","lat":40.5410214,"lon":44.7690148,"geocoding":{},"distantMaxMiles":5,"cities":{"Abovyan":{"countryName":"Armenia","stateName":"Kotayk Region","name":"Abovyan","lat":40.27368,"lon":44.63348,"geocoding":{},"distantMaxMiles":5},"Aghavnadzor":{"countryName":"Armenia","stateName":"Kotayk Region","name":"Aghavnadzor","lat":40.58195,"lon":44.69581,"geocoding":{},"distantMaxMiles":5},"Akunk’":{"countryName":"Armenia","stateName":"Kotayk Region","name":"Akunk’","lat":40.26672,"lon":44.6861,"geocoding":{},"distantMaxMiles":5},"Aramus":{"countryName":"Armenia","stateName":"Kotayk Region","name":"Aramus","lat":40.25095,"lon":44.66351,"geocoding":{},"distantMaxMiles":5},"Argel":{"countryName":"Armenia","stateName":"Kotayk Region","name":"Argel","lat":40.37793,"lon":44.6001,"geocoding":{},"distantMaxMiles":5},"Arzakan":{"countryName":"Armenia","stateName":"Kotayk Region","name":"Arzakan","lat":40.45007,"lon":44.60828,"geocoding":{},"distantMaxMiles":5},"Arzni":{"countryName":"Armenia","stateName":"Kotayk Region","name":"Arzni","lat":40.2973,"lon":44.59869,"geocoding":{},"distantMaxMiles":5},"Balahovit":{"countryName":"Armenia","stateName":"Kotayk Region","name":"Balahovit","lat":40.25153,"lon":44.60828,"geocoding":{},"distantMaxMiles":5},"Bjni":{"countryName":"Armenia","stateName":"Kotayk Region","name":"Bjni","lat":40.45831,"lon":44.65008,"geocoding":{},"distantMaxMiles":5},"Buzhakan":{"countryName":"Armenia","stateName":"Kotayk Region","name":"Buzhakan","lat":40.45569,"lon":44.51947,"geocoding":{},"distantMaxMiles":5},"Byureghavan":{"countryName":"Armenia","stateName":"Kotayk Region","name":"Byureghavan","lat":40.31417,"lon":44.59333,"geocoding":{},"distantMaxMiles":5},"Dzoraghbyur":{"countryName":"Armenia","stateName":"Kotayk Region","name":"Dzoraghbyur","lat":40.20412,"lon":44.6415,"geocoding":{},"distantMaxMiles":5},"Fantan":{"countryName":"Armenia","stateName":"Kotayk Region","name":"Fantan","lat":40.39447,"lon":44.6861,"geocoding":{},"distantMaxMiles":5},"Garrni":{"countryName":"Armenia","stateName":"Kotayk Region","name":"Garrni","lat":40.11931,"lon":44.73442,"geocoding":{},"distantMaxMiles":5},"Goght’":{"countryName":"Armenia","stateName":"Kotayk Region","name":"Goght’","lat":40.1347,"lon":44.78332,"geocoding":{},"distantMaxMiles":5},"Hrazdan":{"countryName":"Armenia","stateName":"Kotayk Region","name":"Hrazdan","lat":40.49748,"lon":44.7662,"geocoding":{},"distantMaxMiles":5},"Kaputan":{"countryName":"Armenia","stateName":"Kotayk Region","name":"Kaputan","lat":40.32507,"lon":44.70007,"geocoding":{},"distantMaxMiles":5},"Kotayk’":{"countryName":"Armenia","stateName":"Kotayk Region","name":"Kotayk’","lat":40.27789,"lon":44.66388,"geocoding":{},"distantMaxMiles":5},"Lerrnanist":{"countryName":"Armenia","stateName":"Kotayk Region","name":"Lerrnanist","lat":40.46676,"lon":44.79249,"geocoding":{},"distantMaxMiles":5},"Mayakovski":{"countryName":"Armenia","stateName":"Kotayk Region","name":"Mayakovski","lat":40.25293,"lon":44.63892,"geocoding":{},"distantMaxMiles":5},"Meghradzor":{"countryName":"Armenia","stateName":"Kotayk Region","name":"Meghradzor","lat":40.60611,"lon":44.65147,"geocoding":{},"distantMaxMiles":5},"Mrgashen":{"countryName":"Armenia","stateName":"Kotayk Region","name":"Mrgashen","lat":40.28607,"lon":44.54449,"geocoding":{},"distantMaxMiles":5},"Nor Geghi":{"countryName":"Armenia","stateName":"Kotayk Region","name":"Nor Geghi","lat":40.32233,"lon":44.58331,"geocoding":{},"distantMaxMiles":5},"Nor Gyugh":{"countryName":"Armenia","stateName":"Kotayk Region","name":"Nor Gyugh","lat":40.26672,"lon":44.65832,"geocoding":{},"distantMaxMiles":5},"Prroshyan":{"countryName":"Armenia","stateName":"Kotayk Region","name":"Prroshyan","lat":40.24731,"lon":44.41949,"geocoding":{},"distantMaxMiles":5},"Ptghni":{"countryName":"Armenia","stateName":"Kotayk Region","name":"Ptghni","lat":40.25568,"lon":44.58612,"geocoding":{},"distantMaxMiles":5},"Solak":{"countryName":"Armenia","stateName":"Kotayk Region","name":"Solak","lat":40.46252,"lon":44.70709,"geocoding":{},"distantMaxMiles":5},"Tsaghkadzor":{"countryName":"Armenia","stateName":"Kotayk Region","name":"Tsaghkadzor","lat":40.53259,"lon":44.72025,"geocoding":{},"distantMaxMiles":5},"Yeghvard":{"countryName":"Armenia","stateName":"Kotayk Region","name":"Yeghvard","lat":40.32507,"lon":44.48608,"geocoding":{},"distantMaxMiles":5},"Zarr":{"countryName":"Armenia","stateName":"Kotayk Region","name":"Zarr","lat":40.25848,"lon":44.73328,"geocoding":{},"distantMaxMiles":5},"Zoravan":{"countryName":"Armenia","stateName":"Kotayk Region","name":"Zoravan","lat":40.35553,"lon":44.52228,"geocoding":{},"distantMaxMiles":5},"Zovaber":{"countryName":"Armenia","stateName":"Kotayk Region","name":"Zovaber","lat":40.56671,"lon":44.79028,"geocoding":{},"distantMaxMiles":5}}},"Lori Region":{"countryName":"Armenia","name":"Lori Region","isoCode":"LO","lat":40.9698452,"lon":44.4900138,"geocoding":{},"distantMaxMiles":5,"cities":{"Agarak":{"countryName":"Armenia","stateName":"Lori Region","name":"Agarak","lat":41.01072,"lon":44.46845,"geocoding":{},"distantMaxMiles":5},"Akht’ala":{"countryName":"Armenia","stateName":"Lori Region","name":"Akht’ala","lat":41.16838,"lon":44.75811,"geocoding":{},"distantMaxMiles":5},"Alaverdi":{"countryName":"Armenia","stateName":"Lori Region","name":"Alaverdi","lat":41.09766,"lon":44.67316,"geocoding":{},"distantMaxMiles":5},"Arevashogh":{"countryName":"Armenia","stateName":"Lori Region","name":"Arevashogh","lat":40.86039,"lon":44.27438,"geocoding":{},"distantMaxMiles":5},"Bazum":{"countryName":"Armenia","stateName":"Lori Region","name":"Bazum","lat":40.86763,"lon":44.43978,"geocoding":{},"distantMaxMiles":5},"Chochkan":{"countryName":"Armenia","stateName":"Lori Region","name":"Chochkan","lat":41.18118,"lon":44.83217,"geocoding":{},"distantMaxMiles":5},"Darpas":{"countryName":"Armenia","stateName":"Lori Region","name":"Darpas","lat":40.83674,"lon":44.42494,"geocoding":{},"distantMaxMiles":5},"Dsegh":{"countryName":"Armenia","stateName":"Lori Region","name":"Dsegh","lat":40.9617,"lon":44.65003,"geocoding":{},"distantMaxMiles":5},"Fioletovo":{"countryName":"Armenia","stateName":"Lori Region","name":"Fioletovo","lat":40.72241,"lon":44.71769,"geocoding":{},"distantMaxMiles":5},"Gogaran":{"countryName":"Armenia","stateName":"Lori Region","name":"Gogaran","lat":40.89255,"lon":44.19915,"geocoding":{},"distantMaxMiles":5},"Gugark’":{"countryName":"Armenia","stateName":"Lori Region","name":"Gugark’","lat":40.8046,"lon":44.54025,"geocoding":{},"distantMaxMiles":5},"Gyulagarak":{"countryName":"Armenia","stateName":"Lori Region","name":"Gyulagarak","lat":40.96715,"lon":44.47144,"geocoding":{},"distantMaxMiles":5},"Jrashen":{"countryName":"Armenia","stateName":"Lori Region","name":"Jrashen","lat":40.79028,"lon":44.18664,"geocoding":{},"distantMaxMiles":5},"Lerrnants’k’":{"countryName":"Armenia","stateName":"Lori Region","name":"Lerrnants’k’","lat":40.79532,"lon":44.27435,"geocoding":{},"distantMaxMiles":5},"Lerrnapat":{"countryName":"Armenia","stateName":"Lori Region","name":"Lerrnapat","lat":40.81538,"lon":44.39344,"geocoding":{},"distantMaxMiles":5},"Lerrnavan":{"countryName":"Armenia","stateName":"Lori Region","name":"Lerrnavan","lat":40.7882,"lon":44.16024,"geocoding":{},"distantMaxMiles":5},"Lorut":{"countryName":"Armenia","stateName":"Lori Region","name":"Lorut","lat":40.93717,"lon":44.77142,"geocoding":{},"distantMaxMiles":5},"Margahovit":{"countryName":"Armenia","stateName":"Lori Region","name":"Margahovit","lat":40.73381,"lon":44.68474,"geocoding":{},"distantMaxMiles":5},"Mets Parni":{"countryName":"Armenia","stateName":"Lori Region","name":"Mets Parni","lat":40.83472,"lon":44.11108,"geocoding":{},"distantMaxMiles":5},"Metsavan":{"countryName":"Armenia","stateName":"Lori Region","name":"Metsavan","lat":41.20156,"lon":44.22877,"geocoding":{},"distantMaxMiles":5},"Norashen":{"countryName":"Armenia","stateName":"Lori Region","name":"Norashen","lat":41.18886,"lon":44.33336,"geocoding":{},"distantMaxMiles":5},"Odzun":{"countryName":"Armenia","stateName":"Lori Region","name":"Odzun","lat":41.05321,"lon":44.61341,"geocoding":{},"distantMaxMiles":5},"Sarahart’":{"countryName":"Armenia","stateName":"Lori Region","name":"Sarahart’","lat":40.87043,"lon":44.21407,"geocoding":{},"distantMaxMiles":5},"Saramej":{"countryName":"Armenia","stateName":"Lori Region","name":"Saramej","lat":40.77487,"lon":44.2222,"geocoding":{},"distantMaxMiles":5},"Shahumyan":{"countryName":"Armenia","stateName":"Lori Region","name":"Shahumyan","lat":40.77482,"lon":44.54596,"geocoding":{},"distantMaxMiles":5},"Shirakamut":{"countryName":"Armenia","stateName":"Lori Region","name":"Shirakamut","lat":40.86056,"lon":44.15278,"geocoding":{},"distantMaxMiles":5},"Shnogh":{"countryName":"Armenia","stateName":"Lori Region","name":"Shnogh","lat":41.14693,"lon":44.84043,"geocoding":{},"distantMaxMiles":5},"Spitak":{"countryName":"Armenia","stateName":"Lori Region","name":"Spitak","lat":40.83221,"lon":44.26731,"geocoding":{},"distantMaxMiles":5},"Step’anavan":{"countryName":"Armenia","stateName":"Lori Region","name":"Step’anavan","lat":41.00995,"lon":44.38531,"geocoding":{},"distantMaxMiles":5},"Tashir":{"countryName":"Armenia","stateName":"Lori Region","name":"Tashir","lat":41.12072,"lon":44.28462,"geocoding":{},"distantMaxMiles":5},"Tsaghkaber":{"countryName":"Armenia","stateName":"Lori Region","name":"Tsaghkaber","lat":40.79849,"lon":44.10144,"geocoding":{},"distantMaxMiles":5},"Urrut":{"countryName":"Armenia","stateName":"Lori Region","name":"Urrut","lat":41.06778,"lon":44.39628,"geocoding":{},"distantMaxMiles":5},"Vahagni":{"countryName":"Armenia","stateName":"Lori Region","name":"Vahagni","lat":40.90698,"lon":44.60873,"geocoding":{},"distantMaxMiles":5},"Vanadzor":{"countryName":"Armenia","stateName":"Lori Region","name":"Vanadzor","lat":40.80456,"lon":44.4939,"geocoding":{},"distantMaxMiles":5},"Vardablur":{"countryName":"Armenia","stateName":"Lori Region","name":"Vardablur","lat":40.97083,"lon":44.50889,"geocoding":{},"distantMaxMiles":5},"Yeghegnut":{"countryName":"Armenia","stateName":"Lori Region","name":"Yeghegnut","lat":40.90302,"lon":44.63155,"geocoding":{},"distantMaxMiles":5}}},"Shirak Region":{"countryName":"Armenia","name":"Shirak Region","isoCode":"SH","lat":40.9630814,"lon":43.8102461,"geocoding":{},"distantMaxMiles":5,"cities":{"Akhuryan":{"countryName":"Armenia","stateName":"Shirak Region","name":"Akhuryan","lat":40.78003,"lon":43.90027,"geocoding":{},"distantMaxMiles":5},"Amasia":{"countryName":"Armenia","stateName":"Shirak Region","name":"Amasia","lat":40.95442,"lon":43.7872,"geocoding":{},"distantMaxMiles":5},"Anushavan":{"countryName":"Armenia","stateName":"Shirak Region","name":"Anushavan","lat":40.65008,"lon":43.98053,"geocoding":{},"distantMaxMiles":5},"Arevik":{"countryName":"Armenia","stateName":"Shirak Region","name":"Arevik","lat":40.7417,"lon":43.9043,"geocoding":{},"distantMaxMiles":5},"Arevshat":{"countryName":"Armenia","stateName":"Shirak Region","name":"Arevshat","lat":40.65345,"lon":44.04419,"geocoding":{},"distantMaxMiles":5},"Arrap’i":{"countryName":"Armenia","stateName":"Shirak Region","name":"Arrap’i","lat":40.78276,"lon":43.80583,"geocoding":{},"distantMaxMiles":5},"Azatan":{"countryName":"Armenia","stateName":"Shirak Region","name":"Azatan","lat":40.71959,"lon":43.82727,"geocoding":{},"distantMaxMiles":5},"Basen":{"countryName":"Armenia","stateName":"Shirak Region","name":"Basen","lat":40.75767,"lon":43.99274,"geocoding":{},"distantMaxMiles":5},"Dzit’hank’ov":{"countryName":"Armenia","stateName":"Shirak Region","name":"Dzit’hank’ov","lat":40.50848,"lon":43.82092,"geocoding":{},"distantMaxMiles":5},"Gyumri":{"countryName":"Armenia","stateName":"Shirak Region","name":"Gyumri","lat":40.7942,"lon":43.84528,"geocoding":{},"distantMaxMiles":5},"Haykavan":{"countryName":"Armenia","stateName":"Shirak Region","name":"Haykavan","lat":40.80312,"lon":43.75173,"geocoding":{},"distantMaxMiles":5},"Horrom":{"countryName":"Armenia","stateName":"Shirak Region","name":"Horrom","lat":40.65973,"lon":43.89032,"geocoding":{},"distantMaxMiles":5},"Kamo":{"countryName":"Armenia","stateName":"Shirak Region","name":"Kamo","lat":40.82572,"lon":43.95071,"geocoding":{},"distantMaxMiles":5},"Lerrnakert":{"countryName":"Armenia","stateName":"Shirak Region","name":"Lerrnakert","lat":40.5625,"lon":43.9389,"geocoding":{},"distantMaxMiles":5},"Maralik":{"countryName":"Armenia","stateName":"Shirak Region","name":"Maralik","lat":40.57507,"lon":43.87231,"geocoding":{},"distantMaxMiles":5},"Marmashen":{"countryName":"Armenia","stateName":"Shirak Region","name":"Marmashen","lat":40.83486,"lon":43.7779,"geocoding":{},"distantMaxMiles":5},"Mayisyan":{"countryName":"Armenia","stateName":"Shirak Region","name":"Mayisyan","lat":40.84715,"lon":43.83938,"geocoding":{},"distantMaxMiles":5},"Meghrashen":{"countryName":"Armenia","stateName":"Shirak Region","name":"Meghrashen","lat":40.6723,"lon":43.95831,"geocoding":{},"distantMaxMiles":5},"Mets Mant’ash":{"countryName":"Armenia","stateName":"Shirak Region","name":"Mets Mant’ash","lat":40.64376,"lon":44.05653,"geocoding":{},"distantMaxMiles":5},"Pemzashen":{"countryName":"Armenia","stateName":"Shirak Region","name":"Pemzashen","lat":40.58612,"lon":43.94311,"geocoding":{},"distantMaxMiles":5},"P’ok’r Mant’ash":{"countryName":"Armenia","stateName":"Shirak Region","name":"P’ok’r Mant’ash","lat":40.64026,"lon":44.04666,"geocoding":{},"distantMaxMiles":5},"Saratak":{"countryName":"Armenia","stateName":"Shirak Region","name":"Saratak","lat":40.6709,"lon":43.87231,"geocoding":{},"distantMaxMiles":5},"Shirak":{"countryName":"Armenia","stateName":"Shirak Region","name":"Shirak","lat":40.84042,"lon":43.91582,"geocoding":{},"distantMaxMiles":5},"Spandaryan":{"countryName":"Armenia","stateName":"Shirak Region","name":"Spandaryan","lat":40.66105,"lon":44.01551,"geocoding":{},"distantMaxMiles":5},"Voskehask":{"countryName":"Armenia","stateName":"Shirak Region","name":"Voskehask","lat":40.76426,"lon":43.77474,"geocoding":{},"distantMaxMiles":5},"Yerazgavors":{"countryName":"Armenia","stateName":"Shirak Region","name":"Yerazgavors","lat":40.69505,"lon":43.74722,"geocoding":{},"distantMaxMiles":5}}},"Syunik Province":{"countryName":"Armenia","name":"Syunik Province","isoCode":"SU","lat":39.5133112,"lon":46.3393234,"geocoding":{},"distantMaxMiles":5,"cities":{"Agarak":{"countryName":"Armenia","stateName":"Syunik Province","name":"Agarak","lat":39.20684,"lon":46.5446,"geocoding":{},"distantMaxMiles":5},"Akner":{"countryName":"Armenia","stateName":"Syunik Province","name":"Akner","lat":39.53491,"lon":46.30732,"geocoding":{},"distantMaxMiles":5},"Angeghakot’":{"countryName":"Armenia","stateName":"Syunik Province","name":"Angeghakot’","lat":39.56952,"lon":45.94452,"geocoding":{},"distantMaxMiles":5},"Brrnakot’":{"countryName":"Armenia","stateName":"Syunik Province","name":"Brrnakot’","lat":39.49742,"lon":45.97241,"geocoding":{},"distantMaxMiles":5},"Dzorastan":{"countryName":"Armenia","stateName":"Syunik Province","name":"Dzorastan","lat":39.27059,"lon":46.3572,"geocoding":{},"distantMaxMiles":5},"Goris":{"countryName":"Armenia","stateName":"Syunik Province","name":"Goris","lat":39.51111,"lon":46.34168,"geocoding":{},"distantMaxMiles":5},"Hats’avan":{"countryName":"Armenia","stateName":"Syunik Province","name":"Hats’avan","lat":39.46405,"lon":45.97047,"geocoding":{},"distantMaxMiles":5},"Kapan":{"countryName":"Armenia","stateName":"Syunik Province","name":"Kapan","lat":39.20755,"lon":46.40576,"geocoding":{},"distantMaxMiles":5},"Khndzoresk":{"countryName":"Armenia","stateName":"Syunik Province","name":"Khndzoresk","lat":39.50568,"lon":46.4361,"geocoding":{},"distantMaxMiles":5},"Meghri":{"countryName":"Armenia","stateName":"Syunik Province","name":"Meghri","lat":38.90292,"lon":46.24458,"geocoding":{},"distantMaxMiles":5},"Shaghat":{"countryName":"Armenia","stateName":"Syunik Province","name":"Shaghat","lat":39.55698,"lon":45.90727,"geocoding":{},"distantMaxMiles":5},"Shinuhayr":{"countryName":"Armenia","stateName":"Syunik Province","name":"Shinuhayr","lat":39.4367,"lon":46.31787,"geocoding":{},"distantMaxMiles":5},"Tegh":{"countryName":"Armenia","stateName":"Syunik Province","name":"Tegh","lat":39.55826,"lon":46.48054,"geocoding":{},"distantMaxMiles":5},"Verishen":{"countryName":"Armenia","stateName":"Syunik Province","name":"Verishen","lat":39.53543,"lon":46.32063,"geocoding":{},"distantMaxMiles":5}}},"Tavush Region":{"countryName":"Armenia","name":"Tavush Region","isoCode":"TV","lat":40.8866296,"lon":45.339349,"geocoding":{},"distantMaxMiles":5,"cities":{"Archis":{"countryName":"Armenia","stateName":"Tavush Region","name":"Archis","lat":41.16351,"lon":44.87631,"geocoding":{},"distantMaxMiles":5},"Artsvaberd":{"countryName":"Armenia","stateName":"Tavush Region","name":"Artsvaberd","lat":40.83947,"lon":45.47033,"geocoding":{},"distantMaxMiles":5},"Aygehovit":{"countryName":"Armenia","stateName":"Tavush Region","name":"Aygehovit","lat":40.97951,"lon":45.25033,"geocoding":{},"distantMaxMiles":5},"Azatamut":{"countryName":"Armenia","stateName":"Tavush Region","name":"Azatamut","lat":40.98204,"lon":45.18551,"geocoding":{},"distantMaxMiles":5},"Bagratashen":{"countryName":"Armenia","stateName":"Tavush Region","name":"Bagratashen","lat":41.24358,"lon":44.81737,"geocoding":{},"distantMaxMiles":5},"Berd":{"countryName":"Armenia","stateName":"Tavush Region","name":"Berd","lat":40.88135,"lon":45.38901,"geocoding":{},"distantMaxMiles":5},"Berdavan":{"countryName":"Armenia","stateName":"Tavush Region","name":"Berdavan","lat":41.20503,"lon":44.99967,"geocoding":{},"distantMaxMiles":5},"Dilijan":{"countryName":"Armenia","stateName":"Tavush Region","name":"Dilijan","lat":40.7417,"lon":44.8501,"geocoding":{},"distantMaxMiles":5},"Haghartsin":{"countryName":"Armenia","stateName":"Tavush Region","name":"Haghartsin","lat":40.77614,"lon":44.96847,"geocoding":{},"distantMaxMiles":5},"Ijevan":{"countryName":"Armenia","stateName":"Tavush Region","name":"Ijevan","lat":40.87877,"lon":45.14851,"geocoding":{},"distantMaxMiles":5},"Khasht’arrak":{"countryName":"Armenia","stateName":"Tavush Region","name":"Khasht’arrak","lat":40.93668,"lon":45.1821,"geocoding":{},"distantMaxMiles":5},"Mosesgegh":{"countryName":"Armenia","stateName":"Tavush Region","name":"Mosesgegh","lat":40.90534,"lon":45.48838,"geocoding":{},"distantMaxMiles":5},"Navur":{"countryName":"Armenia","stateName":"Tavush Region","name":"Navur","lat":40.86695,"lon":45.34179,"geocoding":{},"distantMaxMiles":5},"Noyemberyan":{"countryName":"Armenia","stateName":"Tavush Region","name":"Noyemberyan","lat":41.17244,"lon":44.99917,"geocoding":{},"distantMaxMiles":5},"Parravak’ar":{"countryName":"Armenia","stateName":"Tavush Region","name":"Parravak’ar","lat":40.98248,"lon":45.36696,"geocoding":{},"distantMaxMiles":5},"Sarigyugh":{"countryName":"Armenia","stateName":"Tavush Region","name":"Sarigyugh","lat":41.03531,"lon":45.14486,"geocoding":{},"distantMaxMiles":5},"Voskevan":{"countryName":"Armenia","stateName":"Tavush Region","name":"Voskevan","lat":41.12081,"lon":45.06381,"geocoding":{},"distantMaxMiles":5}}},"Vayots Dzor Region":{"countryName":"Armenia","name":"Vayots Dzor Region","isoCode":"VD","lat":39.7641996,"lon":45.3337528,"geocoding":{},"distantMaxMiles":5,"cities":{"Agarakadzor":{"countryName":"Armenia","stateName":"Vayots Dzor Region","name":"Agarakadzor","lat":39.73608,"lon":45.35553,"geocoding":{},"distantMaxMiles":5},"Aghavnadzor":{"countryName":"Armenia","stateName":"Vayots Dzor Region","name":"Aghavnadzor","lat":39.78607,"lon":45.2279,"geocoding":{},"distantMaxMiles":5},"Areni":{"countryName":"Armenia","stateName":"Vayots Dzor Region","name":"Areni","lat":39.71668,"lon":45.18329,"geocoding":{},"distantMaxMiles":5},"Getap’":{"countryName":"Armenia","stateName":"Vayots Dzor Region","name":"Getap’","lat":39.76392,"lon":45.30829,"geocoding":{},"distantMaxMiles":5},"Gladzor":{"countryName":"Armenia","stateName":"Vayots Dzor Region","name":"Gladzor","lat":39.7807,"lon":45.34729,"geocoding":{},"distantMaxMiles":5},"Jermuk":{"countryName":"Armenia","stateName":"Vayots Dzor Region","name":"Jermuk","lat":39.84168,"lon":45.66949,"geocoding":{},"distantMaxMiles":5},"Malishka":{"countryName":"Armenia","stateName":"Vayots Dzor Region","name":"Malishka","lat":39.74731,"lon":45.4057,"geocoding":{},"distantMaxMiles":5},"Rrind":{"countryName":"Armenia","stateName":"Vayots Dzor Region","name":"Rrind","lat":39.76111,"lon":45.17792,"geocoding":{},"distantMaxMiles":5},"Shatin":{"countryName":"Armenia","stateName":"Vayots Dzor Region","name":"Shatin","lat":39.83612,"lon":45.30292,"geocoding":{},"distantMaxMiles":5},"Vayk’":{"countryName":"Armenia","stateName":"Vayots Dzor Region","name":"Vayk’","lat":39.6889,"lon":45.46668,"geocoding":{},"distantMaxMiles":5},"Vernashen":{"countryName":"Armenia","stateName":"Vayots Dzor Region","name":"Vernashen","lat":39.79236,"lon":45.36389,"geocoding":{},"distantMaxMiles":5},"Yeghegis":{"countryName":"Armenia","stateName":"Vayots Dzor Region","name":"Yeghegis","lat":39.87231,"lon":45.3501,"geocoding":{},"distantMaxMiles":5},"Yeghegnadzor":{"countryName":"Armenia","stateName":"Vayots Dzor Region","name":"Yeghegnadzor","lat":39.76389,"lon":45.33239,"geocoding":{},"distantMaxMiles":5},"Zarrit’ap’":{"countryName":"Armenia","stateName":"Vayots Dzor Region","name":"Zarrit’ap’","lat":39.63892,"lon":45.51111,"geocoding":{},"distantMaxMiles":5}}},"Yerevan":{"countryName":"Armenia","name":"Yerevan","isoCode":"ER","lat":40.1872023,"lon":44.515209,"geocoding":{},"distantMaxMiles":5,"cities":{"Arabkir":{"countryName":"Armenia","stateName":"Yerevan","name":"Arabkir","lat":40.20549,"lon":44.50699,"geocoding":{},"distantMaxMiles":5},"Argavand":{"countryName":"Armenia","stateName":"Yerevan","name":"Argavand","lat":40.15289,"lon":44.4389,"geocoding":{},"distantMaxMiles":5},"Jrashen":{"countryName":"Armenia","stateName":"Yerevan","name":"Jrashen","lat":40.05275,"lon":44.51259,"geocoding":{},"distantMaxMiles":5},"K’anak’erravan":{"countryName":"Armenia","stateName":"Yerevan","name":"K’anak’erravan","lat":40.24739,"lon":44.53511,"geocoding":{},"distantMaxMiles":5},"Vardadzor":{"countryName":"Armenia","stateName":"Yerevan","name":"Vardadzor","lat":40.18701,"lon":45.19212,"geocoding":{},"distantMaxMiles":5},"Yerevan":{"countryName":"Armenia","stateName":"Yerevan","name":"Yerevan","lat":40.18111,"lon":44.51361,"geocoding":{},"distantMaxMiles":5}}}}}