{"name":"Kazakhstan","isoCode":"KZ","lat":48,"lon":68,"geocoding":{},"distantMaxMiles":5,"states":{"Akmola Region":{"countryName":"Kazakhstan","name":"Akmola Region","isoCode":"AKM","lat":51.916532,"lon":69.4110494,"geocoding":{},"distantMaxMiles":5,"cities":{"Akkol":{"countryName":"Kazakhstan","stateName":"Akmola Region","name":"Akkol","lat":51.99374,"lon":70.94704,"geocoding":{},"distantMaxMiles":5},"Akkol’":{"countryName":"Kazakhstan","stateName":"Akmola Region","name":"Akkol’","lat":53.29617,"lon":69.59997,"geocoding":{},"distantMaxMiles":5},"Aksu":{"countryName":"Kazakhstan","stateName":"Akmola Region","name":"Aksu","lat":52.44422,"lon":71.95761,"geocoding":{},"distantMaxMiles":5},"Astrakhan":{"countryName":"Kazakhstan","stateName":"Akmola Region","name":"Astrakhan","lat":51.53092,"lon":69.79684,"geocoding":{},"distantMaxMiles":5},"Atbasar":{"countryName":"Kazakhstan","stateName":"Akmola Region","name":"Atbasar","lat":51.80652,"lon":68.35996,"geocoding":{},"distantMaxMiles":5},"Balkashino":{"countryName":"Kazakhstan","stateName":"Akmola Region","name":"Balkashino","lat":52.51779,"lon":68.7516,"geocoding":{},"distantMaxMiles":5},"Bestobe":{"countryName":"Kazakhstan","stateName":"Akmola Region","name":"Bestobe","lat":52.49795,"lon":73.09592,"geocoding":{},"distantMaxMiles":5},"Derzhavīnsk":{"countryName":"Kazakhstan","stateName":"Akmola Region","name":"Derzhavīnsk","lat":51.09922,"lon":66.31557,"geocoding":{},"distantMaxMiles":5},"Egindiköl":{"countryName":"Kazakhstan","stateName":"Akmola Region","name":"Egindiköl","lat":51.05412,"lon":69.47928,"geocoding":{},"distantMaxMiles":5},"Esil":{"countryName":"Kazakhstan","stateName":"Akmola Region","name":"Esil","lat":51.95495,"lon":66.40841,"geocoding":{},"distantMaxMiles":5},"Kokshetau":{"countryName":"Kazakhstan","stateName":"Akmola Region","name":"Kokshetau","lat":53.28333,"lon":69.4,"geocoding":{},"distantMaxMiles":5},"Krasnogorskiy":{"countryName":"Kazakhstan","stateName":"Akmola Region","name":"Krasnogorskiy","lat":52.2456,"lon":66.52081,"geocoding":{},"distantMaxMiles":5},"Makinsk":{"countryName":"Kazakhstan","stateName":"Akmola Region","name":"Makinsk","lat":52.6329,"lon":70.41911,"geocoding":{},"distantMaxMiles":5},"Shantobe":{"countryName":"Kazakhstan","stateName":"Akmola Region","name":"Shantobe","lat":52.45376,"lon":68.17475,"geocoding":{},"distantMaxMiles":5},"Shchuchinsk":{"countryName":"Kazakhstan","stateName":"Akmola Region","name":"Shchuchinsk","lat":52.93592,"lon":70.18895,"geocoding":{},"distantMaxMiles":5},"Shortandy":{"countryName":"Kazakhstan","stateName":"Akmola Region","name":"Shortandy","lat":51.69946,"lon":70.99457,"geocoding":{},"distantMaxMiles":5},"Stepnogorsk":{"countryName":"Kazakhstan","stateName":"Akmola Region","name":"Stepnogorsk","lat":52.35062,"lon":71.88161,"geocoding":{},"distantMaxMiles":5},"Stepnyak":{"countryName":"Kazakhstan","stateName":"Akmola Region","name":"Stepnyak","lat":52.83489,"lon":70.78861,"geocoding":{},"distantMaxMiles":5},"Yermentau":{"countryName":"Kazakhstan","stateName":"Akmola Region","name":"Yermentau","lat":51.62364,"lon":73.10265,"geocoding":{},"distantMaxMiles":5},"Zavodskoy":{"countryName":"Kazakhstan","stateName":"Akmola Region","name":"Zavodskoy","lat":52.47031,"lon":72.01514,"geocoding":{},"distantMaxMiles":5},"Zhaqsy":{"countryName":"Kazakhstan","stateName":"Akmola Region","name":"Zhaqsy","lat":51.91058,"lon":67.31665,"geocoding":{},"distantMaxMiles":5},"Zholymbet":{"countryName":"Kazakhstan","stateName":"Akmola Region","name":"Zholymbet","lat":51.74211,"lon":71.71245,"geocoding":{},"distantMaxMiles":5}}},"Aktobe Region":{"countryName":"Kazakhstan","name":"Aktobe Region","isoCode":"AKT","lat":48.7797078,"lon":57.9974378,"geocoding":{},"distantMaxMiles":5,"cities":{"Aktobe":{"countryName":"Kazakhstan","stateName":"Aktobe Region","name":"Aktobe","lat":50.27969,"lon":57.20718,"geocoding":{},"distantMaxMiles":5},"Batamshinskiy":{"countryName":"Kazakhstan","stateName":"Aktobe Region","name":"Batamshinskiy","lat":50.56022,"lon":58.27715,"geocoding":{},"distantMaxMiles":5},"Bayganin":{"countryName":"Kazakhstan","stateName":"Aktobe Region","name":"Bayganin","lat":48.68975,"lon":55.87512,"geocoding":{},"distantMaxMiles":5},"Embi":{"countryName":"Kazakhstan","stateName":"Aktobe Region","name":"Embi","lat":48.82981,"lon":58.15042,"geocoding":{},"distantMaxMiles":5},"Kandyagash":{"countryName":"Kazakhstan","stateName":"Aktobe Region","name":"Kandyagash","lat":49.46912,"lon":57.41914,"geocoding":{},"distantMaxMiles":5},"Khromtau":{"countryName":"Kazakhstan","stateName":"Aktobe Region","name":"Khromtau","lat":50.25117,"lon":58.44003,"geocoding":{},"distantMaxMiles":5},"Martuk":{"countryName":"Kazakhstan","stateName":"Aktobe Region","name":"Martuk","lat":50.74746,"lon":56.50611,"geocoding":{},"distantMaxMiles":5},"Shalqar":{"countryName":"Kazakhstan","stateName":"Aktobe Region","name":"Shalqar","lat":47.83333,"lon":59.6,"geocoding":{},"distantMaxMiles":5},"Shubarkuduk":{"countryName":"Kazakhstan","stateName":"Aktobe Region","name":"Shubarkuduk","lat":49.14391,"lon":56.48196,"geocoding":{},"distantMaxMiles":5},"Shubarshi":{"countryName":"Kazakhstan","stateName":"Aktobe Region","name":"Shubarshi","lat":48.58022,"lon":57.18289,"geocoding":{},"distantMaxMiles":5},"Temir":{"countryName":"Kazakhstan","stateName":"Aktobe Region","name":"Temir","lat":49.14132,"lon":57.12855,"geocoding":{},"distantMaxMiles":5},"Yrghyz":{"countryName":"Kazakhstan","stateName":"Aktobe Region","name":"Yrghyz","lat":48.61667,"lon":61.26667,"geocoding":{},"distantMaxMiles":5}}},"Almaty":{"countryName":"Kazakhstan","name":"Almaty","isoCode":"ALA","lat":43.2220146,"lon":76.8512485,"geocoding":{},"distantMaxMiles":5,"cities":{"Almaty":{"countryName":"Kazakhstan","stateName":"Almaty","name":"Almaty","lat":43.25667,"lon":76.92861,"geocoding":{},"distantMaxMiles":5}}},"Almaty Region":{"countryName":"Kazakhstan","name":"Almaty Region","isoCode":"ALM","lat":45.0119227,"lon":78.4229392,"geocoding":{},"distantMaxMiles":5,"cities":{"Bakanas":{"countryName":"Kazakhstan","stateName":"Almaty Region","name":"Bakanas","lat":44.80838,"lon":76.27214,"geocoding":{},"distantMaxMiles":5},"Balpyk Bī":{"countryName":"Kazakhstan","stateName":"Almaty Region","name":"Balpyk Bī","lat":44.90225,"lon":78.23157,"geocoding":{},"distantMaxMiles":5},"Burunday":{"countryName":"Kazakhstan","stateName":"Almaty Region","name":"Burunday","lat":43.35567,"lon":76.85477,"geocoding":{},"distantMaxMiles":5},"Chemolgan":{"countryName":"Kazakhstan","stateName":"Almaty Region","name":"Chemolgan","lat":43.37633,"lon":76.62456,"geocoding":{},"distantMaxMiles":5},"Druzhba":{"countryName":"Kazakhstan","stateName":"Almaty Region","name":"Druzhba","lat":45.25332,"lon":82.48044,"geocoding":{},"distantMaxMiles":5},"Esik":{"countryName":"Kazakhstan","stateName":"Almaty Region","name":"Esik","lat":43.3552,"lon":77.45245,"geocoding":{},"distantMaxMiles":5},"Kapshagay":{"countryName":"Kazakhstan","stateName":"Almaty Region","name":"Kapshagay","lat":43.86681,"lon":77.06304,"geocoding":{},"distantMaxMiles":5},"Kegen":{"countryName":"Kazakhstan","stateName":"Almaty Region","name":"Kegen","lat":43.02143,"lon":79.22055,"geocoding":{},"distantMaxMiles":5},"Lepsy":{"countryName":"Kazakhstan","stateName":"Almaty Region","name":"Lepsy","lat":46.235,"lon":78.94556,"geocoding":{},"distantMaxMiles":5},"Matay":{"countryName":"Kazakhstan","stateName":"Almaty Region","name":"Matay","lat":45.895,"lon":78.71806,"geocoding":{},"distantMaxMiles":5},"Otegen Batyra":{"countryName":"Kazakhstan","stateName":"Almaty Region","name":"Otegen Batyra","lat":43.41949,"lon":77.0202,"geocoding":{},"distantMaxMiles":5},"Pervomayka":{"countryName":"Kazakhstan","stateName":"Almaty Region","name":"Pervomayka","lat":43.37361,"lon":76.94,"geocoding":{},"distantMaxMiles":5},"Sarkand":{"countryName":"Kazakhstan","stateName":"Almaty Region","name":"Sarkand","lat":45.41126,"lon":79.91545,"geocoding":{},"distantMaxMiles":5},"Saryozek":{"countryName":"Kazakhstan","stateName":"Almaty Region","name":"Saryozek","lat":44.36178,"lon":77.97279,"geocoding":{},"distantMaxMiles":5},"Taldykorgan":{"countryName":"Kazakhstan","stateName":"Almaty Region","name":"Taldykorgan","lat":45.01556,"lon":78.37389,"geocoding":{},"distantMaxMiles":5},"Talghar":{"countryName":"Kazakhstan","stateName":"Almaty Region","name":"Talghar","lat":43.30348,"lon":77.24085,"geocoding":{},"distantMaxMiles":5},"Tekeli":{"countryName":"Kazakhstan","stateName":"Almaty Region","name":"Tekeli","lat":44.83322,"lon":78.83089,"geocoding":{},"distantMaxMiles":5},"Turgen":{"countryName":"Kazakhstan","stateName":"Almaty Region","name":"Turgen","lat":43.40056,"lon":77.59333,"geocoding":{},"distantMaxMiles":5},"Ush-Tyube":{"countryName":"Kazakhstan","stateName":"Almaty Region","name":"Ush-Tyube","lat":45.25201,"lon":77.98007,"geocoding":{},"distantMaxMiles":5},"Zharkent":{"countryName":"Kazakhstan","stateName":"Almaty Region","name":"Zharkent","lat":44.1666,"lon":80.00655,"geocoding":{},"distantMaxMiles":5},"Ülken":{"countryName":"Kazakhstan","stateName":"Almaty Region","name":"Ülken","lat":45.21194,"lon":73.97861,"geocoding":{},"distantMaxMiles":5}}},"Atyrau Region":{"countryName":"Kazakhstan","name":"Atyrau Region","isoCode":"ATY","lat":47.1076188,"lon":51.914133,"geocoding":{},"distantMaxMiles":5,"cities":{"Akkol’":{"countryName":"Kazakhstan","stateName":"Atyrau Region","name":"Akkol’","lat":48.77177,"lon":53.1858,"geocoding":{},"distantMaxMiles":5},"Atyrau":{"countryName":"Kazakhstan","stateName":"Atyrau Region","name":"Atyrau","lat":47.11667,"lon":51.88333,"geocoding":{},"distantMaxMiles":5},"Balykshi":{"countryName":"Kazakhstan","stateName":"Atyrau Region","name":"Balykshi","lat":47.06667,"lon":51.86667,"geocoding":{},"distantMaxMiles":5},"Bayshonas":{"countryName":"Kazakhstan","stateName":"Atyrau Region","name":"Bayshonas","lat":47.24139,"lon":52.94111,"geocoding":{},"distantMaxMiles":5},"Dossor":{"countryName":"Kazakhstan","stateName":"Atyrau Region","name":"Dossor","lat":47.52722,"lon":52.98111,"geocoding":{},"distantMaxMiles":5},"Inderbor":{"countryName":"Kazakhstan","stateName":"Atyrau Region","name":"Inderbor","lat":48.55,"lon":51.78333,"geocoding":{},"distantMaxMiles":5},"Makhambet":{"countryName":"Kazakhstan","stateName":"Atyrau Region","name":"Makhambet","lat":47.66667,"lon":51.58333,"geocoding":{},"distantMaxMiles":5},"Maloye Ganyushkino":{"countryName":"Kazakhstan","stateName":"Atyrau Region","name":"Maloye Ganyushkino","lat":46.6,"lon":49.26667,"geocoding":{},"distantMaxMiles":5},"Maqat":{"countryName":"Kazakhstan","stateName":"Atyrau Region","name":"Maqat","lat":47.65,"lon":53.31667,"geocoding":{},"distantMaxMiles":5},"Miyaly":{"countryName":"Kazakhstan","stateName":"Atyrau Region","name":"Miyaly","lat":48.88504,"lon":53.79194,"geocoding":{},"distantMaxMiles":5},"Qaraton":{"countryName":"Kazakhstan","stateName":"Atyrau Region","name":"Qaraton","lat":46.43528,"lon":53.48639,"geocoding":{},"distantMaxMiles":5},"Qulsary":{"countryName":"Kazakhstan","stateName":"Atyrau Region","name":"Qulsary","lat":46.95307,"lon":54.01978,"geocoding":{},"distantMaxMiles":5},"Shalkar":{"countryName":"Kazakhstan","stateName":"Atyrau Region","name":"Shalkar","lat":48.03333,"lon":48.9,"geocoding":{},"distantMaxMiles":5}}},"Baikonur":{"countryName":"Kazakhstan","name":"Baikonur","isoCode":"BAY","lat":45.9645851,"lon":63.3052428,"geocoding":{},"distantMaxMiles":5,"cities":{"Baikonur":{"countryName":"Kazakhstan","stateName":"Baikonur","name":"Baikonur","lat":45.61667,"lon":63.31667,"geocoding":{},"distantMaxMiles":5}}},"East Kazakhstan Region":{"countryName":"Kazakhstan","name":"East Kazakhstan Region","isoCode":"VOS","lat":48.7062687,"lon":80.7922534,"geocoding":{},"distantMaxMiles":5,"cities":{"Altayskiy":{"countryName":"Kazakhstan","stateName":"East Kazakhstan Region","name":"Altayskiy","lat":50.24593,"lon":82.36252,"geocoding":{},"distantMaxMiles":5},"Aqtoghay":{"countryName":"Kazakhstan","stateName":"East Kazakhstan Region","name":"Aqtoghay","lat":46.95,"lon":79.66667,"geocoding":{},"distantMaxMiles":5},"Asūbulaq":{"countryName":"Kazakhstan","stateName":"East Kazakhstan Region","name":"Asūbulaq","lat":49.55688,"lon":83.06355,"geocoding":{},"distantMaxMiles":5},"Auezov":{"countryName":"Kazakhstan","stateName":"East Kazakhstan Region","name":"Auezov","lat":49.71003,"lon":81.58018,"geocoding":{},"distantMaxMiles":5},"Ayagoz":{"countryName":"Kazakhstan","stateName":"East Kazakhstan Region","name":"Ayagoz","lat":47.96447,"lon":80.43437,"geocoding":{},"distantMaxMiles":5},"Belogorskīy":{"countryName":"Kazakhstan","stateName":"East Kazakhstan Region","name":"Belogorskīy","lat":49.47698,"lon":83.14803,"geocoding":{},"distantMaxMiles":5},"Belousovka":{"countryName":"Kazakhstan","stateName":"East Kazakhstan Region","name":"Belousovka","lat":50.13287,"lon":82.52481,"geocoding":{},"distantMaxMiles":5},"Borodulikha":{"countryName":"Kazakhstan","stateName":"East Kazakhstan Region","name":"Borodulikha","lat":50.71841,"lon":80.9295,"geocoding":{},"distantMaxMiles":5},"Georgīevka":{"countryName":"Kazakhstan","stateName":"East Kazakhstan Region","name":"Georgīevka","lat":49.32671,"lon":81.57373,"geocoding":{},"distantMaxMiles":5},"Glubokoye":{"countryName":"Kazakhstan","stateName":"East Kazakhstan Region","name":"Glubokoye","lat":50.13887,"lon":82.31114,"geocoding":{},"distantMaxMiles":5},"Kurchatov":{"countryName":"Kazakhstan","stateName":"East Kazakhstan Region","name":"Kurchatov","lat":50.75617,"lon":78.54188,"geocoding":{},"distantMaxMiles":5},"Kurchum":{"countryName":"Kazakhstan","stateName":"East Kazakhstan Region","name":"Kurchum","lat":48.56603,"lon":83.66146,"geocoding":{},"distantMaxMiles":5},"Maleyevsk":{"countryName":"Kazakhstan","stateName":"East Kazakhstan Region","name":"Maleyevsk","lat":49.81441,"lon":84.29102,"geocoding":{},"distantMaxMiles":5},"Ognevka":{"countryName":"Kazakhstan","stateName":"East Kazakhstan Region","name":"Ognevka","lat":49.68351,"lon":83.01674,"geocoding":{},"distantMaxMiles":5},"Priisk Boko":{"countryName":"Kazakhstan","stateName":"East Kazakhstan Region","name":"Priisk Boko","lat":49.06028,"lon":81.64528,"geocoding":{},"distantMaxMiles":5},"Qaraūyl":{"countryName":"Kazakhstan","stateName":"East Kazakhstan Region","name":"Qaraūyl","lat":48.94509,"lon":79.25502,"geocoding":{},"distantMaxMiles":5},"Ridder":{"countryName":"Kazakhstan","stateName":"East Kazakhstan Region","name":"Ridder","lat":50.34413,"lon":83.51287,"geocoding":{},"distantMaxMiles":5},"Semey":{"countryName":"Kazakhstan","stateName":"East Kazakhstan Region","name":"Semey","lat":50.42675,"lon":80.26669,"geocoding":{},"distantMaxMiles":5},"Shar":{"countryName":"Kazakhstan","stateName":"East Kazakhstan Region","name":"Shar","lat":49.5872,"lon":81.04883,"geocoding":{},"distantMaxMiles":5},"Shemonaīkha":{"countryName":"Kazakhstan","stateName":"East Kazakhstan Region","name":"Shemonaīkha","lat":50.62811,"lon":81.91213,"geocoding":{},"distantMaxMiles":5},"Suykbulak":{"countryName":"Kazakhstan","stateName":"East Kazakhstan Region","name":"Suykbulak","lat":49.70837,"lon":81.04854,"geocoding":{},"distantMaxMiles":5},"Tūghyl":{"countryName":"Kazakhstan","stateName":"East Kazakhstan Region","name":"Tūghyl","lat":47.72521,"lon":84.20629,"geocoding":{},"distantMaxMiles":5},"Urzhar":{"countryName":"Kazakhstan","stateName":"East Kazakhstan Region","name":"Urzhar","lat":47.09302,"lon":81.62939,"geocoding":{},"distantMaxMiles":5},"Ust-Kamenogorsk":{"countryName":"Kazakhstan","stateName":"East Kazakhstan Region","name":"Ust-Kamenogorsk","lat":49.97143,"lon":82.60586,"geocoding":{},"distantMaxMiles":5},"Zaysan":{"countryName":"Kazakhstan","stateName":"East Kazakhstan Region","name":"Zaysan","lat":47.46657,"lon":84.87144,"geocoding":{},"distantMaxMiles":5},"Zhalghyztobe":{"countryName":"Kazakhstan","stateName":"East Kazakhstan Region","name":"Zhalghyztobe","lat":49.21094,"lon":81.21596,"geocoding":{},"distantMaxMiles":5},"Zhanga Buqtyrma":{"countryName":"Kazakhstan","stateName":"East Kazakhstan Region","name":"Zhanga Buqtyrma","lat":49.6295,"lon":83.52475,"geocoding":{},"distantMaxMiles":5},"Zhezkent":{"countryName":"Kazakhstan","stateName":"East Kazakhstan Region","name":"Zhezkent","lat":50.93112,"lon":81.3615,"geocoding":{},"distantMaxMiles":5},"Zyryanovsk":{"countryName":"Kazakhstan","stateName":"East Kazakhstan Region","name":"Zyryanovsk","lat":49.72654,"lon":84.27318,"geocoding":{},"distantMaxMiles":5},"Ūst’-Talovka":{"countryName":"Kazakhstan","stateName":"East Kazakhstan Region","name":"Ūst’-Talovka","lat":50.54927,"lon":81.84997,"geocoding":{},"distantMaxMiles":5}}},"Jambyl Region":{"countryName":"Kazakhstan","name":"Jambyl Region","isoCode":"ZHA","lat":44.2220308,"lon":72.3657967,"geocoding":{},"distantMaxMiles":5,"cities":{"Aqbaqay":{"countryName":"Kazakhstan","stateName":"Jambyl Region","name":"Aqbaqay","lat":45,"lon":72.78333,"geocoding":{},"distantMaxMiles":5},"Chu":{"countryName":"Kazakhstan","stateName":"Jambyl Region","name":"Chu","lat":43.60334,"lon":73.75919,"geocoding":{},"distantMaxMiles":5},"Georgiyevka":{"countryName":"Kazakhstan","stateName":"Jambyl Region","name":"Georgiyevka","lat":43.03882,"lon":74.71287,"geocoding":{},"distantMaxMiles":5},"Granitogorsk":{"countryName":"Kazakhstan","stateName":"Jambyl Region","name":"Granitogorsk","lat":42.744,"lon":73.46848,"geocoding":{},"distantMaxMiles":5},"Karatau":{"countryName":"Kazakhstan","stateName":"Jambyl Region","name":"Karatau","lat":43.17869,"lon":70.46768,"geocoding":{},"distantMaxMiles":5},"Khantaū":{"countryName":"Kazakhstan","stateName":"Jambyl Region","name":"Khantaū","lat":44.22744,"lon":73.79555,"geocoding":{},"distantMaxMiles":5},"Lugovoy":{"countryName":"Kazakhstan","stateName":"Jambyl Region","name":"Lugovoy","lat":42.94197,"lon":72.76098,"geocoding":{},"distantMaxMiles":5},"Lugovoye":{"countryName":"Kazakhstan","stateName":"Jambyl Region","name":"Lugovoye","lat":42.9101,"lon":72.72066,"geocoding":{},"distantMaxMiles":5},"Merke":{"countryName":"Kazakhstan","stateName":"Jambyl Region","name":"Merke","lat":42.86976,"lon":73.18463,"geocoding":{},"distantMaxMiles":5},"Moyynkum":{"countryName":"Kazakhstan","stateName":"Jambyl Region","name":"Moyynkum","lat":44.28461,"lon":72.9392,"geocoding":{},"distantMaxMiles":5},"Mynaral":{"countryName":"Kazakhstan","stateName":"Jambyl Region","name":"Mynaral","lat":45.41611,"lon":73.68444,"geocoding":{},"distantMaxMiles":5},"Oytal":{"countryName":"Kazakhstan","stateName":"Jambyl Region","name":"Oytal","lat":42.90573,"lon":73.26972,"geocoding":{},"distantMaxMiles":5},"Sarykemer":{"countryName":"Kazakhstan","stateName":"Jambyl Region","name":"Sarykemer","lat":43,"lon":71.5,"geocoding":{},"distantMaxMiles":5},"Shyghanaq":{"countryName":"Kazakhstan","stateName":"Jambyl Region","name":"Shyghanaq","lat":44.83056,"lon":70.00194,"geocoding":{},"distantMaxMiles":5},"Taraz":{"countryName":"Kazakhstan","stateName":"Jambyl Region","name":"Taraz","lat":42.9,"lon":71.36667,"geocoding":{},"distantMaxMiles":5},"Zhangatas":{"countryName":"Kazakhstan","stateName":"Jambyl Region","name":"Zhangatas","lat":43.56222,"lon":69.73428,"geocoding":{},"distantMaxMiles":5}}},"Karaganda Region":{"countryName":"Kazakhstan","name":"Karaganda Region","isoCode":"KAR","lat":47.9022182,"lon":71.7706807,"geocoding":{},"distantMaxMiles":5,"cities":{"Abay":{"countryName":"Kazakhstan","stateName":"Karaganda Region","name":"Abay","lat":49.63575,"lon":72.86164,"geocoding":{},"distantMaxMiles":5},"Abay Qalasy":{"countryName":"Kazakhstan","stateName":"Karaganda Region","name":"Abay Qalasy","lat":49.63333,"lon":72.88333,"geocoding":{},"distantMaxMiles":5},"Aksu-Ayuly":{"countryName":"Kazakhstan","stateName":"Karaganda Region","name":"Aksu-Ayuly","lat":48.76788,"lon":73.67272,"geocoding":{},"distantMaxMiles":5},"Aktas":{"countryName":"Kazakhstan","stateName":"Karaganda Region","name":"Aktas","lat":49.77952,"lon":72.96128,"geocoding":{},"distantMaxMiles":5},"Aktau":{"countryName":"Kazakhstan","stateName":"Karaganda Region","name":"Aktau","lat":48.03333,"lon":72.83333,"geocoding":{},"distantMaxMiles":5},"Aktogay":{"countryName":"Kazakhstan","stateName":"Karaganda Region","name":"Aktogay","lat":48.16667,"lon":75.3,"geocoding":{},"distantMaxMiles":5},"Aqadyr":{"countryName":"Kazakhstan","stateName":"Karaganda Region","name":"Aqadyr","lat":48.26014,"lon":72.85851,"geocoding":{},"distantMaxMiles":5},"Aqshataū":{"countryName":"Kazakhstan","stateName":"Karaganda Region","name":"Aqshataū","lat":47.98917,"lon":74.0575,"geocoding":{},"distantMaxMiles":5},"Aqtoghay Aūdany":{"countryName":"Kazakhstan","stateName":"Karaganda Region","name":"Aqtoghay Aūdany","lat":48.5,"lon":74.75,"geocoding":{},"distantMaxMiles":5},"Atasū":{"countryName":"Kazakhstan","stateName":"Karaganda Region","name":"Atasū","lat":48.68659,"lon":71.64469,"geocoding":{},"distantMaxMiles":5},"Balqash":{"countryName":"Kazakhstan","stateName":"Karaganda Region","name":"Balqash","lat":46.84806,"lon":74.995,"geocoding":{},"distantMaxMiles":5},"Bukhar-Zhyrau":{"countryName":"Kazakhstan","stateName":"Karaganda Region","name":"Bukhar-Zhyrau","lat":49.85658,"lon":73.68118,"geocoding":{},"distantMaxMiles":5},"Dolinka":{"countryName":"Kazakhstan","stateName":"Karaganda Region","name":"Dolinka","lat":49.67685,"lon":72.67822,"geocoding":{},"distantMaxMiles":5},"Karagandy":{"countryName":"Kazakhstan","stateName":"Karaganda Region","name":"Karagandy","lat":49.80187,"lon":73.10211,"geocoding":{},"distantMaxMiles":5},"Koktal":{"countryName":"Kazakhstan","stateName":"Karaganda Region","name":"Koktal","lat":49.65,"lon":73.51667,"geocoding":{},"distantMaxMiles":5},"Kushoky":{"countryName":"Kazakhstan","stateName":"Karaganda Region","name":"Kushoky","lat":50.23091,"lon":73.40146,"geocoding":{},"distantMaxMiles":5},"Kyzylzhar":{"countryName":"Kazakhstan","stateName":"Karaganda Region","name":"Kyzylzhar","lat":49.98197,"lon":72.60761,"geocoding":{},"distantMaxMiles":5},"Kīevka":{"countryName":"Kazakhstan","stateName":"Karaganda Region","name":"Kīevka","lat":50.26212,"lon":71.54839,"geocoding":{},"distantMaxMiles":5},"Moyynty":{"countryName":"Kazakhstan","stateName":"Karaganda Region","name":"Moyynty","lat":47.22111,"lon":73.36694,"geocoding":{},"distantMaxMiles":5},"Novodolinskiy":{"countryName":"Kazakhstan","stateName":"Karaganda Region","name":"Novodolinskiy","lat":49.7065,"lon":72.70807,"geocoding":{},"distantMaxMiles":5},"Osakarovka":{"countryName":"Kazakhstan","stateName":"Karaganda Region","name":"Osakarovka","lat":50.56219,"lon":72.57089,"geocoding":{},"distantMaxMiles":5},"Prigorodnoye":{"countryName":"Kazakhstan","stateName":"Karaganda Region","name":"Prigorodnoye","lat":49.69244,"lon":75.58438,"geocoding":{},"distantMaxMiles":5},"Priozersk":{"countryName":"Kazakhstan","stateName":"Karaganda Region","name":"Priozersk","lat":46.03106,"lon":73.70247,"geocoding":{},"distantMaxMiles":5},"Qarazhal":{"countryName":"Kazakhstan","stateName":"Karaganda Region","name":"Qarazhal","lat":48.00627,"lon":70.79607,"geocoding":{},"distantMaxMiles":5},"Qarqaraly":{"countryName":"Kazakhstan","stateName":"Karaganda Region","name":"Qarqaraly","lat":49.41287,"lon":75.47286,"geocoding":{},"distantMaxMiles":5},"Saryshaghan":{"countryName":"Kazakhstan","stateName":"Karaganda Region","name":"Saryshaghan","lat":46.11917,"lon":73.61917,"geocoding":{},"distantMaxMiles":5},"Sayaq":{"countryName":"Kazakhstan","stateName":"Karaganda Region","name":"Sayaq","lat":47,"lon":77.26667,"geocoding":{},"distantMaxMiles":5},"Shakhan":{"countryName":"Kazakhstan","stateName":"Karaganda Region","name":"Shakhan","lat":49.81958,"lon":72.65407,"geocoding":{},"distantMaxMiles":5},"Shakhtinsk":{"countryName":"Kazakhstan","stateName":"Karaganda Region","name":"Shakhtinsk","lat":49.70885,"lon":72.59212,"geocoding":{},"distantMaxMiles":5},"Shashūbay":{"countryName":"Kazakhstan","stateName":"Karaganda Region","name":"Shashūbay","lat":46.81694,"lon":75.04028,"geocoding":{},"distantMaxMiles":5},"Shubarköl":{"countryName":"Kazakhstan","stateName":"Karaganda Region","name":"Shubarköl","lat":48.88222,"lon":68.80722,"geocoding":{},"distantMaxMiles":5},"Soran":{"countryName":"Kazakhstan","stateName":"Karaganda Region","name":"Soran","lat":49.7908,"lon":72.83744,"geocoding":{},"distantMaxMiles":5},"Temirtau":{"countryName":"Kazakhstan","stateName":"Karaganda Region","name":"Temirtau","lat":50.05494,"lon":72.96464,"geocoding":{},"distantMaxMiles":5},"Tokarevka":{"countryName":"Kazakhstan","stateName":"Karaganda Region","name":"Tokarevka","lat":50.11573,"lon":73.16034,"geocoding":{},"distantMaxMiles":5},"Verkhniye Kayrakty":{"countryName":"Kazakhstan","stateName":"Karaganda Region","name":"Verkhniye Kayrakty","lat":48.68333,"lon":73.28333,"geocoding":{},"distantMaxMiles":5},"Zhambyl":{"countryName":"Kazakhstan","stateName":"Karaganda Region","name":"Zhambyl","lat":47.20694,"lon":71.39694,"geocoding":{},"distantMaxMiles":5},"Zharyk":{"countryName":"Kazakhstan","stateName":"Karaganda Region","name":"Zharyk","lat":48.85692,"lon":72.83598,"geocoding":{},"distantMaxMiles":5},"Zhezqazghan":{"countryName":"Kazakhstan","stateName":"Karaganda Region","name":"Zhezqazghan","lat":47.78333,"lon":67.76667,"geocoding":{},"distantMaxMiles":5}}},"Kostanay Region":{"countryName":"Kazakhstan","name":"Kostanay Region","isoCode":"KUS","lat":51.5077096,"lon":64.0479073,"geocoding":{},"distantMaxMiles":5,"cities":{"Arkalyk":{"countryName":"Kazakhstan","stateName":"Kostanay Region","name":"Arkalyk","lat":50.24915,"lon":66.92027,"geocoding":{},"distantMaxMiles":5},"Ayat":{"countryName":"Kazakhstan","stateName":"Kostanay Region","name":"Ayat","lat":52.83554,"lon":62.52078,"geocoding":{},"distantMaxMiles":5},"Borovskoy":{"countryName":"Kazakhstan","stateName":"Kostanay Region","name":"Borovskoy","lat":53.7927,"lon":64.18268,"geocoding":{},"distantMaxMiles":5},"Dzhetygara":{"countryName":"Kazakhstan","stateName":"Kostanay Region","name":"Dzhetygara","lat":52.19019,"lon":61.19894,"geocoding":{},"distantMaxMiles":5},"Fyodorovka":{"countryName":"Kazakhstan","stateName":"Kostanay Region","name":"Fyodorovka","lat":53.63809,"lon":62.69653,"geocoding":{},"distantMaxMiles":5},"Karasu":{"countryName":"Kazakhstan","stateName":"Kostanay Region","name":"Karasu","lat":52.65995,"lon":65.48421,"geocoding":{},"distantMaxMiles":5},"Komsomolets":{"countryName":"Kazakhstan","stateName":"Kostanay Region","name":"Komsomolets","lat":53.75019,"lon":62.0584,"geocoding":{},"distantMaxMiles":5},"Kostanay":{"countryName":"Kazakhstan","stateName":"Kostanay Region","name":"Kostanay","lat":53.21435,"lon":63.62463,"geocoding":{},"distantMaxMiles":5},"Lisakovsk":{"countryName":"Kazakhstan","stateName":"Kostanay Region","name":"Lisakovsk","lat":52.54707,"lon":62.49987,"geocoding":{},"distantMaxMiles":5},"Ordzhonikidze":{"countryName":"Kazakhstan","stateName":"Kostanay Region","name":"Ordzhonikidze","lat":52.44772,"lon":61.74942,"geocoding":{},"distantMaxMiles":5},"Qashar":{"countryName":"Kazakhstan","stateName":"Kostanay Region","name":"Qashar","lat":53.36799,"lon":62.86839,"geocoding":{},"distantMaxMiles":5},"Qusmuryn":{"countryName":"Kazakhstan","stateName":"Kostanay Region","name":"Qusmuryn","lat":52.45107,"lon":64.61977,"geocoding":{},"distantMaxMiles":5},"Rudnyy":{"countryName":"Kazakhstan","stateName":"Kostanay Region","name":"Rudnyy","lat":52.9729,"lon":63.11677,"geocoding":{},"distantMaxMiles":5},"Tobol":{"countryName":"Kazakhstan","stateName":"Kostanay Region","name":"Tobol","lat":52.69366,"lon":62.5914,"geocoding":{},"distantMaxMiles":5},"Torghay":{"countryName":"Kazakhstan","stateName":"Kostanay Region","name":"Torghay","lat":49.63389,"lon":63.49806,"geocoding":{},"distantMaxMiles":5},"Troyebratskiy":{"countryName":"Kazakhstan","stateName":"Kostanay Region","name":"Troyebratskiy","lat":54.44306,"lon":66.07982,"geocoding":{},"distantMaxMiles":5}}},"Kyzylorda Region":{"countryName":"Kazakhstan","name":"Kyzylorda Region","isoCode":"KZY","lat":44.6922613,"lon":62.6571885,"geocoding":{},"distantMaxMiles":5,"cities":{"Aral":{"countryName":"Kazakhstan","stateName":"Kyzylorda Region","name":"Aral","lat":46.8,"lon":61.66667,"geocoding":{},"distantMaxMiles":5},"Ayteke Bi":{"countryName":"Kazakhstan","stateName":"Kyzylorda Region","name":"Ayteke Bi","lat":45.84607,"lon":62.15264,"geocoding":{},"distantMaxMiles":5},"Belköl":{"countryName":"Kazakhstan","stateName":"Kyzylorda Region","name":"Belköl","lat":44.81162,"lon":65.58796,"geocoding":{},"distantMaxMiles":5},"Dzhalagash":{"countryName":"Kazakhstan","stateName":"Kyzylorda Region","name":"Dzhalagash","lat":45.08333,"lon":64.66667,"geocoding":{},"distantMaxMiles":5},"Kyzylorda":{"countryName":"Kazakhstan","stateName":"Kyzylorda Region","name":"Kyzylorda","lat":44.85278,"lon":65.50917,"geocoding":{},"distantMaxMiles":5},"Qazaly":{"countryName":"Kazakhstan","stateName":"Kyzylorda Region","name":"Qazaly","lat":45.76278,"lon":62.1075,"geocoding":{},"distantMaxMiles":5},"Sekseūil":{"countryName":"Kazakhstan","stateName":"Kyzylorda Region","name":"Sekseūil","lat":47.09,"lon":61.15194,"geocoding":{},"distantMaxMiles":5},"Shalqīya":{"countryName":"Kazakhstan","stateName":"Kyzylorda Region","name":"Shalqīya","lat":44.00947,"lon":67.41062,"geocoding":{},"distantMaxMiles":5},"Shīeli":{"countryName":"Kazakhstan","stateName":"Kyzylorda Region","name":"Shīeli","lat":44.16882,"lon":66.73887,"geocoding":{},"distantMaxMiles":5},"Tasböget":{"countryName":"Kazakhstan","stateName":"Kyzylorda Region","name":"Tasböget","lat":44.77384,"lon":65.55227,"geocoding":{},"distantMaxMiles":5},"Terenozek":{"countryName":"Kazakhstan","stateName":"Kyzylorda Region","name":"Terenozek","lat":45.05053,"lon":64.98395,"geocoding":{},"distantMaxMiles":5},"Yanykurgan":{"countryName":"Kazakhstan","stateName":"Kyzylorda Region","name":"Yanykurgan","lat":43.90652,"lon":67.24637,"geocoding":{},"distantMaxMiles":5},"Zhosaly":{"countryName":"Kazakhstan","stateName":"Kyzylorda Region","name":"Zhosaly","lat":45.48778,"lon":64.07806,"geocoding":{},"distantMaxMiles":5}}},"Mangystau Region":{"countryName":"Kazakhstan","name":"Mangystau Region","isoCode":"MAN","lat":44.590802,"lon":53.8499508,"geocoding":{},"distantMaxMiles":5,"cities":{"Aktau":{"countryName":"Kazakhstan","stateName":"Mangystau Region","name":"Aktau","lat":43.65,"lon":51.16667,"geocoding":{},"distantMaxMiles":5},"Baūtīno":{"countryName":"Kazakhstan","stateName":"Mangystau Region","name":"Baūtīno","lat":44.54479,"lon":50.24629,"geocoding":{},"distantMaxMiles":5},"Beyneu":{"countryName":"Kazakhstan","stateName":"Mangystau Region","name":"Beyneu","lat":45.31667,"lon":55.2,"geocoding":{},"distantMaxMiles":5},"Fort-Shevchenko":{"countryName":"Kazakhstan","stateName":"Mangystau Region","name":"Fort-Shevchenko","lat":44.50654,"lon":50.26388,"geocoding":{},"distantMaxMiles":5},"Munayshy":{"countryName":"Kazakhstan","stateName":"Mangystau Region","name":"Munayshy","lat":43.49111,"lon":52.10861,"geocoding":{},"distantMaxMiles":5},"Sayötesh":{"countryName":"Kazakhstan","stateName":"Mangystau Region","name":"Sayötesh","lat":44.32781,"lon":53.53246,"geocoding":{},"distantMaxMiles":5},"Shetpe":{"countryName":"Kazakhstan","stateName":"Mangystau Region","name":"Shetpe","lat":44.16667,"lon":52.11667,"geocoding":{},"distantMaxMiles":5},"Taūshyq":{"countryName":"Kazakhstan","stateName":"Mangystau Region","name":"Taūshyq","lat":44.34678,"lon":51.34932,"geocoding":{},"distantMaxMiles":5},"Yeraliyev":{"countryName":"Kazakhstan","stateName":"Mangystau Region","name":"Yeraliyev","lat":43.18032,"lon":51.68116,"geocoding":{},"distantMaxMiles":5},"Zhanaozen":{"countryName":"Kazakhstan","stateName":"Mangystau Region","name":"Zhanaozen","lat":43.34116,"lon":52.86192,"geocoding":{},"distantMaxMiles":5},"Zhetibay":{"countryName":"Kazakhstan","stateName":"Mangystau Region","name":"Zhetibay","lat":43.59417,"lon":52.07889,"geocoding":{},"distantMaxMiles":5},"Ömirzaq":{"countryName":"Kazakhstan","stateName":"Mangystau Region","name":"Ömirzaq","lat":43.59786,"lon":51.24171,"geocoding":{},"distantMaxMiles":5}}},"North Kazakhstan Region":{"countryName":"Kazakhstan","name":"North Kazakhstan Region","isoCode":"SEV","lat":54.1622066,"lon":69.9387071,"geocoding":{},"distantMaxMiles":5,"cities":{"Birlestik":{"countryName":"Kazakhstan","stateName":"North Kazakhstan Region","name":"Birlestik","lat":53.58414,"lon":68.35382,"geocoding":{},"distantMaxMiles":5},"Bishkul":{"countryName":"Kazakhstan","stateName":"North Kazakhstan Region","name":"Bishkul","lat":54.77763,"lon":69.09951,"geocoding":{},"distantMaxMiles":5},"Bulayevo":{"countryName":"Kazakhstan","stateName":"North Kazakhstan Region","name":"Bulayevo","lat":54.90596,"lon":70.44155,"geocoding":{},"distantMaxMiles":5},"Būrabay":{"countryName":"Kazakhstan","stateName":"North Kazakhstan Region","name":"Būrabay","lat":53.08382,"lon":70.31379,"geocoding":{},"distantMaxMiles":5},"Kzyltu":{"countryName":"Kazakhstan","stateName":"North Kazakhstan Region","name":"Kzyltu","lat":53.63589,"lon":72.34079,"geocoding":{},"distantMaxMiles":5},"Novoishimskiy":{"countryName":"Kazakhstan","stateName":"North Kazakhstan Region","name":"Novoishimskiy","lat":53.19806,"lon":66.76944,"geocoding":{},"distantMaxMiles":5},"Petropavl":{"countryName":"Kazakhstan","stateName":"North Kazakhstan Region","name":"Petropavl","lat":54.86667,"lon":69.15,"geocoding":{},"distantMaxMiles":5},"Sergeyevka":{"countryName":"Kazakhstan","stateName":"North Kazakhstan Region","name":"Sergeyevka","lat":53.88139,"lon":67.40882,"geocoding":{},"distantMaxMiles":5},"Smirnovo":{"countryName":"Kazakhstan","stateName":"North Kazakhstan Region","name":"Smirnovo","lat":54.5148,"lon":69.42732,"geocoding":{},"distantMaxMiles":5},"Taiynsha":{"countryName":"Kazakhstan","stateName":"North Kazakhstan Region","name":"Taiynsha","lat":53.84796,"lon":69.76773,"geocoding":{},"distantMaxMiles":5},"Talshik":{"countryName":"Kazakhstan","stateName":"North Kazakhstan Region","name":"Talshik","lat":53.63736,"lon":71.87404,"geocoding":{},"distantMaxMiles":5},"Timiryazevo":{"countryName":"Kazakhstan","stateName":"North Kazakhstan Region","name":"Timiryazevo","lat":53.74947,"lon":66.48852,"geocoding":{},"distantMaxMiles":5},"Volodarskoye":{"countryName":"Kazakhstan","stateName":"North Kazakhstan Region","name":"Volodarskoye","lat":53.2927,"lon":68.105,"geocoding":{},"distantMaxMiles":5},"Yavlenka":{"countryName":"Kazakhstan","stateName":"North Kazakhstan Region","name":"Yavlenka","lat":54.34525,"lon":68.4574,"geocoding":{},"distantMaxMiles":5}}},"Nur-Sultan":{"countryName":"Kazakhstan","name":"Nur-Sultan","isoCode":"AST","lat":51.1605227,"lon":71.4703558,"geocoding":{},"distantMaxMiles":5,"cities":{"Nur-Sultan":{"countryName":"Kazakhstan","stateName":"Nur-Sultan","name":"Nur-Sultan","lat":51.1801,"lon":71.44598,"geocoding":{},"distantMaxMiles":5}}},"Pavlodar Region":{"countryName":"Kazakhstan","name":"Pavlodar Region","isoCode":"PAV","lat":52.2878444,"lon":76.9733453,"geocoding":{},"distantMaxMiles":5,"cities":{"Aksu":{"countryName":"Kazakhstan","stateName":"Pavlodar Region","name":"Aksu","lat":52.04023,"lon":76.92748,"geocoding":{},"distantMaxMiles":5},"Bayanaul":{"countryName":"Kazakhstan","stateName":"Pavlodar Region","name":"Bayanaul","lat":50.79304,"lon":75.70123,"geocoding":{},"distantMaxMiles":5},"Belogor’ye":{"countryName":"Kazakhstan","stateName":"Pavlodar Region","name":"Belogor’ye","lat":51.52983,"lon":77.47146,"geocoding":{},"distantMaxMiles":5},"Ekibastuz":{"countryName":"Kazakhstan","stateName":"Pavlodar Region","name":"Ekibastuz","lat":51.72371,"lon":75.32287,"geocoding":{},"distantMaxMiles":5},"Irtyshsk":{"countryName":"Kazakhstan","stateName":"Pavlodar Region","name":"Irtyshsk","lat":53.33365,"lon":75.45775,"geocoding":{},"distantMaxMiles":5},"Kalkaman":{"countryName":"Kazakhstan","stateName":"Pavlodar Region","name":"Kalkaman","lat":51.95349,"lon":76.02723,"geocoding":{},"distantMaxMiles":5},"Leninskiy":{"countryName":"Kazakhstan","stateName":"Pavlodar Region","name":"Leninskiy","lat":52.25346,"lon":76.78211,"geocoding":{},"distantMaxMiles":5},"Mayqayyng":{"countryName":"Kazakhstan","stateName":"Pavlodar Region","name":"Mayqayyng","lat":51.45981,"lon":75.80232,"geocoding":{},"distantMaxMiles":5},"Pavlodar":{"countryName":"Kazakhstan","stateName":"Pavlodar Region","name":"Pavlodar","lat":52.28333,"lon":76.96667,"geocoding":{},"distantMaxMiles":5},"Qashyr":{"countryName":"Kazakhstan","stateName":"Pavlodar Region","name":"Qashyr","lat":53.06649,"lon":76.10489,"geocoding":{},"distantMaxMiles":5},"Zhelezinka":{"countryName":"Kazakhstan","stateName":"Pavlodar Region","name":"Zhelezinka","lat":53.5388,"lon":75.31326,"geocoding":{},"distantMaxMiles":5}}},"Turkestan Region":{"countryName":"Kazakhstan","name":"Turkestan Region","isoCode":"YUZ","lat":43.3666958,"lon":68.4094405,"geocoding":{},"distantMaxMiles":5,"cities":{"Arys":{"countryName":"Kazakhstan","stateName":"Turkestan Region","name":"Arys","lat":42.43015,"lon":68.8087,"geocoding":{},"distantMaxMiles":5},"Ashchysay":{"countryName":"Kazakhstan","stateName":"Turkestan Region","name":"Ashchysay","lat":43.5537,"lon":68.89792,"geocoding":{},"distantMaxMiles":5},"Asyqata":{"countryName":"Kazakhstan","stateName":"Turkestan Region","name":"Asyqata","lat":40.8946,"lon":68.3643,"geocoding":{},"distantMaxMiles":5},"Atakent":{"countryName":"Kazakhstan","stateName":"Turkestan Region","name":"Atakent","lat":40.84782,"lon":68.50643,"geocoding":{},"distantMaxMiles":5},"Bayzhansay":{"countryName":"Kazakhstan","stateName":"Turkestan Region","name":"Bayzhansay","lat":43.16708,"lon":69.91459,"geocoding":{},"distantMaxMiles":5},"Belyye Vody":{"countryName":"Kazakhstan","stateName":"Turkestan Region","name":"Belyye Vody","lat":42.42193,"lon":69.82709,"geocoding":{},"distantMaxMiles":5},"Chardara":{"countryName":"Kazakhstan","stateName":"Turkestan Region","name":"Chardara","lat":41.25832,"lon":67.96991,"geocoding":{},"distantMaxMiles":5},"Chayan":{"countryName":"Kazakhstan","stateName":"Turkestan Region","name":"Chayan","lat":43.03399,"lon":69.38048,"geocoding":{},"distantMaxMiles":5},"Chulakkurgan":{"countryName":"Kazakhstan","stateName":"Turkestan Region","name":"Chulakkurgan","lat":43.76453,"lon":69.17856,"geocoding":{},"distantMaxMiles":5},"Kantagi":{"countryName":"Kazakhstan","stateName":"Turkestan Region","name":"Kantagi","lat":43.52786,"lon":68.58287,"geocoding":{},"distantMaxMiles":5},"Kentau":{"countryName":"Kazakhstan","stateName":"Turkestan Region","name":"Kentau","lat":43.51672,"lon":68.50463,"geocoding":{},"distantMaxMiles":5},"Kokterek":{"countryName":"Kazakhstan","stateName":"Turkestan Region","name":"Kokterek","lat":42.49442,"lon":70.25478,"geocoding":{},"distantMaxMiles":5},"Lenger":{"countryName":"Kazakhstan","stateName":"Turkestan Region","name":"Lenger","lat":42.18152,"lon":69.88582,"geocoding":{},"distantMaxMiles":5},"Leninskoye":{"countryName":"Kazakhstan","stateName":"Turkestan Region","name":"Leninskoye","lat":41.7564,"lon":69.3839,"geocoding":{},"distantMaxMiles":5},"Maqtaaral Aūdany":{"countryName":"Kazakhstan","stateName":"Turkestan Region","name":"Maqtaaral Aūdany","lat":40.75,"lon":68.58333,"geocoding":{},"distantMaxMiles":5},"Myrzakent":{"countryName":"Kazakhstan","stateName":"Turkestan Region","name":"Myrzakent","lat":40.66338,"lon":68.5451,"geocoding":{},"distantMaxMiles":5},"Qogham":{"countryName":"Kazakhstan","stateName":"Turkestan Region","name":"Qogham","lat":42.82774,"lon":68.28074,"geocoding":{},"distantMaxMiles":5},"Saryaghash":{"countryName":"Kazakhstan","stateName":"Turkestan Region","name":"Saryaghash","lat":41.46042,"lon":69.16791,"geocoding":{},"distantMaxMiles":5},"Saryaghash Aūdany":{"countryName":"Kazakhstan","stateName":"Turkestan Region","name":"Saryaghash Aūdany","lat":41.66667,"lon":68.83333,"geocoding":{},"distantMaxMiles":5},"Sastobe":{"countryName":"Kazakhstan","stateName":"Turkestan Region","name":"Sastobe","lat":42.5533,"lon":69.99835,"geocoding":{},"distantMaxMiles":5},"Sozaq Aūdany":{"countryName":"Kazakhstan","stateName":"Turkestan Region","name":"Sozaq Aūdany","lat":44.83333,"lon":68.5,"geocoding":{},"distantMaxMiles":5},"Temirlanovka":{"countryName":"Kazakhstan","stateName":"Turkestan Region","name":"Temirlanovka","lat":42.59998,"lon":69.25836,"geocoding":{},"distantMaxMiles":5},"Turar Ryskulov":{"countryName":"Kazakhstan","stateName":"Turkestan Region","name":"Turar Ryskulov","lat":42.5334,"lon":70.3496,"geocoding":{},"distantMaxMiles":5},"Turkestan":{"countryName":"Kazakhstan","stateName":"Turkestan Region","name":"Turkestan","lat":43.29733,"lon":68.25175,"geocoding":{},"distantMaxMiles":5},"Tyul’kubas":{"countryName":"Kazakhstan","stateName":"Turkestan Region","name":"Tyul’kubas","lat":42.48578,"lon":70.29601,"geocoding":{},"distantMaxMiles":5},"Zhabagly":{"countryName":"Kazakhstan","stateName":"Turkestan Region","name":"Zhabagly","lat":42.43781,"lon":70.47841,"geocoding":{},"distantMaxMiles":5}}},"West Kazakhstan Province":{"countryName":"Kazakhstan","name":"West Kazakhstan Province","isoCode":"ZAP","lat":49.5679727,"lon":50.8066616,"geocoding":{},"distantMaxMiles":5,"cities":{"Aqsay":{"countryName":"Kazakhstan","stateName":"West Kazakhstan Province","name":"Aqsay","lat":51.1681,"lon":52.99782,"geocoding":{},"distantMaxMiles":5},"Burlin":{"countryName":"Kazakhstan","stateName":"West Kazakhstan Province","name":"Burlin","lat":51.42724,"lon":52.71392,"geocoding":{},"distantMaxMiles":5},"Chapaev":{"countryName":"Kazakhstan","stateName":"West Kazakhstan Province","name":"Chapaev","lat":50.2,"lon":51.16667,"geocoding":{},"distantMaxMiles":5},"Chingirlau":{"countryName":"Kazakhstan","stateName":"West Kazakhstan Province","name":"Chingirlau","lat":51.09878,"lon":54.08426,"geocoding":{},"distantMaxMiles":5},"Dzhambeyty":{"countryName":"Kazakhstan","stateName":"West Kazakhstan Province","name":"Dzhambeyty","lat":50.25676,"lon":52.59895,"geocoding":{},"distantMaxMiles":5},"Fedorovka":{"countryName":"Kazakhstan","stateName":"West Kazakhstan Province","name":"Fedorovka","lat":51.22102,"lon":51.95723,"geocoding":{},"distantMaxMiles":5},"Kaztalovka":{"countryName":"Kazakhstan","stateName":"West Kazakhstan Province","name":"Kaztalovka","lat":49.76612,"lon":48.68903,"geocoding":{},"distantMaxMiles":5},"Krūgloozernoe":{"countryName":"Kazakhstan","stateName":"West Kazakhstan Province","name":"Krūgloozernoe","lat":51.07854,"lon":51.28992,"geocoding":{},"distantMaxMiles":5},"Oral":{"countryName":"Kazakhstan","stateName":"West Kazakhstan Province","name":"Oral","lat":51.23333,"lon":51.36667,"geocoding":{},"distantMaxMiles":5},"Peremetnoe":{"countryName":"Kazakhstan","stateName":"West Kazakhstan Province","name":"Peremetnoe","lat":51.19925,"lon":50.85544,"geocoding":{},"distantMaxMiles":5},"Saykhin":{"countryName":"Kazakhstan","stateName":"West Kazakhstan Province","name":"Saykhin","lat":48.85611,"lon":46.83361,"geocoding":{},"distantMaxMiles":5},"Tasqala":{"countryName":"Kazakhstan","stateName":"West Kazakhstan Province","name":"Tasqala","lat":51.11073,"lon":50.29454,"geocoding":{},"distantMaxMiles":5},"Zhänibek":{"countryName":"Kazakhstan","stateName":"West Kazakhstan Province","name":"Zhänibek","lat":49.42207,"lon":46.84705,"geocoding":{},"distantMaxMiles":5}}}}}