{"name":"Lesotho","isoCode":"LS","lat":-29.5,"lon":28.5,"geocoding":{},"distantMaxMiles":5,"states":{"Berea District":{"countryName":"Lesotho","name":"Berea District","isoCode":"D","lat":41.3661614,"lon":-81.8543026,"geocoding":{},"distantMaxMiles":5,"cities":{"Teyateyaneng":{"countryName":"Lesotho","stateName":"Berea District","name":"Teyateyaneng","lat":-29.14719,"lon":27.74895,"geocoding":{},"distantMaxMiles":5}}},"Butha-Buthe District":{"countryName":"Lesotho","name":"Butha-Buthe District","isoCode":"B","lat":-28.7653754,"lon":28.2468148,"geocoding":{},"distantMaxMiles":5,"cities":{"Butha-Buthe":{"countryName":"Lesotho","stateName":"Butha-Buthe District","name":"Butha-Buthe","lat":-28.76659,"lon":28.24937,"geocoding":{},"distantMaxMiles":5}}},"Leribe District":{"countryName":"Lesotho","name":"Leribe District","isoCode":"C","lat":-28.8638065,"lon":28.0478826,"geocoding":{},"distantMaxMiles":5,"cities":{"Leribe":{"countryName":"Lesotho","stateName":"Leribe District","name":"Leribe","lat":-28.87185,"lon":28.04501,"geocoding":{},"distantMaxMiles":5},"Maputsoe":{"countryName":"Lesotho","stateName":"Leribe District","name":"Maputsoe","lat":-28.8866,"lon":27.89915,"geocoding":{},"distantMaxMiles":5}}},"Mafeteng District":{"countryName":"Lesotho","name":"Mafeteng District","isoCode":"E","lat":-29.8041008,"lon":27.5026174,"geocoding":{},"distantMaxMiles":5,"cities":{"Mafeteng":{"countryName":"Lesotho","stateName":"Mafeteng District","name":"Mafeteng","lat":-29.82299,"lon":27.23744,"geocoding":{},"distantMaxMiles":5}}},"Maseru District":{"countryName":"Lesotho","name":"Maseru District","isoCode":"A","lat":-29.516565,"lon":27.8311428,"geocoding":{},"distantMaxMiles":5,"cities":{"Maseru":{"countryName":"Lesotho","stateName":"Maseru District","name":"Maseru","lat":-29.31667,"lon":27.48333,"geocoding":{},"distantMaxMiles":5},"Nako":{"countryName":"Lesotho","stateName":"Maseru District","name":"Nako","lat":-29.61667,"lon":27.76667,"geocoding":{},"distantMaxMiles":5}}},"Mohale's Hoek District":{"countryName":"Lesotho","name":"Mohale's Hoek District","isoCode":"F","lat":-30.1425917,"lon":27.4673845,"geocoding":{},"distantMaxMiles":5,"cities":{"Mohale’s Hoek":{"countryName":"Lesotho","stateName":"Mohale's Hoek District","name":"Mohale’s Hoek","lat":-30.15137,"lon":27.47691,"geocoding":{},"distantMaxMiles":5}}},"Mokhotlong District":{"countryName":"Lesotho","name":"Mokhotlong District","isoCode":"J","lat":-29.2573193,"lon":28.9528645,"geocoding":{},"distantMaxMiles":5,"cities":{"Mokhotlong":{"countryName":"Lesotho","stateName":"Mokhotlong District","name":"Mokhotlong","lat":-29.28939,"lon":29.06751,"geocoding":{},"distantMaxMiles":5}}},"Qacha's Nek District":{"countryName":"Lesotho","name":"Qacha's Nek District","isoCode":"H","lat":-30.1114565,"lon":28.678979,"geocoding":{},"distantMaxMiles":5,"cities":{"Qacha’s Nek":{"countryName":"Lesotho","stateName":"Qacha's Nek District","name":"Qacha’s Nek","lat":-30.11537,"lon":28.68936,"geocoding":{},"distantMaxMiles":5}}},"Quthing District":{"countryName":"Lesotho","name":"Quthing District","isoCode":"G","lat":-30.4015687,"lon":27.7080133,"geocoding":{},"distantMaxMiles":5,"cities":{"Quthing":{"countryName":"Lesotho","stateName":"Quthing District","name":"Quthing","lat":-30.40001,"lon":27.70027,"geocoding":{},"distantMaxMiles":5}}},"Thaba-Tseka District":{"countryName":"Lesotho","name":"Thaba-Tseka District","isoCode":"K","lat":-29.5238975,"lon":28.6089752,"geocoding":{},"distantMaxMiles":5,"cities":{"Thaba-Tseka":{"countryName":"Lesotho","stateName":"Thaba-Tseka District","name":"Thaba-Tseka","lat":-29.52204,"lon":28.6084,"geocoding":{},"distantMaxMiles":5}}}}}