{"name":"Libya","isoCode":"LY","lat":25,"lon":17,"geocoding":{},"distantMaxMiles":5,"states":{"Al Wahat District":{"countryName":"Libya","name":"Al Wahat District","isoCode":"WA","lat":29.0466808,"lon":21.8568586,"geocoding":{},"distantMaxMiles":5,"cities":{"Ajdabiya":{"countryName":"Libya","stateName":"Al Wahat District","name":"Ajdabiya","lat":30.75545,"lon":20.22625,"geocoding":{},"distantMaxMiles":5},"Al Burayqah":{"countryName":"Libya","stateName":"Al Wahat District","name":"Al Burayqah","lat":30.40624,"lon":19.57386,"geocoding":{},"distantMaxMiles":5},"Awjilah":{"countryName":"Libya","stateName":"Al Wahat District","name":"Awjilah","lat":29.10806,"lon":21.28694,"geocoding":{},"distantMaxMiles":5},"Az Zuwaytīnah":{"countryName":"Libya","stateName":"Al Wahat District","name":"Az Zuwaytīnah","lat":30.9522,"lon":20.12022,"geocoding":{},"distantMaxMiles":5},"Gialo":{"countryName":"Libya","stateName":"Al Wahat District","name":"Gialo","lat":29.03333,"lon":21.55,"geocoding":{},"distantMaxMiles":5},"Marādah":{"countryName":"Libya","stateName":"Al Wahat District","name":"Marādah","lat":29.22054,"lon":19.20454,"geocoding":{},"distantMaxMiles":5}}},"Benghazi":{"countryName":"Libya","name":"Benghazi","isoCode":"BA","lat":32.1194242,"lon":20.0867909,"geocoding":{},"distantMaxMiles":5,"cities":{"Benghazi":{"countryName":"Libya","stateName":"Benghazi","name":"Benghazi","lat":32.11486,"lon":20.06859,"geocoding":{},"distantMaxMiles":5},"Qaryat Sulūq":{"countryName":"Libya","stateName":"Benghazi","name":"Qaryat Sulūq","lat":31.66818,"lon":20.25205,"geocoding":{},"distantMaxMiles":5}}},"Derna District":{"countryName":"Libya","name":"Derna District","isoCode":"DR","lat":32.755613,"lon":22.6377432,"geocoding":{},"distantMaxMiles":5,"cities":{"Al Qubbah":{"countryName":"Libya","stateName":"Derna District","name":"Al Qubbah","lat":32.75684,"lon":22.24106,"geocoding":{},"distantMaxMiles":5},"Darnah":{"countryName":"Libya","stateName":"Derna District","name":"Darnah","lat":32.76704,"lon":22.63669,"geocoding":{},"distantMaxMiles":5}}},"Ghat District":{"countryName":"Libya","name":"Ghat District","isoCode":"GT","lat":24.9640371,"lon":10.1759285,"geocoding":{},"distantMaxMiles":5,"cities":{"Ghat":{"countryName":"Libya","stateName":"Ghat District","name":"Ghat","lat":24.96334,"lon":10.18003,"geocoding":{},"distantMaxMiles":5}}},"Jabal al Akhdar":{"countryName":"Libya","name":"Jabal al Akhdar","isoCode":"JA","lat":23.1856081,"lon":57.3713879,"geocoding":{},"distantMaxMiles":5,"cities":{"Al Bayḑā’":{"countryName":"Libya","stateName":"Jabal al Akhdar","name":"Al Bayḑā’","lat":32.76272,"lon":21.75506,"geocoding":{},"distantMaxMiles":5}}},"Jabal al Gharbi District":{"countryName":"Libya","name":"Jabal al Gharbi District","isoCode":"JG","lat":30.2638032,"lon":12.8054753,"geocoding":{},"distantMaxMiles":5,"cities":{"Gharyan":{"countryName":"Libya","stateName":"Jabal al Gharbi District","name":"Gharyan","lat":32.17222,"lon":13.02028,"geocoding":{},"distantMaxMiles":5},"Giado":{"countryName":"Libya","stateName":"Jabal al Gharbi District","name":"Giado","lat":31.95506,"lon":12.02901,"geocoding":{},"distantMaxMiles":5},"Mizdah":{"countryName":"Libya","stateName":"Jabal al Gharbi District","name":"Mizdah","lat":31.44934,"lon":12.9853,"geocoding":{},"distantMaxMiles":5},"Yafran":{"countryName":"Libya","stateName":"Jabal al Gharbi District","name":"Yafran","lat":32.06329,"lon":12.52859,"geocoding":{},"distantMaxMiles":5},"Zintan":{"countryName":"Libya","stateName":"Jabal al Gharbi District","name":"Zintan","lat":31.93155,"lon":12.25291,"geocoding":{},"distantMaxMiles":5}}},"Jafara":{"countryName":"Libya","name":"Jafara","isoCode":"JI","lat":32.4525904,"lon":12.9435536,"geocoding":{},"distantMaxMiles":5,"cities":{"Al ‘Azīzīyah":{"countryName":"Libya","stateName":"Jafara","name":"Al ‘Azīzīyah","lat":32.53194,"lon":13.0175,"geocoding":{},"distantMaxMiles":5}}},"Jufra":{"countryName":"Libya","name":"Jufra","isoCode":"JU","lat":27.9835135,"lon":16.912251,"geocoding":{},"distantMaxMiles":5,"cities":{"Hūn":{"countryName":"Libya","stateName":"Jufra","name":"Hūn","lat":29.12684,"lon":15.94772,"geocoding":{},"distantMaxMiles":5},"Waddān":{"countryName":"Libya","stateName":"Jufra","name":"Waddān","lat":29.1614,"lon":16.13904,"geocoding":{},"distantMaxMiles":5}}},"Kufra District":{"countryName":"Libya","name":"Kufra District","isoCode":"KF","lat":23.3112389,"lon":21.8568586,"geocoding":{},"distantMaxMiles":5,"cities":{"Al Jawf":{"countryName":"Libya","stateName":"Kufra District","name":"Al Jawf","lat":24.1989,"lon":23.29093,"geocoding":{},"distantMaxMiles":5},"At Tāj":{"countryName":"Libya","stateName":"Kufra District","name":"At Tāj","lat":24.20487,"lon":23.2857,"geocoding":{},"distantMaxMiles":5}}},"Marj District":{"countryName":"Libya","name":"Marj District","isoCode":"MJ","lat":32.0550363,"lon":21.1891151,"geocoding":{},"distantMaxMiles":5,"cities":{"Al Abyār":{"countryName":"Libya","stateName":"Marj District","name":"Al Abyār","lat":32.19,"lon":20.59653,"geocoding":{},"distantMaxMiles":5},"Al Marj":{"countryName":"Libya","stateName":"Marj District","name":"Al Marj","lat":32.49257,"lon":20.82909,"geocoding":{},"distantMaxMiles":5},"Tūkrah":{"countryName":"Libya","stateName":"Marj District","name":"Tūkrah","lat":32.53414,"lon":20.57911,"geocoding":{},"distantMaxMiles":5}}},"Misrata District":{"countryName":"Libya","name":"Misrata District","isoCode":"MI","lat":32.3255884,"lon":15.0992556,"geocoding":{},"distantMaxMiles":5,"cities":{"Bani Walid":{"countryName":"Libya","stateName":"Misrata District","name":"Bani Walid","lat":31.74554,"lon":13.98354,"geocoding":{},"distantMaxMiles":5},"Mişrātah":{"countryName":"Libya","stateName":"Misrata District","name":"Mişrātah","lat":32.37535,"lon":15.09254,"geocoding":{},"distantMaxMiles":5},"Zliten":{"countryName":"Libya","stateName":"Misrata District","name":"Zliten","lat":32.46739,"lon":14.56874,"geocoding":{},"distantMaxMiles":5}}},"Murqub":{"countryName":"Libya","name":"Murqub","isoCode":"MB","lat":32.4599677,"lon":14.1001326,"geocoding":{},"distantMaxMiles":5,"cities":{"Al Khums":{"countryName":"Libya","stateName":"Murqub","name":"Al Khums","lat":32.64861,"lon":14.26191,"geocoding":{},"distantMaxMiles":5},"Masallātah":{"countryName":"Libya","stateName":"Murqub","name":"Masallātah","lat":32.61667,"lon":14,"geocoding":{},"distantMaxMiles":5},"Tarhuna":{"countryName":"Libya","stateName":"Murqub","name":"Tarhuna","lat":32.43501,"lon":13.6332,"geocoding":{},"distantMaxMiles":5}}},"Murzuq District":{"countryName":"Libya","name":"Murzuq District","isoCode":"MQ","lat":25.9182262,"lon":13.9260001,"geocoding":{},"distantMaxMiles":5,"cities":{"Al Qaţrūn":{"countryName":"Libya","stateName":"Murzuq District","name":"Al Qaţrūn","lat":24.95139,"lon":14.64861,"geocoding":{},"distantMaxMiles":5},"Murzuq":{"countryName":"Libya","stateName":"Murzuq District","name":"Murzuq","lat":25.91552,"lon":13.91839,"geocoding":{},"distantMaxMiles":5}}},"Nalut District":{"countryName":"Libya","name":"Nalut District","isoCode":"NL","lat":31.8742348,"lon":10.9750484,"geocoding":{},"distantMaxMiles":5,"cities":{"Ghadāmis":{"countryName":"Libya","stateName":"Nalut District","name":"Ghadāmis","lat":30.13366,"lon":9.50072,"geocoding":{},"distantMaxMiles":5},"Nālūt":{"countryName":"Libya","stateName":"Nalut District","name":"Nālūt","lat":31.86848,"lon":10.9812,"geocoding":{},"distantMaxMiles":5}}},"Nuqat al Khams":{"countryName":"Libya","name":"Nuqat al Khams","isoCode":"NQ","lat":32.6914909,"lon":11.8891721,"geocoding":{},"distantMaxMiles":5,"cities":{"Al Ajaylat":{"countryName":"Libya","stateName":"Nuqat al Khams","name":"Al Ajaylat","lat":32.75718,"lon":12.37633,"geocoding":{},"distantMaxMiles":5},"Zalţan":{"countryName":"Libya","stateName":"Nuqat al Khams","name":"Zalţan","lat":32.94699,"lon":11.86668,"geocoding":{},"distantMaxMiles":5},"Zuwārah":{"countryName":"Libya","stateName":"Nuqat al Khams","name":"Zuwārah","lat":32.9312,"lon":12.08199,"geocoding":{},"distantMaxMiles":5}}},"Sabha District":{"countryName":"Libya","name":"Sabha District","isoCode":"SB","lat":27.0365406,"lon":14.4290236,"geocoding":{},"distantMaxMiles":5,"cities":{"Al Jadīd":{"countryName":"Libya","stateName":"Sabha District","name":"Al Jadīd","lat":27.05,"lon":14.4,"geocoding":{},"distantMaxMiles":5},"Sabhā":{"countryName":"Libya","stateName":"Sabha District","name":"Sabhā","lat":27.03766,"lon":14.42832,"geocoding":{},"distantMaxMiles":5}}},"Sirte District":{"countryName":"Libya","name":"Sirte District","isoCode":"SR","lat":31.189689,"lon":16.5701927,"geocoding":{},"distantMaxMiles":5,"cities":{"Qasr Abu Hadi":{"countryName":"Libya","stateName":"Sirte District","name":"Qasr Abu Hadi","lat":31.05926,"lon":16.65905,"geocoding":{},"distantMaxMiles":5},"Sirte":{"countryName":"Libya","stateName":"Sirte District","name":"Sirte","lat":31.20892,"lon":16.58866,"geocoding":{},"distantMaxMiles":5}}},"Tripoli District":{"countryName":"Libya","name":"Tripoli District","isoCode":"TB","lat":32.6408021,"lon":13.2663479,"geocoding":{},"distantMaxMiles":5,"cities":{"Tagiura":{"countryName":"Libya","stateName":"Tripoli District","name":"Tagiura","lat":32.88167,"lon":13.35056,"geocoding":{},"distantMaxMiles":5},"Tripoli":{"countryName":"Libya","stateName":"Tripoli District","name":"Tripoli","lat":32.88743,"lon":13.18733,"geocoding":{},"distantMaxMiles":5}}},"Wadi al Hayaa District":{"countryName":"Libya","name":"Wadi al Hayaa District","isoCode":"WD","lat":26.4225926,"lon":12.6216211,"geocoding":{},"distantMaxMiles":5,"cities":{"Ubari":{"countryName":"Libya","stateName":"Wadi al Hayaa District","name":"Ubari","lat":26.59034,"lon":12.77511,"geocoding":{},"distantMaxMiles":5}}},"Wadi al Shatii District":{"countryName":"Libya","name":"Wadi al Shatii District","isoCode":"WS","lat":27.7351468,"lon":12.4380581,"geocoding":{},"distantMaxMiles":5,"cities":{"Brak":{"countryName":"Libya","stateName":"Wadi al Shatii District","name":"Brak","lat":27.54956,"lon":14.27139,"geocoding":{},"distantMaxMiles":5},"Idrī":{"countryName":"Libya","stateName":"Wadi al Shatii District","name":"Idrī","lat":27.44707,"lon":13.05173,"geocoding":{},"distantMaxMiles":5}}},"Zawiya District":{"countryName":"Libya","name":"Zawiya District","isoCode":"ZA","lat":32.7630282,"lon":12.7364962,"geocoding":{},"distantMaxMiles":5,"cities":{"Az Zāwīyah":{"countryName":"Libya","stateName":"Zawiya District","name":"Az Zāwīyah","lat":32.7571,"lon":12.72764,"geocoding":{},"distantMaxMiles":5},"Zawiya":{"countryName":"Libya","stateName":"Zawiya District","name":"Zawiya","lat":32.75222,"lon":12.72778,"geocoding":{},"distantMaxMiles":5},"Şabrātah":{"countryName":"Libya","stateName":"Zawiya District","name":"Şabrātah","lat":32.79335,"lon":12.48845,"geocoding":{},"distantMaxMiles":5},"Şurmān":{"countryName":"Libya","stateName":"Zawiya District","name":"Şurmān","lat":32.75668,"lon":12.57159,"geocoding":{},"distantMaxMiles":5}}}}}