{"name":"Swaziland","isoCode":"SZ","lat":-26.5,"lon":31.5,"geocoding":{},"distantMaxMiles":5,"states":{"Hhohho District":{"countryName":"Swaziland","name":"Hhohho District","isoCode":"HH","lat":-26.1365662,"lon":31.3541631,"geocoding":{},"distantMaxMiles":5,"cities":{"Bulembu":{"countryName":"Swaziland","stateName":"Hhohho District","name":"Bulembu","lat":-25.96667,"lon":31.13333,"geocoding":{},"distantMaxMiles":5},"Hhukwini":{"countryName":"Swaziland","stateName":"Hhohho District","name":"Hhukwini","lat":-26.31972,"lon":31.22222,"geocoding":{},"distantMaxMiles":5},"Lobamba":{"countryName":"Swaziland","stateName":"Hhohho District","name":"Lobamba","lat":-26.46667,"lon":31.2,"geocoding":{},"distantMaxMiles":5},"Mbabane":{"countryName":"Swaziland","stateName":"Hhohho District","name":"Mbabane","lat":-26.31667,"lon":31.13333,"geocoding":{},"distantMaxMiles":5},"Nkhaba":{"countryName":"Swaziland","stateName":"Hhohho District","name":"Nkhaba","lat":-26.15728,"lon":31.16391,"geocoding":{},"distantMaxMiles":5},"Piggs Peak":{"countryName":"Swaziland","stateName":"Hhohho District","name":"Piggs Peak","lat":-25.96082,"lon":31.24666,"geocoding":{},"distantMaxMiles":5}}},"Lubombo District":{"countryName":"Swaziland","name":"Lubombo District","isoCode":"LU","lat":-26.7851773,"lon":31.8107079,"geocoding":{},"distantMaxMiles":5,"cities":{"Big Bend":{"countryName":"Swaziland","stateName":"Lubombo District","name":"Big Bend","lat":-26.81667,"lon":31.93333,"geocoding":{},"distantMaxMiles":5},"Dvokodvweni Inkhundla":{"countryName":"Swaziland","stateName":"Lubombo District","name":"Dvokodvweni Inkhundla","lat":-26.45398,"lon":31.76456,"geocoding":{},"distantMaxMiles":5},"Lomashasha":{"countryName":"Swaziland","stateName":"Lubombo District","name":"Lomashasha","lat":-26.06644,"lon":32.00768,"geocoding":{},"distantMaxMiles":5},"Mhlume":{"countryName":"Swaziland","stateName":"Lubombo District","name":"Mhlume","lat":-26.03333,"lon":31.85,"geocoding":{},"distantMaxMiles":5},"Nsoko":{"countryName":"Swaziland","stateName":"Lubombo District","name":"Nsoko","lat":-27.03333,"lon":31.95,"geocoding":{},"distantMaxMiles":5},"Siteki":{"countryName":"Swaziland","stateName":"Lubombo District","name":"Siteki","lat":-26.4525,"lon":31.94722,"geocoding":{},"distantMaxMiles":5},"Tshaneni":{"countryName":"Swaziland","stateName":"Lubombo District","name":"Tshaneni","lat":-25.98333,"lon":31.71667,"geocoding":{},"distantMaxMiles":5},"Vuvulane":{"countryName":"Swaziland","stateName":"Lubombo District","name":"Vuvulane","lat":-26.07427,"lon":31.87672,"geocoding":{},"distantMaxMiles":5}}},"Manzini District":{"countryName":"Swaziland","name":"Manzini District","isoCode":"MA","lat":-26.5081999,"lon":31.3713164,"geocoding":{},"distantMaxMiles":5,"cities":{"Bhunya":{"countryName":"Swaziland","stateName":"Manzini District","name":"Bhunya","lat":-26.55,"lon":31.01667,"geocoding":{},"distantMaxMiles":5},"Ekukhanyeni":{"countryName":"Swaziland","stateName":"Manzini District","name":"Ekukhanyeni","lat":-26.3875,"lon":31.52806,"geocoding":{},"distantMaxMiles":5},"Kwaluseni":{"countryName":"Swaziland","stateName":"Manzini District","name":"Kwaluseni","lat":-26.48333,"lon":31.33333,"geocoding":{},"distantMaxMiles":5},"Malkerns":{"countryName":"Swaziland","stateName":"Manzini District","name":"Malkerns","lat":-26.56667,"lon":31.18333,"geocoding":{},"distantMaxMiles":5},"Manzini":{"countryName":"Swaziland","stateName":"Manzini District","name":"Manzini","lat":-26.49884,"lon":31.38004,"geocoding":{},"distantMaxMiles":5},"Manzini South":{"countryName":"Swaziland","stateName":"Manzini District","name":"Manzini South","lat":-26.48333,"lon":31.36667,"geocoding":{},"distantMaxMiles":5},"Mhlambanyatsi":{"countryName":"Swaziland","stateName":"Manzini District","name":"Mhlambanyatsi","lat":-26.45,"lon":31.01667,"geocoding":{},"distantMaxMiles":5},"Ngwempisi":{"countryName":"Swaziland","stateName":"Manzini District","name":"Ngwempisi","lat":-26.6999,"lon":31.28876,"geocoding":{},"distantMaxMiles":5},"Ntondozi":{"countryName":"Swaziland","stateName":"Manzini District","name":"Ntondozi","lat":-26.635,"lon":31.22556,"geocoding":{},"distantMaxMiles":5},"Sidvokodvo":{"countryName":"Swaziland","stateName":"Manzini District","name":"Sidvokodvo","lat":-26.6282,"lon":31.42021,"geocoding":{},"distantMaxMiles":5}}},"Shiselweni District":{"countryName":"Swaziland","name":"Shiselweni District","isoCode":"SH","lat":-26.9827577,"lon":31.3541631,"geocoding":{},"distantMaxMiles":5,"cities":{"Hlatikulu":{"countryName":"Swaziland","stateName":"Shiselweni District","name":"Hlatikulu","lat":-26.97917,"lon":31.32444,"geocoding":{},"distantMaxMiles":5},"Hluti":{"countryName":"Swaziland","stateName":"Shiselweni District","name":"Hluti","lat":-27.21667,"lon":31.61667,"geocoding":{},"distantMaxMiles":5},"Kubuta":{"countryName":"Swaziland","stateName":"Shiselweni District","name":"Kubuta","lat":-26.88333,"lon":31.48333,"geocoding":{},"distantMaxMiles":5},"Lavumisa":{"countryName":"Swaziland","stateName":"Shiselweni District","name":"Lavumisa","lat":-27.31005,"lon":31.89198,"geocoding":{},"distantMaxMiles":5},"Matsanjeni":{"countryName":"Swaziland","stateName":"Shiselweni District","name":"Matsanjeni","lat":-27.21585,"lon":31.72309,"geocoding":{},"distantMaxMiles":5},"Ngudzeni":{"countryName":"Swaziland","stateName":"Shiselweni District","name":"Ngudzeni","lat":-27.03583,"lon":31.55111,"geocoding":{},"distantMaxMiles":5},"Nhlangano":{"countryName":"Swaziland","stateName":"Shiselweni District","name":"Nhlangano","lat":-27.11222,"lon":31.19833,"geocoding":{},"distantMaxMiles":5},"Nkwene":{"countryName":"Swaziland","stateName":"Shiselweni District","name":"Nkwene","lat":-26.89778,"lon":31.24972,"geocoding":{},"distantMaxMiles":5},"Sigwe Inkhundla":{"countryName":"Swaziland","stateName":"Shiselweni District","name":"Sigwe Inkhundla","lat":-27.05821,"lon":31.64543,"geocoding":{},"distantMaxMiles":5},"Zombodze Ikhundla":{"countryName":"Swaziland","stateName":"Shiselweni District","name":"Zombodze Ikhundla","lat":-27.22746,"lon":31.33799,"geocoding":{},"distantMaxMiles":5}}}}}